     2.10           OBSERVATION DATA    M (Mixed)           RINEX VERSION / TYPE
RINEXSLX2 2.9.3     HEMISPHERE          5-JUL-18 15:42      PGM / RUN BY / DATE 
OBSERVER            COMPANY                                 OBSERVER / AGENCY   
SITE                                                        MARKER NAME         
SITE#                                                       MARKER NUMBER       
                                                            REC # / TYPE / VERS 
        0.0000        0.0000        0.0000                  APPROX POSITION XYZ 
                                                            ANT # / TYPE        
0.000               0.000               0.000               ANTENNA: DELTA H/E/N
     1                                                      INTERVAL            
     1     1     0                                          WAVELENGTH FACT L1/2
     7    L1    C1    D1    L2    P2    D2    C2            # / TYPES OF OBSERV 
  2018     5    22    19    59    1.000000      GPS         TIME OF FIRST OBS   
  2018     5    22    20     9   21.000000      GPS         TIME OF LAST OBS    
 NO VALID POSITION RECORD FOUND IN THE INPUT FILE           COMMENT             
                                                            END OF HEADER       
 18  5 22 19 59  1.0000000  0 19G 1G 3G 7G 8G11G17G18G19G22G24G28G30
                                R 7R12R13R14R22R23R24
 107976690.752 9  20547281.969 9     -1215.266 9  84137707.19249  20547288.12149
      -946.88549         0.000 0
 122723450.824 6  23353494.141 6      2967.668 6  95628684.09447  23353500.60547
      2312.31847         0.000 0
 130664036.057 6  24864540.543 6     -3780.973 6 101816143.25244  24864545.09444
     -2946.28144         0.000 0
 128141501.932 6  24384520.086 6     -3096.439 6  99850544.03546  24384526.89846
     -2412.78546         0.000 0
 110591797.788 8  21044920.758 8     -2141.439 8  86175439.35149  21044923.52049
     -1668.46749         0.000 0
 115861193.417 7  22047652.141 7      2051.963 7  90281464.99749  22047655.90649
      1598.88149         0.000 0
 114129909.627 7  21718200.449 7     -2779.252 7  88932411.32948  21718204.92648
     -2165.53748         0.000 0
 123369124.906 5  23476362.879 5      3170.070 5  96131794.24146  23476364.14146
      2470.20946         0.000 0
 120452702.461 6  22921387.301 6      1455.537 6  93859257.95047  22921388.83247
      1134.23047         0.000 0
 132672022.474 2  25246646.914 2      2586.145 2 103380829.75143  25246653.96943
      2015.05343         0.000 0
 107474241.324 6  20451668.949 6       175.770 6  83746172.43848  20451671.16848
       136.96548         0.000 0
 121803078.922 6  23178356.637 6     -3344.369 6  94911509.77847  23178363.07847
     -2605.93047         0.000 0
 123114505.813 5  22998824.645 5      2443.266 5  95755776.114 7         0.000 0
      1899.775 7  22998832.520 7
 121642973.428 5  22828563.699 5     -4476.654 5         0.000 0         0.000 0
         0.000 0         0.000 0
 104541570.942 4  19577278.297 4     -1231.553 4  81310137.924 5         0.000 0
      -957.893 5  19577286.320 5
 112403104.900 6  21086533.664 6      2834.064 6  87424690.701 8         0.000 0
      2204.270 8  21086549.563 8
 114244398.359 7  21401825.395 7     -3179.834 7  88856785.668 8         0.000 0
     -2473.471 8  21401835.852 8
 103379646.630 7  19325732.660 7       353.285 7  80406419.264 5         0.000 0
       274.695 5  19325745.836 5
 116888072.685 4  21858658.918 4      3091.980 4  90912986.891 4         0.000 0
      2405.998 4  21858667.656 4
 18  5 22 19 59  2.0000000  0 19G 1G 3G 7G 8G11G17G18G19G22G24G28G30
                                R 7R12R13R14R22R23R24
 107977905.682 9  20547513.391 9     -1214.328 9  84138653.89449  20547519.30149
      -946.31449         0.000 0
 122720482.842 6  23352928.824 6      2968.666 6  95626371.38747  23352935.76647
      2313.12147         0.000 0
 130667817.032 5  24865259.621 5     -3780.756 5 101819089.46944  24865265.02744
     -2945.96544         0.000 0
 128144596.587 6  24385108.379 6     -3094.525 6  99852955.48446  24385116.19146
     -2411.27746         0.000 0
 110593938.792 8  21045328.039 8     -2140.246 8  86177107.66449  21045330.93049
     -1667.72349         0.000 0
 115859142.157 7  22047262.398 7      2051.672 7  90279866.63148  22047264.31648
      1598.59048         0.000 0
 114132688.490 7  21718729.070 7     -2778.547 7  88934576.68548  21718733.63748
     -2164.98848         0.000 0
 123365955.475 5  23475759.215 5      3169.330 5  96129324.52745  23475759.98845
      2469.72545         0.000 0
 120451245.722 6  22921110.027 6      1457.004 6  93858122.82847  22921110.82847
      1135.27047         0.000 0
 132669436.071 1  25246154.719 1      2586.105 1 103378814.36343  25246161.01643
      2015.01643         0.000 0
 107474066.017 7  20451634.934 7       176.240 7  83746035.84748  20451637.34048
       137.22148         0.000 0
 121806424.136 6  23178993.582 6     -3345.053 6  94914116.39747  23179000.37947
     -2606.47347         0.000 0
 123112061.940 6  22998368.348 6      2444.027 6  95753875.367 7         0.000 0
      1900.773 7  22998377.227 7
 121647449.972 5  22829402.648 5     -4476.498 5         0.000 0         0.000 0
         0.000 0         0.000 0
 104542802.555 5  19577507.797 5     -1231.631 5  81311095.822 5         0.000 0
      -957.422 5  19577519.398 5
 112400270.756 6  21086003.750 6      2834.104 6  87422486.330 8         0.000 0
      2204.936 8  21086017.070 8
 114247577.325 7  21402419.133 7     -3178.389 7  88859258.172 8         0.000 0
     -2472.395 8  21402431.449 8
 103379293.493 7  19325667.102 7       353.773 7  80406144.641 6         0.000 0
       274.541 6  19325677.699 6
 116884981.483 4  21858079.445 4      3091.160 4  90910582.663 4         0.000 0
      2403.461 4  21858090.617 4
 18  5 22 19 59  3.0000000  0 19G 1G 3G 7G 8G11G17G18G19G22G24G28G30
                                R 7R12R13R14R22R23R24
 107979120.508 9  20547744.332 9     -1216.477 9  84139600.47649  20547750.70349
      -947.73849         0.000 0
 122717515.254 6  23352363.176 6      2967.158 6  95624058.96147  23352371.14547
      2312.18647         0.000 0
 130671597.912 6  24865978.938 6     -3780.775 6 101822035.55944  24865984.60244
     -2946.21744         0.000 0
 128147691.776 6  24385697.770 6     -3096.088 6  99855367.29446  24385705.52346
     -2412.56446         0.000 0
 110596079.765 8  21045735.273 8     -2142.297 8  86178775.95449  21045738.19149
     -1669.30149         0.000 0
 115857089.910 7  22046871.609 7      2050.889 7  90278267.46148  22046874.38748
      1598.18248         0.000 0
 114135467.620 7  21719257.789 7     -2780.346 7  88936742.23748  21719262.10948
     -2166.66448         0.000 0
 123362785.242 5  23475156.363 5      3168.896 5  96126854.23045  23475158.07845
      2469.29545         0.000 0
 120449789.538 6  22920832.566 6      1455.225 6  93856988.14747  22920833.84047
      1133.90447         0.000 0
 132666849.825 2  25245662.477 2      2586.533 2 103376799.12343  25245668.94543
      2015.48643         0.000 0
 107473890.035 6  20451602.160 6       173.836 6  83745898.70748  20451603.76248
       135.38748         0.000 0
 121809768.874 6  23179630.762 6     -3345.658 6  94916722.73647  23179636.84447
     -2607.07647         0.000 0
 123109619.086 5  22997913.000 5      2442.162 5  95751975.340 7         0.000 0
      1899.504 7  22997919.020 7
 121651926.467 5  22830241.402 5     -4476.912 5         0.000 0         0.000 0
         0.000 0         0.000 0
 104544033.779 5  19577739.535 5     -1233.303 5  81312053.420 5         0.000 0
      -957.750 5  19577750.707 5
 112397436.276 6  21085473.922 6      2833.123 6  87420281.771 8         0.000 0
      2203.113 8  21085484.523 8
 114250756.319 7  21403015.539 7     -3179.969 7  88861730.746 8         0.000 0
     -2473.379 8  21403024.848 8
 103378939.659 7  19325602.063 7       352.074 7  80405869.421 5         0.000 0
       273.852 5  19325610.656 5
 116881889.506 3  21857500.633 3      3090.801 3  90908177.774 3         0.000 0
      2404.045 3  21857512.949 3
 18  5 22 19 59  4.0000000  0 19G 1G 3G 7G 8G11G17G18G19G22G24G28G30
                                R 7R12R13R14R22R23R24
 107980336.821 9  20547975.871 9     -1216.309 9  84140548.28049  20547982.10949
      -947.86549         0.000 0
 122714548.221 6  23351798.117 6      2967.287 6  95621746.99447  23351806.30547
      2312.17647         0.000 0
 130675378.812 5  24866699.133 5     -3780.607 5 101824981.73744  24866702.55144
     -2946.05144         0.000 0
 128150787.013 6  24386287.320 6     -3095.119 6  99857779.18246  24386293.51646
     -2411.63746         0.000 0
 110598221.925 8  21046142.527 8     -2142.598 8  86180445.16449  21046145.59049
     -1669.50849         0.000 0
 115855038.861 7  22046480.555 7      2050.295 7  90276669.25848  22046484.38748
      1597.64348         0.000 0
 114138247.655 7  21719786.527 7     -2779.904 7  88938908.51548  21719791.44948
     -2166.12948         0.000 0
 123359615.810 5  23474552.387 5      3170.100 5  96124384.52645  23474554.87545
      2470.26245         0.000 0
 120448334.221 6  22920555.555 6      1455.451 6  93855854.12647  22920557.18847
      1134.08847         0.000 0
 132664264.244 2  25245170.109 2      2585.412 2 103374784.39043  25245176.52043
      2014.53743         0.000 0
 107473715.613 7  20451568.832 7       174.102 7  83745762.80048  20451570.44948
       135.65048         0.000 0
 121813114.417 6  23180266.676 6     -3345.783 6  94919329.61247  23180273.41847
     -2607.04747         0.000 0
 123107176.932 6  22997456.250 6      2442.291 6  95750075.899 7         0.000 0
      1898.654 7  22997463.410 7
 121656403.483 5  22831079.324 5     -4476.686 5         0.000 0         0.000 0
         0.000 0         0.000 0
 104545267.055 5  19577969.152 5     -1233.076 5  81313012.696 6         0.000 0
      -959.752 6  19577979.895 6
 112394603.349 6  21084939.969 6      2832.490 6  87418078.325 8         0.000 0
      2203.338 8  21084954.293 8
 114253936.009 7  21403612.973 7     -3179.840 7  88864203.784 8         0.000 0
     -2472.744 8  21403620.707 8
 103378587.562 8  19325535.473 8       351.461 8  80405595.563 6         0.000 0
       273.920 6  19325545.500 6
 116878798.721 4  21856923.281 4      3090.344 4  90905773.816 4         0.000 0
      2403.877 4  21856933.305 4
 18  5 22 19 59  5.0000000  0 19G 1G 3G 7G 8G11G17G18G19G22G24G28G30
                                R 7R12R13R14R22R23R24
 107981552.951 9  20548207.520 9     -1216.670 9  84141495.91349  20548213.00049
      -948.01449         0.000 0
 122711581.241 6  23351234.320 6      2966.809 6  95619435.05247  23351242.59047
      2311.83247         0.000 0
 130679160.133 6  24867418.008 6     -3782.160 6 101827928.21844  24867423.37544
     -2947.21344         0.000 0
 128153881.788 6  24386875.270 6     -3095.109 6  99860190.69246  24386882.22346
     -2411.82246         0.000 0
 110600363.673 8  21046550.750 8     -2142.512 8  86182114.06249  21046553.45749
     -1669.65449         0.000 0
 115852987.637 7  22046090.039 7      2050.402 7  90275070.89348  22046093.48848
      1597.65248         0.000 0
 114141027.288 7  21720315.809 7     -2780.012 7  88941074.41748  21720319.60248
     -2166.17848         0.000 0
 123356446.529 5  23473949.523 5      3168.547 5  96121914.99945  23473952.68845
      2468.82445         0.000 0
 120446878.875 6  22920279.086 6      1454.990 6  93854720.11647  22920280.51647
      1133.64847         0.000 0
 132661678.575 1  25244677.859 1      2584.875 1 103372769.57942  25244685.14142
      2014.33242         0.000 0
 107473540.980 7  20451535.477 7       173.721 7  83745626.70548  20451538.28148
       135.36748         0.000 0
 121816460.338 6  23180903.133 6     -3346.457 6  94921936.85447  23180910.04747
     -2607.68247         0.000 0
 123104734.826 5  22996999.469 5      2441.053 5  95748176.442 7         0.000 0
      1899.035 7  22997006.773 7
 121660880.880 5  22831917.074 5     -4478.102 5         0.000 0         0.000 0
         0.000 0         0.000 0
 104546500.752 5  19578199.738 5     -1234.627 5  81313972.207 6         0.000 0
      -960.250 6  19578212.629 6
 112391770.271 6  21084409.277 6      2832.090 6  87415874.880 8         0.000 0
      2202.332 8  21084421.883 8
 114257114.985 7  21404207.227 7     -3179.633 7  88866676.351 8         0.000 0
     -2472.988 8  21404216.969 8
 103378235.277 7  19325470.145 7       351.490 7  80405321.547 5         0.000 0
       273.871 5  19325478.449 5
 116875708.140 3  21856343.461 3      3089.223 3  90903370.046 4         0.000 0
      2403.654 4  21856354.633 4
 18  5 22 19 59  6.0000000  0 19G 1G 3G 7G 8G11G17G18G19G22G24G28G30
                                R 7R12R13R14R22R23R24
 107982769.641 9  20548438.309 9     -1217.330 9  84142443.99049  20548444.90649
      -948.53149         0.000 0
 122708614.556 6  23350669.805 6      2966.502 6  95617123.35348  23350676.17248
      2311.39548         0.000 0
 130682941.266 6  24868137.027 6     -3781.064 6 101830874.57444  24868142.78144
     -2946.32644         0.000 0
 128156976.769 6  24387464.504 6     -3094.539 6  99862602.37646  24387470.87146
     -2411.48246         0.000 0
 110602505.901 7  21046958.258 7     -2142.469 7  86183783.27549  21046960.54749
     -1669.41049         0.000 0
 115850936.509 7  22045700.094 7      2051.363 7  90273472.63548  22045703.38748
      1598.40448         0.000 0
 114143807.498 7  21720844.512 7     -2780.965 7  88943240.83448  21720849.20748
     -2166.83448         0.000 0
 123353277.249 5  23473346.656 5      3170.408 5  96119445.43046  23473348.54746
      2470.39846         0.000 0
 120445424.125 6  22920002.324 6      1454.566 6  93853586.53247  22920003.08647
      1133.61947         0.000 0
 132659093.533 2  25244185.891 2      2585.545 2 103370755.29243  25244192.28543
      2014.77343         0.000 0
 107473366.658 6  20451502.832 6       173.764 6  83745490.86748  20451504.47748
       135.29948         0.000 0
 121819806.273 6  23181540.305 6     -3345.518 6  94924544.10147  23181546.54347
     -2607.02947         0.000 0
 123102293.472 5  22996540.535 5      2440.910 5  95746277.614 6         0.000 0
      1899.010 6  22996551.707 6
 121665358.323 5  22832754.961 5     -4477.076 5         0.000 0         0.000 0
         0.000 0         0.000 0
 104547735.141 5  19578433.477 5     -1234.943 5  81314932.290 6         0.000 0
      -960.768 6  19578442.641 6
 112388937.872 6  21083879.445 6      2832.236 6  87413671.860 8         0.000 0
      2203.014 8  21083889.184 8
 114260294.309 6  21404800.477 6     -3179.943 6  88869149.134 8         0.000 0
     -2472.654 8  21404811.504 8
 103377883.430 7  19325404.238 7       351.203 7  80405047.885 5         0.000 0
       273.773 5  19325412.832 5
 116872617.744 3  21855765.074 3      3091.072 3  90900966.461 3         0.000 0
      2403.160 3  21855775.387 3
 18  5 22 19 59  7.0000000  0 19G 1G 3G 7G 8G11G17G18G19G22G24G28G30
                                R 7R12R13R14R22R23R24
 107983987.376 9  20548670.020 9     -1216.824 9  84143392.87149  20548676.48849
      -948.17649         0.000 0
 122705648.736 6  23350105.496 6      2966.188 6  95614812.32548  23350112.96548
      2311.22348         0.000 0
 130686723.127 5  24868857.398 5     -3782.314 5 101833821.48044  24868861.94944
     -2947.26044         0.000 0
 128160071.608 6  24388053.801 6     -3094.287 6  99865013.93346  24388060.78546
     -2411.02946         0.000 0
 110604648.796 7  21047365.402 7     -2141.941 7  86185453.09449  21047368.46549
     -1668.97949         0.000 0
 115848886.147 7  22045310.215 7      2050.699 7  90271874.96348  22045313.44948
      1597.70548         0.000 0
 114146588.048 7  21721374.570 7     -2779.932 7  88945407.48648  21721378.20748
     -2166.04948         0.000 0
 123350108.589 5  23472744.000 5      3168.709 5  96116976.31146  23472746.17646
      2469.19146         0.000 0
 120443970.172 6  22919725.059 6      1454.605 6  93852453.60947  22919726.82047
      1133.36947         0.000 0
 132656508.202 2  25243694.414 2      2585.836 2 103368740.75743  25243700.69543
      2015.08843         0.000 0
 107473193.516 6  20451469.824 6       174.154 6  83745355.95548  20451471.57048
       135.63348         0.000 0
 121823153.461 6  23182177.395 6     -3346.670 6  94927152.25547  23182183.90647
     -2607.84647         0.000 0
 123099852.457 5  22996086.250 5      2441.297 5  95744379.054 7         0.000 0
      1898.736 7  22996095.273 7
 121669836.949 5  22833592.344 5     -4479.092 5         0.000 0         0.000 0
         0.000 0         0.000 0
 104548971.318 5  19578664.410 5     -1235.689 5  81315893.728 5         0.000 0
      -960.787 5  19578671.430 5
 112386106.102 6  21083346.813 6      2832.857 6  87411469.421 8         0.000 0
      2202.703 8  21083362.566 8
 114263473.570 6  21405397.656 6     -3178.307 6  88871621.896 8         0.000 0
     -2472.088 8  21405408.973 8
 103377532.712 7  19325340.402 7       351.746 7  80404775.128 5         0.000 0
       273.209 5  19325347.137 5
 116869528.361 3  21855189.613 3      3090.170 3  90898563.584 4         0.000 0
      2402.693 4  21855196.203 4
 18  5 22 19 59  8.0000000  0 19G 1G 3G 7G 8G11G17G18G19G22G24G28G30
                                R 7R12R13R14R22R23R24
 107985205.495 8  20548902.426 8     -1217.990 8  84144342.02149  20548908.06649
      -948.81649         0.000 0
 122702683.128 6  23349541.594 6      2965.393 6  95612501.42748  23349548.93848
      2310.97348         0.000 0
 130690505.021 5  24869576.605 5     -3781.508 5 101836768.41544  24869582.59844
     -2946.57244         0.000 0
 128163166.431 6  24388642.078 6     -3094.477 6  99867425.44846  24388649.54746
     -2411.20146         0.000 0
 110606791.917 7  21047773.953 7     -2142.775 7  86187123.04549  21047776.57449
     -1669.55949         0.000 0
 115846835.904 7  22044920.172 7      2050.959 7  90270277.36048  22044922.71948
      1598.19748         0.000 0
 114149368.830 7  21721903.324 7     -2780.336 7  88947574.32448  21721907.24248
     -2166.49448         0.000 0
 123346940.149 5  23472141.754 5      3169.025 5  96114507.40646  23472143.67246
      2469.48846         0.000 0
 120442516.595 6  22919449.063 6      1453.244 6  93851320.94747  22919449.53547
      1132.41647         0.000 0
 132653923.335 2  25243202.633 2      2585.021 2 103366726.55143  25243209.77343
      2014.23443         0.000 0
 107473020.618 6  20451436.367 6       173.027 6  83745221.21548  20451438.08248
       134.70148         0.000 0
 121826500.883 6  23182814.180 6     -3347.270 6  94929760.67447  23182820.54747
     -2608.19347         0.000 0
 123097412.014 5  22995630.512 5      2440.229 5  95742480.958 7         0.000 0
      1897.434 7  22995639.680 7
 121674315.750 5  22834430.848 5     -4478.441 5         0.000 0         0.000 0
         0.000 0         0.000 0
 104550208.206 4  19578897.191 4     -1236.602 4  81316855.781 6         0.000 0
      -962.072 6  19578905.211 6
 112383274.942 6  21082815.734 6      2832.043 6  87409267.333 8         0.000 0
      2202.961 8  21082829.199 8
 114266652.890 6  21405992.953 6     -3178.906 6  88874094.684 8         0.000 0
     -2471.965 8  21406003.125 8
 103377182.288 7  19325273.828 7       351.107 7  80404502.555 5         0.000 0
       272.920 5  19325279.555 5
 116866439.364 3  21854612.129 3      3089.490 3  90896160.943 3         0.000 0
      2403.576 3  21854621.867 3
 18  5 22 19 59  9.0000000  0 19G 1G 3G 7G 8G11G17G18G19G22G24G28G30
                                R 7R12R13R14R22R23R24
 107986423.908 8  20549134.293 8     -1218.664 8  84145291.43149  20549140.11749
      -949.51049         0.000 0
 122699717.430 6  23348977.441 6      2965.012 6  95610190.51248  23348984.85248
      2310.37548         0.000 0
 130694287.530 5  24870296.984 5     -3783.199 5 101839715.80844  24870302.76644
     -2947.77344         0.000 0
 128166260.456 6  24389230.672 6     -3094.232 6  99869836.35846  24389238.30146
     -2410.91846         0.000 0
 110608935.020 8  21048181.680 8     -2143.393 8  86188792.99449  21048184.57049
     -1670.31349         0.000 0
 115844786.622 8  22044530.305 8      2049.307 8  90268680.53249  22044533.87949
      1596.93849         0.000 0
 114152149.463 7  21722432.535 7     -2780.580 7  88949740.97048  21722437.50048
     -2166.64148         0.000 0
 123343772.840 5  23471537.961 5      3167.102 5  96112039.32946  23471540.23846
      2467.91446         0.000 0
 120441062.929 6  22919171.805 6      1453.232 6  93850188.20247  22919173.63747
      1132.34847         0.000 0
 132651339.042 2  25242710.453 2      2584.795 2 103364712.79443  25242717.87943
      2014.18443         0.000 0
 107472848.354 6  20451403.797 6       172.098 6  83745086.99648  20451405.47348
       134.10448         0.000 0
 121829849.330 6  23183451.711 6     -3349.215 6  94932369.85947  23183457.42247
     -2609.90247         0.000 0
 123094971.291 6  22995175.234 6      2440.703 6  95740582.623 6         0.000 0
      1898.242 6  22995183.258 6
 121678795.134 5  22835270.387 5     -4479.920 5         0.000 0         0.000 0
         0.000 0         0.000 0
 104551446.545 5  19579129.141 5     -1238.645 5  81317818.948 6         0.000 0
      -963.920 6  19579135.730 6
 112380444.753 6  21082286.121 6      2830.469 6  87407066.091 8         0.000 0
      2201.250 8  21082298.152 8
 114269831.672 6  21406589.145 6     -3178.332 6  88876567.110 8         0.000 0
     -2472.133 8  21406599.887 8
 103376832.812 8  19325208.141 8       349.104 8  80404230.763 6         0.000 0
       271.209 6  19325215.016 6
 116863351.597 2  21854036.250 2      3086.725 2  90893759.386 3         0.000 0
      2401.436 3  21854042.840 3
 18  5 22 19 59 10.0000000  0 19G 1G 3G 7G 8G11G17G18G19G22G24G28G30
                                R 7R12R13R14R22R23R24
 107987642.479 9  20549365.875 9     -1219.381 9  84146240.96049  20549371.90249
      -950.19549         0.000 0
 122696752.296 6  23348412.859 6      2964.607 6  95607879.99048  23348420.80148
      2310.19748         0.000 0
 130698070.696 5  24871016.797 5     -3783.389 5 101842663.77043  24871023.03943
     -2948.24443         0.000 0
 128169354.199 6  24389819.555 6     -3093.465 6  99872247.07046  24389827.15646
     -2410.39346         0.000 0
 110611078.012 7  21048589.266 7     -2143.699 7  86190462.85449  21048592.10249
     -1670.52949         0.000 0
 115842737.497 8  22044139.723 8      2048.590 8  90267083.83749  22044142.65649
      1596.27149         0.000 0
 114154929.870 7  21722961.891 7     -2781.238 7  88951907.53248  21722965.64148
     -2167.20948         0.000 0
 123340605.769 4  23470935.176 4      3167.186 4  96109571.45746  23470937.46546
      2467.69746         0.000 0
 120439609.636 6  22918894.699 6      1452.281 6  93849055.79248  22918896.57048
      1131.74048         0.000 0
 132648754.548 1  25242219.422 1      2584.412 1 103362698.91543  25242225.60543
      2013.77143         0.000 0
 107472676.317 6  20451370.949 6       170.854 6  83744952.92848  20451373.69548
       133.10548         0.000 0
 121833198.577 6  23184088.387 6     -3349.578 6  94934979.65847  23184095.38347
     -2609.98247         0.000 0
 123092530.841 6  22994717.242 6      2439.596 6  95738684.451 7         0.000 0
      1897.398 7  22994727.840 7
 121683275.388 5  22836108.500 5     -4480.949 5         0.000 0         0.000 0
         0.000 0         0.000 0
 104552685.769 4  19579359.230 4     -1239.811 4  81318782.770 6         0.000 0
      -964.625 6  19579367.539 6
 112377614.681 6  21081753.215 6      2829.205 6  87404864.895 8         0.000 0
      2200.896 8  21081766.105 8
 114273009.952 7  21407184.621 7     -3178.973 7  88879039.057 8         0.000 0
     -2472.098 8  21407195.793 8
 103376483.505 8  19325141.602 8       348.717 8  80403959.065 6         0.000 0
       271.695 6  19325150.766 6
 116860264.424 2  21853458.371 2      3087.199 2  90891358.245 4         0.000 0
      2400.574 4  21853464.102 4
 18  5 22 19 59 11.0000000  0 19G 1G 3G 7G 8G11G17G18G19G22G24G28G30
                                R 7R12R13R14R22R23R24
 107988861.493 9  20549597.836 9     -1219.201 9  84147190.82949  20549603.78949
      -949.95149         0.000 0
 122693787.674 6  23347848.656 6      2964.102 6  95605569.85348  23347855.48448
      2309.54348         0.000 0
 130701854.638 5  24871736.559 5     -3785.023 5 101845612.25743  24871743.22743
     -2949.23043         0.000 0
 128172447.404 6  24390408.531 6     -3092.816 6  99874657.32847  24390415.69947
     -2410.10947         0.000 0
 110613221.082 8  21048997.230 8     -2143.090 8  86192132.77049  21048999.16049
     -1669.93249         0.000 0
 115840688.856 8  22043749.805 8      2048.633 8  90265487.46249  22043753.25449
      1596.32049         0.000 0
 114157710.069 7  21723490.766 7     -2780.414 7  88954073.93048  21723494.94548
     -2166.43848         0.000 0
 123337439.239 4  23470332.195 4      3166.738 4  96107104.06546  23470335.35946
      2467.49246         0.000 0
 120438156.637 6  22918618.969 6      1452.148 6  93847923.54548  22918620.68448
      1131.65248         0.000 0
 132646169.717 2  25241727.770 2      2585.684 2 103360684.75843  25241732.84843
      2014.64143         0.000 0
 107472504.900 6  20451338.188 6       171.072 6  83744819.34948  20451340.42248
       133.27148         0.000 0
 121836548.921 5  23184726.441 5     -3351.859 5  94937590.30447  23184732.22347
     -2611.88747         0.000 0
 123090090.232 6  22994262.914 6      2440.881 6  95736786.210 7         0.000 0
      1897.797 7  22994271.793 7
 121687756.529 5  22836946.695 5     -4481.533 5         0.000 0         0.000 0
         0.000 0         0.000 0
 104553926.313 4  19579590.555 4     -1241.420 4  81319747.661 6         0.000 0
      -966.408 6  19579600.727 6
 112374784.821 6  21081222.547 6      2829.908 6  87402663.893 7         0.000 0
      2200.686 7  21081236.727 7
 114276187.699 6  21407781.184 6     -3176.992 6  88881510.598 8         0.000 0
     -2471.063 8  21407790.496 8
 103376134.836 8  19325078.008 8       348.525 8  80403687.858 6         0.000 0
       271.227 6  19325085.027 6
 116857178.033 2  21852881.008 2      3086.883 2  90888957.830 4         0.000 0
      2399.604 4  21852888.027 4
 18  5 22 19 59 12.0000000  0 19G 1G 3G 7G 8G11G17G18G19G22G24G28G30
                                R 7R12R13R14R22R23R24
 107990081.436 9  20549830.113 9     -1218.676 9  84148141.43649  20549836.00849
      -949.66849         0.000 0
 122690823.732 6  23347284.770 6      2964.588 6  95603260.29948  23347291.89548
      2310.10048         0.000 0
 130705638.872 5  24872456.922 5     -3784.205 5 101848560.98843  24872462.07043
     -2948.75243         0.000 0
 128175541.086 6  24390997.105 6     -3092.896 6  99877067.99647  24391004.16047
     -2410.13947         0.000 0
 110615364.908 7  21049405.078 7     -2142.328 7  86193803.26549  21049407.49649
     -1669.53149         0.000 0
 115838640.673 8  22043359.773 8      2049.314 8  90263891.48449  22043363.75449
      1596.81849         0.000 0
 114160491.058 7  21724019.816 7     -2780.277 7  88956240.93848  21724023.79348
     -2166.48448         0.000 0
 123334273.028 5  23469729.957 5      3167.283 5  96104636.91446  23469732.41846
      2467.97146         0.000 0
 120436704.588 6  22918342.836 6      1452.889 6  93846792.10848  22918344.27048
      1132.09248         0.000 0
 132643585.536 1  25241235.711 1      2583.768 1 103358671.06643  25241242.49243
      2013.40043         0.000 0
 107472334.222 7  20451306.031 7       172.537 7  83744686.35948  20451307.30548
       134.23848         0.000 0
 121839899.785 6  23185364.242 6     -3349.928 6  94940201.35746  23185369.30546
     -2610.19746         0.000 0
 123087650.736 6  22993804.750 6      2439.260 6  95734888.797 7         0.000 0
      1897.223 7  22993816.926 7
 121692238.351 6  22837786.645 6     -4481.242 6         0.000 0         0.000 0
         0.000 0         0.000 0
 104555168.084 4  19579825.637 4     -1240.795 4  81320713.426 5         0.000 0
      -964.641 5  19579832.941 5
 112371955.778 6  21080691.910 6      2829.613 6  87400463.547 7         0.000 0
      2201.340 7  21080703.797 7
 114279365.996 6  21408375.348 6     -3177.695 6  88883982.586 8         0.000 0
     -2471.637 8  21408386.379 8
 103375786.935 8  19325013.305 8       349.971 8  80403417.312 6         0.000 0
       271.822 6  19325018.320 6
 116854092.347 2  21852303.965 2      3086.219 2  90886557.764 4         0.000 0
      2401.332 4  21852312.844 4
 18  5 22 19 59 13.0000000  0 19G 1G 3G 7G 8G11G17G18G19G22G24G28G30
                                R 7R12R13R14R22R23R24
 107991301.604 8  20550062.910 8     -1220.484 8  84149092.21249  20550068.50449
      -951.09849         0.000 0
 122687859.882 6  23346721.262 6      2963.072 6  95600950.79648  23346727.91448
      2308.84648         0.000 0
 130709423.182 5  24873176.230 5     -3784.529 5 101851509.77043  24873181.01243
     -2949.06843         0.000 0
 128178634.338 6  24391586.059 6     -3093.533 6  99879478.31347  24391593.15647
     -2410.51447         0.000 0
 110617508.800 8  21049813.449 8     -2144.586 8  86195473.85449  21049816.16849
     -1671.17849         0.000 0
 115836592.517 8  22042970.980 8      2048.443 8  90262295.51549  22042974.10249
      1596.16849         0.000 0
 114163271.967 7  21724548.383 7     -2781.285 7  88958407.86748  21724553.20748
     -2167.15448         0.000 0
 123331106.996 5  23469127.813 5      3166.041 5  96102169.85446  23469130.64846
      2466.99046         0.000 0
 120435252.678 6  22918066.801 6      1451.627 6  93845660.73648  22918068.14548
      1131.05148         0.000 0
 132641001.245 2  25240744.035 2      2584.322 2 103356657.33943  25240752.12143
      2013.68943         0.000 0
 107472163.788 7  20451273.965 7       170.238 7  83744553.56348  20451275.59448
       132.55548         0.000 0
 121843250.985 6  23186001.559 6     -3350.975 6  94942812.68846  23186007.59846
     -2611.11946         0.000 0
 123085211.276 6  22993352.125 6      2439.016 6  95732991.482 7         0.000 0
      1895.949 7  22993360.578 7
 121696720.347 5  22838625.543 5     -4481.682 5         0.000 0         0.000 0
         0.000 0         0.000 0
 104556410.581 4  19580057.516 4     -1242.895 4  81321679.813 6         0.000 0
      -966.324 6  19580063.676 6
 112369127.091 6  21080161.078 6      2828.275 6  87398263.425 8         0.000 0
      2200.418 8  21080173.969 8
 114282543.885 6  21408971.609 6     -3179.033 6  88886454.249 8         0.000 0
     -2471.465 8  21408981.922 8
 103375439.367 8  19324947.551 8       347.598 8  80403146.957 6         0.000 0
       270.648 6  19324955.715 6
 116851006.917 2  21851726.441 2      3085.311 2  90884158.045 4         0.000 0
      2399.885 4  21851736.465 4
 18  5 22 19 59 14.0000000  0 19G 1G 3G 7G 8G11G17G18G19G22G24G28G30
                                R 7R12R13R14R22R23R24
 107992522.427 9  20550294.543 9     -1222.125 9  84150043.50349  20550300.34049
      -952.37549         0.000 0
 122684896.089 6  23346157.020 6      2963.404 6  95598641.37148  23346164.15648
      2309.03348         0.000 0
 130713206.892 4  24873896.668 4     -3783.631 4 101854458.13043  24873900.57443
     -2948.21543         0.000 0
 128181727.782 5  24392174.852 5     -3092.850 5  99881888.84247  24392182.36347
     -2410.07047         0.000 0
 110619653.220 8  21050221.375 8     -2145.367 8  86197144.82949  21050223.84849
     -1671.88749         0.000 0
 115834544.451 8  22042580.879 8      2047.369 8  90260699.62849  22042584.25849
      1595.32249         0.000 0
 114166053.483 7  21725078.363 7     -2781.834 7  88960575.28948  21725082.27048
     -2167.43448         0.000 0
 123327940.851 4  23468525.367 4      3166.295 4  96099702.70946  23468527.94146
      2467.27546         0.000 0
 120433801.240 6  22917790.746 6      1450.201 6  93844529.74248  22917791.64548
      1129.95148         0.000 0
 132638417.726 2  25240253.484 2      2583.053 2 103354644.24243  25240261.27043
      2012.78343         0.000 0
 107471993.691 6  20451240.879 6       168.578 6  83744421.01048  20451242.79748
       131.43648         0.000 0
 121846601.848 5  23186639.574 5     -3351.600 5  94945423.73346  23186643.96946
     -2611.59446         0.000 0
 123082772.714 6  22992895.902 6      2437.865 6  95731094.817 7         0.000 0
      1896.102 7  22992905.500 7
 121701202.025 5  22839464.422 5     -4482.559 5         0.000 0         0.000 0
         0.000 0         0.000 0
 104557653.719 4  19580290.668 4     -1244.592 4  81322646.730 6         0.000 0
      -968.418 6  19580297.828 6
 112366299.227 6  21079630.805 6      2827.633 6  87396064.012 8         0.000 0
      2198.928 8  21079645.555 8
 114285722.225 6  21409565.133 6     -3179.500 6  88888926.341 8         0.000 0
     -2472.174 8  21409576.020 8
 103375092.282 8  19324882.777 8       345.900 8  80402877.016 6         0.000 0
       269.236 6  19324892.090 6
 116847921.513 2  21851152.051 2      3085.566 2  90881758.258 4         0.000 0
      2398.941 4  21851159.066 4
 18  5 22 19 59 15.0000000  0 19G 1G 3G 7G 8G11G17G18G19G22G24G28G30
                                R 7R12R13R14R22R23R24
 107993743.590 8  20550526.887 8     -1220.627 8  84150995.08349  20550532.50849
      -951.24049         0.000 0
 122681932.857 6  23345593.051 6      2963.967 6  95596332.36748  23345600.18048
      2309.60448         0.000 0
 130716991.118 5  24874617.238 5     -3782.543 5 101857406.88943  24874620.61343
     -2947.51243         0.000 0
 128184821.174 6  24392762.633 6     -3093.461 6  99884299.22847  24392770.91847
     -2410.40247         0.000 0
 110621797.783 7  21050629.434 7     -2143.928 7  86198815.89349  21050631.56349
     -1670.49849         0.000 0
 115832496.522 8  22042191.199 8      2048.166 8  90259103.82549  22042194.56349
      1596.02749         0.000 0
 114168835.158 7  21725607.477 7     -2781.957 7  88962742.80748  21725612.50048
     -2167.64848         0.000 0
 123324774.894 4  23467922.191 4      3166.037 4  96097235.72746  23467924.73846
      2467.02546         0.000 0
 120432350.315 6  22917514.680 6      1451.758 6  93843399.16348  22917516.19548
      1131.22348         0.000 0
 132635834.149 1  25239762.066 1      2581.916 1 103352631.06343  25239769.40643
      2011.79143         0.000 0
 107471823.869 7  20451208.930 7       170.391 7  83744288.66848  20451210.61748
       132.68848         0.000 0
 121849953.419 6  23187276.578 6     -3350.844 6  94948035.34246  23187282.33246
     -2611.04746         0.000 0
 123080334.522 6  22992441.531 6      2438.123 6  95729198.438 7         0.000 0
      1895.795 7  22992450.125 7
 121705684.462 5  22840303.723 5     -4481.855 5         0.000 0         0.000 0
         0.000 0         0.000 0
 104558897.716 4  19580522.949 4     -1243.336 4  81323614.264 5         0.000 0
      -967.109 5  19580531.832 5
 112363471.535 6  21079100.949 6      2827.066 6  87393864.702 8         0.000 0
      2198.549 8  21079114.414 8
 114288900.375 6  21410161.941 6     -3178.395 6  88891398.242 8         0.000 0
     -2472.199 8  21410172.539 8
 103374745.478 8  19324815.992 8       347.227 8  80402607.265 6         0.000 0
       269.719 6  19324825.445 6
 116844836.543 2  21850574.211 2      3084.711 2  90879358.824 4         0.000 0
      2399.535 4  21850582.234 4
 18  5 22 19 59 16.0000000  0 19G 1G 3G 7G 8G11G17G18G19G22G24G28G30
                                R 7R12R13R14R22R23R24
 107994965.953 9  20550759.500 9     -1222.658 9  84151947.55149  20550765.72349
      -952.58649         0.000 0
 122678969.509 6  23345029.215 6      2963.049 6  95594023.28548  23345036.51248
      2308.96148         0.000 0
 130720774.236 5  24875337.652 5     -3783.344 5 101860354.75743  24875340.34043
     -2948.13543         0.000 0
 128187914.903 6  24393351.258 6     -3093.246 6  99886709.90447  24393359.77047
     -2410.38147         0.000 0
 110623943.471 8  21051037.332 8     -2145.998 8  86200487.87849  21051039.82049
     -1672.09849         0.000 0
 115830448.976 8  22041802.078 8      2047.111 8  90257508.34649  22041805.09849
      1595.19149         0.000 0
 114171617.964 6  21726136.863 6     -2782.934 6  88964911.21948  21726141.65648
     -2168.44548         0.000 0
 123321608.984 4  23467320.152 4      3165.412 4  96094768.80646  23467322.39846
      2466.44146         0.000 0
 120430900.040 6  22917238.887 6      1449.805 6  93842269.09148  22917239.55948
      1129.81848         0.000 0
 132633251.707 2  25239270.492 2      2582.385 2 103350618.77043  25239278.05943
      2012.18443         0.000 0
 107471654.861 7  20451176.680 7       168.164 7  83744156.98148  20451179.38348
       131.08848         0.000 0
 121853304.344 6  23187914.859 6     -3350.824 6  94950646.48246  23187920.06646
     -2611.06446         0.000 0
 123077897.367 6  22991986.000 6      2437.422 6  95727302.890 7         0.000 0
      1895.191 7  22991993.590 7
 121710166.131 5  22841141.719 5     -4482.576 5         0.000 0         0.000 0
         0.000 0         0.000 0
 104560142.652 4  19580755.074 4     -1245.873 4  81324582.542 6         0.000 0
      -968.668 6  19580767.105 6
 112360645.225 6  21078571.797 6      2825.818 6  87391666.459 8         0.000 0
      2197.301 8  21078583.543 8
 114292079.516 6  21410757.301 6     -3178.607 6  88893870.945 8         0.000 0
     -2472.742 8  21410767.758 8
 103374399.721 8  19324752.918 8       344.844 8  80402338.346 6         0.000 0
       268.705 6  19324760.223 6
 116841751.590 2  21849996.934 2      3084.711 2  90876959.408 4         0.000 0
      2398.912 4  21850002.520 4
 18  5 22 19 59 17.0000000  0 19G 1G 3G 7G 8G11G17G18G19G22G24G28G30
                                R 7R12R13R14R22R23R24
 107996188.279 8  20550992.063 8     -1221.682 8  84152900.02549  20550998.67249
      -951.84649         0.000 0
 122676006.489 6  23344465.188 6      2963.283 6  95591714.47148  23344472.65648
      2309.01648         0.000 0
 130724558.109 5  24876057.012 5     -3783.131 5 101863303.21143  24876061.77743
     -2947.80543         0.000 0
 128191008.249 6  24393940.262 6     -3093.852 6  99889120.31347  24393947.60247
     -2410.83247         0.000 0
 110626088.866 7  21051446.043 7     -2144.867 7  86202159.62849  21051449.00449
     -1671.30149         0.000 0
 115828401.612 8  22041412.621 8      2048.926 8  90255912.99049  22041414.91049
      1596.69149         0.000 0
 114174400.470 7  21726666.914 7     -2782.504 7  88967079.45048  21726670.94948
     -2168.17648         0.000 0
 123318443.547 4  23466717.629 4      3166.740 4  96092302.23546  23466720.56346
      2467.68846         0.000 0
 120429449.895 6  22916962.473 6      1449.766 6  93841139.12348  22916963.34448
      1129.64148         0.000 0
 132630669.381 1  25238779.297 1      2582.502 1 103348606.60243  25238786.27743
      2012.19943         0.000 0
 107471485.952 6  20451144.379 6       169.939 6  83744025.35448  20451146.34048
       132.47148         0.000 0
 121856656.210 6  23188552.227 6     -3351.137 6  94953258.31346  23188558.89546
     -2611.14546         0.000 0
 123075460.334 6  22991528.555 6      2435.971 6  95725407.401 7         0.000 0
      1894.971 7  22991537.293 7
 121714648.654 5  22841980.809 5     -4482.504 5         0.000 0         0.000 0
         0.000 0         0.000 0
 104561388.377 5  19580990.016 5     -1245.018 5  81325551.505 6         0.000 0
      -969.123 6  19581000.613 6
 112357819.097 7  21078041.160 7      2826.809 7  87389468.329 8         0.000 0
      2199.033 8  21078053.051 8
 114295258.077 6  21411355.047 6     -3178.320 6  88896343.151 8         0.000 0
     -2471.713 8  21411361.781 8
 103374054.086 8  19324687.070 8       347.281 8  80402069.551 6         0.000 0
       269.188 6  19324695.949 6
 116838667.327 3  21849422.184 3      3086.621 3  90874560.570 4         0.000 0
      2399.609 4  21849426.480 4
 18  5 22 19 59 18.0000000  0 19G 1G 3G 7G 8G11G17G18G19G22G24G28G30
                                R 7R12R13R14R22R23R24
 107997412.065 9  20551225.340 9     -1224.662 9  84153853.63649  20551230.99249
      -954.28349         0.000 0
 122673044.052 6  23343901.441 6      2961.689 6  95589406.06348  23343908.59848
      2307.88748         0.000 0
 130728341.419 5  24876776.516 5     -3783.160 5 101866251.23243  24876782.38343
     -2947.93843         0.000 0
 128194102.454 6  24394529.551 6     -3094.742 6  99891531.41947  24394535.26247
     -2411.43447         0.000 0
 110628235.711 7  21051854.465 7     -2147.809 7  86203832.49049  21051857.05549
     -1673.58249         0.000 0
 115826354.728 8  22041022.160 8      2045.986 8  90254318.01049  22041025.09449
      1594.29349         0.000 0
 114177184.472 7  21727196.391 7     -2785.094 7  88969248.81548  21727201.04348
     -2170.14548         0.000 0
 123315278.220 4  23466115.105 4      3165.049 4  96089835.77146  23466117.58246
      2466.24846         0.000 0
 120428000.900 6  22916686.344 6      1448.211 6  93840010.01948  22916687.75848
      1128.62948         0.000 0
 132628088.161 2  25238286.809 2      2580.986 2 103346595.26643  25238295.78143
      2011.14843         0.000 0
 107471318.048 6  20451113.078 6       167.156 6  83743894.54748  20451114.48048
       130.32648         0.000 0
 121860007.858 6  23189190.457 6     -3351.949 6  94955869.99947  23189196.85247
     -2612.07847         0.000 0
 123073024.799 5  22991075.121 5      2434.729 5  95723513.114 6         0.000 0
      1893.549 6  22991082.141 6
 121719130.987 5  22842820.762 5     -4482.594 5         0.000 0         0.000 0
         0.000 0         0.000 0
 104562635.266 5  19581224.379 5     -1247.590 5  81326521.265 6         0.000 0
      -970.879 6  19581232.977 6
 112354994.367 7  21077511.672 7      2824.023 7  87387271.350 8         0.000 0
      2196.439 8  21077522.414 8
 114298437.951 6  21411949.211 6     -3180.324 6  88898816.363 8         0.000 0
     -2473.506 8  21411957.949 8
 103373709.641 7  19324623.512 7       343.654 7  80401801.611 6         0.000 0
       266.906 6  19324633.969 6
 116835583.356 3  21848844.566 3      3082.916 3  90872161.840 4         0.000 0
      2399.105 4  21848851.156 4
 18  5 22 19 59 19.0000000  0 19G 1G 3G 7G 8G11G17G18G19G22G24G28G30
                                R 7R12R13R14R22R23R24
 107998635.909 8  20551457.559 8     -1224.816 8  84154807.27949  20551464.44149
      -954.38949         0.000 0
 122670081.235 6  23343337.785 6      2962.256 6  95587097.38048  23343344.52348
      2308.28948         0.000 0
 130732124.146 5  24877496.684 5     -3783.002 5 101869198.85743  24877502.77743
     -2947.72943         0.000 0
 128197196.144 6  24395117.645 6     -3094.506 6  99893942.10247  24395124.85547
     -2411.32247         0.000 0
 110630382.436 7  21052262.688 7     -2147.924 7  86205505.26849  21052265.96549
     -1673.70549         0.000 0
 115824307.687 8  22040633.078 8      2046.377 8  90252722.94949  22040636.22749
      1594.48049         0.000 0
 114179968.435 6  21727725.961 6     -2785.014 6  88971418.13748  21727730.52348
     -2170.24848         0.000 0
 123312112.776 5  23465512.387 5      3165.303 5  96087369.16746  23465515.46546
      2466.57046         0.000 0
 120426551.795 6  22916411.016 6      1448.426 6  93838880.84247  22916411.98847
      1128.71947         0.000 0
 132625507.331 2  25237795.129 2      2579.814 2 103344584.23543  25237803.35543
      2010.34043         0.000 0
 107471150.014 6  20451080.723 6       166.922 6  83743763.60348  20451082.09848
       130.04748         0.000 0
 121863359.190 6  23189828.199 6     -3351.615 6  94958481.42647  23189834.08247
     -2611.59647         0.000 0
 123070589.398 6  22990618.191 6      2434.115 6  95721618.924 7         0.000 0
      1893.305 7  22990624.777 7
 121723612.922 5  22843659.363 5     -4482.225 5         0.000 0         0.000 0
         0.000 0         0.000 0
 104563882.465 5  19581458.113 5     -1247.795 5  81327491.336 6         0.000 0
      -970.941 6  19581464.988 6
 112352170.063 6  21076979.973 6      2823.162 6  87385074.663 8         0.000 0
      2195.820 8  21076992.578 8
 114301617.567 6  21412545.035 6     -3180.379 6  88901289.443 8         0.000 0
     -2473.936 8  21412555.063 8
 103373365.253 8  19324557.461 8       343.227 8  80401533.782 6         0.000 0
       267.416 6  19324567.059 6
 116832499.248 4  21848264.168 4      3083.164 4  90869763.158 4         0.000 0
      2398.664 4  21848274.051 4
 18  5 22 19 59 20.0000000  0 19G 1G 3G 7G 8G11G17G18G19G22G24G28G30
                                R 7R12R13R14R22R23R24
 107999860.870 9  20551690.664 9     -1225.420 9  84155761.78849  20551696.46149
      -954.89549         0.000 0
 122667118.883 6  23342773.441 6      2962.395 6  95584789.05448  23342781.43848
      2308.40848         0.000 0
 130735906.951 5  24878215.871 5     -3782.453 5 101872146.50643  24878223.39843
     -2947.45343         0.000 0
 128200289.997 6  24395706.332 6     -3093.977 6  99896352.87747  24395713.75847
     -2410.73447         0.000 0
 110632530.021 7  21052671.367 7     -2148.018 7  86207178.70649  21052674.19949
     -1673.74249         0.000 0
 115822261.453 7  22040243.734 7      2045.793 7  90251128.46649  22040245.93849
      1594.07249         0.000 0
 114182753.172 7  21728256.266 7     -2785.635 7  88973588.08548  21728260.31648
     -2170.71548         0.000 0
 123308947.914 4  23464910.695 4      3165.266 4  96084903.06546  23464912.65646
      2466.57246         0.000 0
 120425103.459 6  22916135.289 6      1447.922 6  93837752.26948  22916136.24648
      1128.29148         0.000 0
 132622927.082 2  25237304.332 2      2579.348 2 103342573.66943  25237313.44943
      2009.89343         0.000 0
 107470983.124 6  20451048.680 6       166.201 6  83743633.56148  20451050.55548
       129.36548         0.000 0
 121866711.172 6  23190465.969 6     -3351.574 6  94961093.35547  23190472.28147
     -2611.57447         0.000 0
 123068154.715 6  22990162.148 6      2434.783 6  95719725.258 7         0.000 0
      1893.639 7  22990174.898 7
 121728095.328 5  22844500.000 5     -4482.633 5         0.000 0         0.000 0
         0.000 0         0.000 0
 104565131.254 5  19581690.590 5     -1249.256 5  81328462.585 6         0.000 0
      -972.326 6  19581698.754 6
 112349346.821 6  21076452.746 6      2822.813 6  87382878.817 8         0.000 0
      2195.607 8  21076462.773 8
 114304797.655 6  21413139.316 6     -3180.414 6  88903762.825 8         0.000 0
     -2473.385 8  21413150.488 8
 103373022.067 8  19324494.879 8       343.111 8  80401266.848 6         0.000 0
       266.795 6  19324501.324 6
 116829415.983 3  21847689.102 3      3083.109 3  90867365.042 3         0.000 0
      2398.334 3  21847704.285 3
 18  5 22 19 59 21.0000000  0 19G 1G 3G 7G 8G11G17G18G19G22G24G28G30
                                R 7R12R13R14R22R23R24
 108001086.180 8  20551924.406 8     -1226.912 8  84156716.56349  20551930.20349
      -955.95549         0.000 0
 122664157.064 6  23342210.305 6      2960.434 6  95582481.13248  23342218.28948
      2306.85948         0.000 0
 130739689.636 5  24878935.840 5     -3783.418 5 101875094.05543  24878942.40643
     -2948.02743         0.000 0
 128203384.455 6  24396295.230 6     -3095.293 6  99898764.13847  24396303.01247
     -2411.97347         0.000 0
 110634678.002 7  21053080.109 7     -2149.646 7  86208852.43249  21053083.18849
     -1674.88149         0.000 0
 115820214.688 8  22039853.738 8      2045.512 8  90249533.59349  22039857.37149
      1593.79349         0.000 0
 114185538.434 7  21728786.207 7     -2786.387 7  88975758.36248  21728790.85948
     -2171.20948         0.000 0
 123305782.590 4  23464308.492 4      3164.828 4  96082436.54045  23464311.71545
      2466.05945         0.000 0
 120423655.867 6  22915859.621 6      1446.098 6  93836624.28148  22915860.99648
      1127.01648         0.000 0
 132620347.238 2  25236813.172 2      2579.613 2 103340563.38643  25236821.30143
      2009.96543         0.000 0
 107470816.009 6  20451017.273 6       165.588 6  83743503.32048  20451018.85948
       128.92848         0.000 0
 121870062.903 6  23191103.516 6     -3352.832 6  94963705.08947  23191110.04347
     -2612.50047         0.000 0
 123065721.185 5  22989709.469 5      2431.959 5  95717832.512 7         0.000 0
      1891.930 7  22989718.348 7
 121732577.771 5  22845338.125 5     -4483.973 5         0.000 0         0.000 0
         0.000 0         0.000 0
 104566380.105 4  19581923.129 4     -1251.143 4  81329433.913 6         0.000 0
      -972.861 6  19581931.293 6
 112346523.717 6  21075920.570 6      2821.826 6  87380683.057 8         0.000 0
      2194.563 8  21075933.891 8
 114307978.107 6  21413735.664 6     -3181.949 6  88906236.487 8         0.000 0
     -2474.176 8  21413745.977 8
 103372678.783 7  19324431.785 7       341.654 7  80400999.855 5         0.000 0
       265.594 5  19324439.949 5
 116826332.292 3  21847113.383 3      3083.273 3  90864966.645 3         0.000 0
      2396.842 3  21847122.551 3
 18  5 22 19 59 22.0000000  0 19G 1G 3G 7G 8G11G17G18G19G22G24G28G30
                                R 7R12R13R14R22R23R24
 108002312.508 8  20552157.539 8     -1226.207 8  84157672.14149  20552163.33649
      -955.47149         0.000 0
 122661195.489 6  23341646.555 6      2961.902 6  95580173.42348  23341653.91048
      2307.75648         0.000 0
 130743472.383 5  24879656.199 5     -3782.949 5 101878041.63543  24879662.42243
     -2947.75843         0.000 0
 128206478.661 6  24396884.945 6     -3094.119 6  99901175.18646  24396891.05546
     -2410.94146         0.000 0
 110636826.679 7  21053488.816 7     -2148.904 7  86210526.76149  21053491.37949
     -1674.74849         0.000 0
 115818168.845 8  22039465.566 8      2045.807 8  90247939.41049  22039468.18449
      1594.27749         0.000 0
 114188324.223 7  21729316.113 7     -2785.623 7  88977929.14348  21729321.05148
     -2170.59048         0.000 0
 123302617.956 5  23463706.543 5      3164.090 5  96079970.64046  23463709.18846
      2465.47146         0.000 0
 120422208.758 6  22915584.922 6      1447.018 6  93835496.64748  22915585.55148
      1127.63748         0.000 0
 132617767.866 2  25236322.402 2      2578.992 2 103338553.46043  25236330.57043
      2009.57243         0.000 0
 107470650.071 6  20450985.539 6       165.668 6  83743374.06348  20450987.32848
       129.06348         0.000 0
 121873415.290 6  23191741.313 6     -3352.811 6  94966317.35047  23191747.73847
     -2612.50447         0.000 0
 123063287.966 5  22989255.313 5      2433.221 5  95715940.021 6         0.000 0
      1892.203 6  22989262.762 6
 121737060.604 5  22846177.500 5     -4483.242 5         0.000 0         0.000 0
         0.000 0         0.000 0
 104567630.658 4  19582158.207 4     -1251.051 4  81330406.589 6         0.000 0
      -973.531 6  19582166.371 6
 112343701.774 6  21075393.512 6      2821.500 6  87378488.231 8         0.000 0
      2194.178 8  21075404.684 8
 114311158.769 6  21414331.543 6     -3180.680 6  88908710.383 8         0.000 0
     -2473.719 8  21414340.855 8
 103372336.765 7  19324366.652 7       342.146 7  80400733.823 6         0.000 0
       265.131 6  19324373.527 6
 116823249.667 2  21846537.340 2      3082.385 2  90862569.019 4         0.000 0
      2396.082 4  21846548.656 4
 18  5 22 19 59 23.0000000  0 19G 1G 3G 7G 8G11G17G18G19G22G24G28G30
                                R 7R12R13R14R22R23R24
 108003538.876 9  20552390.781 9     -1227.338 9  84158627.76549  20552397.18049
      -956.31449         0.000 0
 122658233.868 6  23341082.633 6      2960.615 6  95577865.66348  23341090.68848
      2306.98848         0.000 0
 130747254.662 5  24880375.953 5     -3781.756 5 101880988.83544  24880381.70744
     -2946.86344         0.000 0
 128209572.967 6  24397473.914 6     -3095.426 6  99903586.31846  24397479.99646
     -2411.78546         0.000 0
 110638975.405 8  21053898.207 8     -2149.508 8  86212201.07449  21053900.12149
     -1674.91049         0.000 0
 115816122.644 8  22039074.926 8      2045.691 8  90246344.98249  22039078.97749
      1594.23449         0.000 0
 114191110.259 6  21729846.559 6     -2787.145 6  88980100.07648  21729851.20748
     -2171.72748         0.000 0
 123299453.058 5  23463104.270 5      3165.010 5  96077504.45646  23463107.14546
      2466.42246         0.000 0
 120420761.860 6  22915308.613 6      1445.750 6  93834369.20048  22915310.27348
      1126.53948         0.000 0
 132615189.046 2  25235831.742 2      2578.174 2 103336543.99343  25235839.09843
      2008.84443         0.000 0
 107470483.813 6  20450953.922 6       165.318 6  83743244.46948  20450955.93848
       128.70548         0.000 0
 121876767.261 6  23192379.363 6     -3351.930 6  94968929.27047  23192385.54347
     -2611.82447         0.000 0
 123060855.429 5  22988800.555 5      2431.584 5  95714048.057 7         0.000 0
      1891.537 7  22988811.297 7
 121741543.099 5  22847016.270 5     -4482.730 5         0.000 0         0.000 0
         0.000 0         0.000 0
 104568881.229 4  19582393.109 4     -1251.789 4  81331379.204 6         0.000 0
      -972.324 6  19582398.840 6
 112340880.197 6  21074863.559 6      2821.152 6  87376293.660 8         0.000 0
      2194.252 8  21074875.875 8
 114314339.492 6  21414926.820 6     -3181.398 6  88911184.290 8         0.000 0
     -2474.406 8  21414937.992 8
 103371994.609 7  19324303.348 7       341.154 7  80400467.696 6         0.000 0
       265.871 6  19324311.941 6
 116820166.712 2  21845959.117 2      3083.365 2  90860171.125 4         0.000 0
      2398.109 4  21845971.004 4
 18  5 22 19 59 24.0000000  0 19G 1G 3G 7G 8G11G17G18G19G22G24G28G30
                                R 7R12R13R14R22R23R24
 108004766.433 9  20552623.855 9     -1228.557 9  84159584.29649  20552630.82449
      -957.22949         0.000 0
 122655272.843 6  23340519.258 6      2960.570 6  95575558.37648  23340525.96948
      2306.93448         0.000 0
 130751036.682 5  24881095.254 5     -3781.938 5 101883935.89644  24881102.16844
     -2947.07444         0.000 0
 128212667.734 6  24398061.855 6     -3095.023 6  99905997.84646  24398068.95346
     -2411.82046         0.000 0
 110641125.180 7  21054307.426 7     -2150.490 7  86213876.22849  21054310.78949
     -1675.62949         0.000 0
 115814076.640 7  22038685.410 7      2044.846 7  90244750.69349  22038689.60249
      1593.28149         0.000 0
 114193897.276 7  21730376.691 7     -2787.893 7  88982271.80748  21730381.17248
     -2172.42648         0.000 0
 123296288.079 5  23462501.832 5      3164.047 5  96075038.27245  23462504.29345
      2465.52745         0.000 0
 120419315.949 6  22915033.426 6      1445.803 6  93833242.51548  22915035.69948
      1126.62148         0.000 0
 132612610.664 2  25235341.629 2      2577.893 2 103334534.86743  25235348.95743
      2008.77043         0.000 0
 107470318.383 6  20450922.133 6       164.043 6  83743115.58848  20450924.20748
       127.65448         0.000 0
 121880119.319 6  23193016.527 6     -3353.051 6  94971541.24247  23193022.93847
     -2612.89547         0.000 0
 123058424.056 6  22988346.777 6      2431.014 6  95712157.005 7         0.000 0
      1890.037 7  22988356.660 7
 121746025.743 5  22847855.012 5     -4483.205 5         0.000 0         0.000 0
         0.000 0         0.000 0
 104570132.868 5  19582627.703 5     -1252.906 5  81332352.734 6         0.000 0
      -974.975 6  19582634.438 6
 112338059.389 6  21074333.004 6      2819.742 6  87374099.721 7         0.000 0
      2193.301 7  21074347.473 7
 114317520.975 6  21415521.781 6     -3182.281 6  88913658.780 8         0.000 0
     -2475.045 8  21415533.242 8
 103371653.313 7  19324238.871 7       339.686 7  80400202.294 5         0.000 0
       264.080 5  19324246.320 5
 116817083.889 3  21845381.871 3      3081.408 3  90857773.396 3         0.000 0
      2397.412 3  21845391.039 3
 18  5 22 19 59 25.0000000  0 19G 1G 3G 7G 8G11G17G18G19G22G24G28G30
                                R 7R12R13R14R22R23R24
 108005994.141 8  20552858.355 8     -1227.148 8  84160540.97349  20552863.99249
      -956.18649         0.000 0
 122652311.848 6  23339956.020 6      2960.436 6  95573251.10048  23339963.19948
      2306.74648         0.000 0
 130754818.768 5  24881814.832 5     -3782.307 5 101886882.94244  24881822.09044
     -2947.02744         0.000 0
 128215762.122 6  24398650.793 6     -3094.201 6  99908409.05346  24398658.03546
     -2411.16846         0.000 0
 110643274.924 7  21054716.496 7     -2149.238 7  86215551.35049  21054718.65649
     -1674.62549         0.000 0
 115812030.813 8  22038297.168 8      2046.840 8  90243156.53149  22038299.97349
      1594.96949         0.000 0
 114196684.256 6  21730907.246 6     -2786.563 6  88984443.44248  21730911.89548
     -2171.32448         0.000 0
 123293123.341 4  23461899.238 4      3165.533 4  96072572.24545  23461901.94545
      2466.61145         0.000 0
 120417870.148 6  22914758.801 6      1446.176 6  93832115.92548  22914760.46148
      1126.82448         0.000 0
 132610032.539 2  25234850.223 2      2578.773 2 103332525.97343  25234857.46143
      2009.57843         0.000 0
 107470153.135 6  20450890.766 6       166.174 6  83742986.81148  20450892.69548
       129.47948         0.000 0
 121883471.662 6  23193655.117 6     -3352.229 6  94974153.44247  23193661.55547
     -2612.14547         0.000 0
 123055992.797 6  22987892.699 6      2431.230 6  95710265.994 7         0.000 0
      1891.414 7  22987903.441 7
 121750508.562 5  22848694.895 5     -4482.693 5         0.000 0         0.000 0
         0.000 0         0.000 0
 104571385.283 5  19582861.430 5     -1252.064 5  81333326.824 6         0.000 0
      -973.482 6  19582871.598 6
 112335238.996 7  21073804.734 7      2821.072 7  87371906.054 8         0.000 0
      2194.207 8  21073816.910 8
 114320702.135 6  21416117.598 6     -3180.385 6  88916133.006 8         0.000 0
     -2473.727 8  21416130.203 8
 103371312.278 7  19324177.395 7       341.682 7  80399937.030 5         0.000 0
       264.791 5  19324184.125 5
 116814001.473 3  21844804.617 3      3083.170 3  90855376.004 4         0.000 0
      2397.791 4  21844813.926 4
 18  5 22 19 59 26.0000000  0 19G 1G 3G 7G 8G11G17G18G19G22G24G28G30
                                R 7R12R13R14R22R23R24
 108007223.069 8  20553091.762 8     -1229.887 8  84161498.56049  20553098.37149
      -958.35249         0.000 0
 122649351.476 6  23339392.547 6      2960.176 6  95570944.35748  23339399.97348
      2306.57448         0.000 0
 130758600.789 5  24882535.758 5     -3781.490 5 101889829.98244  24882540.26244
     -2946.65444         0.000 0
 128218857.058 6  24399239.930 6     -3095.064 6  99910820.72847  24399247.39847
     -2411.77047         0.000 0
 110645425.714 8  21055125.762 8     -2151.566 8  86217227.31949  21055128.25449
     -1676.71149         0.000 0
 115809985.416 7  22037907.699 7      2045.273 7  90241562.71149  22037911.53549
      1593.70349         0.000 0
 114199472.226 7  21731437.141 7     -2788.717 7  88986615.90748  21731441.21948
     -2173.05948         0.000 0
 123289958.814 4  23461297.707 4      3164.629 4  96070106.37945  23461299.96945
      2465.93045         0.000 0
 120416425.354 6  22914483.945 6      1444.607 6  93830990.11248  22914484.73448
      1125.69348         0.000 0
 132607455.060 2  25234360.016 2      2577.129 2 103330517.53843  25234367.91443
      2008.11743         0.000 0
 107469988.779 6  20450859.738 6       163.709 6  83742858.74348  20450861.69948
       127.68648         0.000 0
 121886824.315 6  23194292.758 6     -3352.428 6  94976765.91447  23194299.17247
     -2612.16247         0.000 0
 123053562.653 6  22987437.824 6      2429.799 6  95708375.911 6         0.000 0
      1890.225 6  22987447.418 6
 121754991.725 5  22849533.402 5     -4483.207 5         0.000 0         0.000 0
         0.000 0         0.000 0
 104572638.873 5  19583094.637 5     -1254.102 5  81334301.871 6         0.000 0
      -975.180 6  19583105.809 6
 112332419.606 6  21073274.945 6      2818.820 6  87369713.204 8         0.000 0
      2192.275 8  21073288.840 8
 114323884.047 7  21416715.332 7     -3182.227 7  88918607.837 8         0.000 0
     -2474.859 8  21416723.637 8
 103370972.201 7  19324111.676 7       340.131 7  80399672.526 5         0.000 0
       263.465 5  19324120.270 5
 116810919.429 3  21844228.852 3      3081.854 3  90852978.834 3         0.000 0
      2397.285 3  21844238.305 3
 18  5 22 19 59 27.0000000  0 19G 1G 3G 7G 8G11G17G18G19G22G24G28G30
                                R 7R12R13R14R22R23R24
 108008452.216 9  20553325.750 9     -1229.498 9  84162456.36249  20553331.96149
      -957.95149         0.000 0
 122646390.993 6  23338829.801 6      2960.564 6  95568637.50048  23338836.55548
      2306.85548         0.000 0
 130762382.323 5  24883254.684 5     -3781.002 5 101892776.62044  24883260.49244
     -2945.99844         0.000 0
 128221951.880 6  24399828.496 6     -3094.791 6  99913232.26147  24399836.01247
     -2411.60447         0.000 0
 110647576.645 7  21055534.609 7     -2151.002 7  86218903.35849  21055537.84449
     -1675.97949         0.000 0
 115807940.038 7  22037518.379 7      2045.721 7  90239968.89649  22037522.18449
      1594.08249         0.000 0
 114202260.460 7  21731967.902 7     -2788.072 7  88988788.59148  21731971.56348
     -2172.58048         0.000 0
 123286794.291 5  23460695.180 5      3165.193 5  96067640.52345  23460697.23845
      2466.50645         0.000 0
 120414980.736 6  22914208.957 6      1444.586 6  93829864.44447  22914210.43047
      1125.74247         0.000 0
 132604878.202 2  25233868.957 2      2576.619 2 103328509.61443  25233877.11343
      2007.69543         0.000 0
 107469824.497 7  20450828.578 7       164.840 7  83742730.74348  20450830.26648
       128.49648         0.000 0
 121890176.748 6  23194931.270 6     -3352.037 6  94979378.19147  23194937.86347
     -2611.91647         0.000 0
 123051132.985 5  22986985.668 5      2428.574 5  95706486.190 6         0.000 0
      1888.979 6  22986992.684 6
 121759474.567 6  22850373.770 6     -4482.121 6         0.000 0         0.000 0
         0.000 0         0.000 0
 104573892.950 5  19583330.422 5     -1253.883 5  81335277.244 6         0.000 0
      -975.209 6  19583342.457 6
 112329600.760 6  21072745.301 6      2819.105 6  87367520.817 8         0.000 0
      2192.197 8  21072759.340 8
 114327066.086 7  21417310.773 7     -3182.268 7  88921082.729 8         0.000 0
     -2475.564 8  21417321.660 8
 103370632.424 7  19324048.684 7       339.775 7  80399408.236 5         0.000 0
       264.264 5  19324058.422 5
 116807837.502 3  21843654.660 3      3081.490 3  90850581.766 4         0.000 0
      2396.723 4  21843664.258 4
 18  5 22 19 59 28.0000000  0 19G 1G 3G 7G 8G11G17G18G19G22G24G28G30
                                R 7R12R13R14R22R23R24
 108009682.185 8  20553560.066 8     -1231.082 8  84163414.77949  20553566.49249
      -959.27049         0.000 0
 122643430.629 6  23338266.668 6      2959.879 6  95566330.70648  23338272.70348
      2306.53348         0.000 0
 130766163.276 6  24883974.227 6     -3780.574 6 101895722.78244  24883978.66044
     -2945.81444         0.000 0
 128225047.012 6  24400418.398 6     -3095.262 6  99915644.08546  24400426.12546
     -2411.92646         0.000 0
 110649728.312 7  21055944.074 7     -2152.273 7  86220579.98049  21055947.43449
     -1677.19949         0.000 0
 115805894.810 7  22037129.672 7      2044.174 7  90238375.22249  22037132.20749
      1592.90049         0.000 0
 114205049.577 6  21732499.277 6     -2789.520 6  88990961.91148  21732502.96948
     -2173.50848         0.000 0
 123283629.818 5  23460092.980 5      3163.258 5  96065174.66545  23460094.61345
      2464.99045         0.000 0
 120413536.689 6  22913934.012 6      1443.861 6  93828739.15847  22913935.61347
      1125.28347         0.000 0
 132602302.202 2  25233379.801 2      2575.797 2 103326502.30843  25233386.29743
      2007.13943         0.000 0
 107469660.683 6  20450797.461 6       162.611 6  83742603.09348  20450799.02048
       126.78548         0.000 0
 121893528.875 6  23195569.250 6     -3352.566 6  94981990.26147  23195575.83247
     -2612.25847         0.000 0
 123048704.203 6  22986532.844 6      2429.195 6  95704597.125 6         0.000 0
      1889.260 6  22986540.578 6
 121763957.151 6  22851212.328 6     -4482.693 6         0.000 0         0.000 0
         0.000 0         0.000 0
 104575147.742 5  19583566.977 5     -1256.250 5  81336253.168 6         0.000 0
      -976.529 6  19583575.141 6
 112326782.894 6  21072219.574 6      2816.621 6  87365329.112 8         0.000 0
      2190.916 8  21072232.035 8
 114330248.687 6  21417908.988 6     -3182.975 6  88923558.071 8         0.000 0
     -2475.283 8  21417916.867 8
 103370293.244 8  19323986.598 8       337.934 8  80399144.437 5         0.000 0
       262.533 5  19323993.758 5
 116804755.602 3  21843079.090 3      3080.998 3  90848184.696 4         0.000 0
      2396.574 4  21843090.406 4
 18  5 22 19 59 29.0000000  0 19G 1G 3G 7G 8G11G17G18G19G22G24G28G30
                                R 7R12R13R14R22R23R24
 108010912.731 8  20553794.098 8     -1231.053 8  84164373.66849  20553800.45349
      -959.36749         0.000 0
 122640470.811 6  23337703.387 6      2959.789 6  95564024.33348  23337709.75448
      2306.29948         0.000 0
 130769944.994 5  24884694.625 5     -3781.758 5 101898669.59944  24884698.63344
     -2946.69144         0.000 0
 128228141.890 6  24401007.152 6     -3095.449 6  99918055.61146  24401014.91046
     -2411.96546         0.000 0
 110651880.283 7  21056353.676 7     -2152.088 7  86222256.82849  21056356.58249
     -1676.67249         0.000 0
 115803850.250 8  22036739.965 8      2044.848 8  90236782.06049  22036743.64549
      1593.42849         0.000 0
 114207838.779 7  21733029.652 7     -2789.824 7  88993135.29548  21733033.45748
     -2173.82048         0.000 0
 123280465.969 5  23459491.070 5      3164.477 5  96062709.32845  23459493.05945
      2465.86945         0.000 0
 120412093.148 6  22913659.922 6      1443.070 6  93827614.35247  22913660.85247
      1124.60047         0.000 0
 132599726.328 1  25232888.785 1      2575.883 1 103324495.10543  25232895.42243
      2007.08043         0.000 0
 107469497.614 6  20450766.055 6       163.205 6  83742476.03848  20450767.81348
       127.06148         0.000 0
 121896882.102 6  23196207.512 6     -3352.871 6  94984603.16047  23196212.85247
     -2612.53147         0.000 0
 123046275.798 6  22986075.867 6      2427.895 6  95702708.337 7         0.000 0
      1887.932 7  22986084.176 7
 121768440.693 6  22852052.457 6     -4484.070 6         0.000 0         0.000 0
         0.000 0         0.000 0
 104576403.938 5  19583801.668 5     -1255.773 5  81337230.192 6         0.000 0
      -976.529 6  19583810.691 6
 112323965.671 6  21071690.121 6      2817.039 6  87363137.968 8         0.000 0
      2190.311 8  21071704.016 8
 114333431.091 6  21418504.766 6     -3182.615 6  88926033.290 8         0.000 0
     -2475.635 8  21418513.359 8
 103369954.868 8  19323922.363 8       338.566 8  80398881.249 5         0.000 0
       263.021 5  19323931.527 5
 116801674.754 3  21842500.363 3      3081.533 3  90845788.521 4         0.000 0
      2396.672 4  21842511.535 4
 18  5 22 19 59 30.0000000  0 19G 1G 3G 7G 8G11G17G18G19G22G24G28G30
                                R 7R12R13R14R22R23R24
 108012144.151 9  20554029.230 9     -1232.566 9  84165333.17949  20554034.75449
      -960.43649         0.000 0
 122637511.252 6  23337139.781 6      2959.000 6  95561718.18448  23337147.22348
      2305.71948         0.000 0
 130773726.086 5  24885413.695 5     -3782.080 5 101901615.90444  24885418.70344
     -2946.93944         0.000 0
 128231237.187 6  24401596.297 6     -3095.574 6  99920467.54046  24401603.48046
     -2411.97946         0.000 0
 110654033.018 7  21056763.383 7     -2153.719 7  86223934.29449  21056766.73049
     -1678.22949         0.000 0
 115801805.639 7  22036350.645 7      2043.451 7  90235188.87149  22036354.76649
      1592.28149         0.000 0
 114210628.803 7  21733560.984 7     -2790.438 7  88995309.33748  21733565.26248
     -2174.47948         0.000 0
 123277301.954 4  23458888.684 4      3162.789 4  96060243.88246  23458891.47746
      2464.31346         0.000 0
 120410650.304 6  22913385.219 6      1441.693 6  93826490.10748  22913386.86348
      1123.29748         0.000 0
 132597150.970 2  25232398.871 2      2575.072 2 103322488.34843  25232406.35543
      2006.55943         0.000 0
 107469335.018 6  20450735.609 6       161.010 6  83742349.32248  20450737.32448
       125.54348         0.000 0
 121900234.996 6  23196845.309 6     -3353.719 6  94987215.79647  23196851.14547
     -2613.03347         0.000 0
 123043848.334 6  22985623.859 6      2427.008 6  95700820.296 7         0.000 0
      1888.193 7  22985633.172 7
 121772923.941 5  22852890.543 5     -4484.352 5         0.000 0         0.000 0
         0.000 0         0.000 0
 104577660.822 4  19584037.602 4     -1259.004 4  81338207.778 6         0.000 0
      -978.748 6  19584044.047 6
 112321149.196 6  21071161.773 6      2815.488 6  87360947.331 8         0.000 0
      2190.084 8  21071174.234 8
 114336614.148 7  21419099.496 7     -3183.639 7  88928509.001 8         0.000 0
     -2475.900 8  21419108.664 8
 103369617.049 7  19323858.945 7       336.725 7  80398618.531 6         0.000 0
       261.504 6  19323868.539 6
 116798593.746 2  21841921.453 2      3079.221 2  90843392.149 3         0.000 0
      2395.643 3  21841932.770 3
 18  5 22 19 59 31.0000000  0 19G 1G 3G 7G 8G11G17G18G19G22G24G28G30
                                R 7R12R13R14R22R23R24
 108013375.576 8  20554262.570 8     -1232.232 8  84166292.74149  20554268.55149
      -960.23849         0.000 0
 122634552.277 6  23336575.957 6      2958.436 6  95559412.50348  23336583.77048
      2305.38948         0.000 0
 130777507.876 5  24886133.258 5     -3781.531 5 101904562.79944  24886137.76644
     -2946.84244         0.000 0
 128234332.327 6  24402184.789 6     -3095.711 6  99922879.31346  24402192.37146
     -2412.23246         0.000 0
 110656185.565 7  21057173.152 7     -2153.053 7  86225611.58349  21057175.41449
     -1677.77949         0.000 0
 115799760.798 8  22035962.105 8      2045.232 8  90233595.47149  22035965.09849
      1593.72949         0.000 0
 114213418.609 7  21734090.953 7     -2790.613 7  88997483.17048  21734095.97748
     -2174.53748         0.000 0
 123274137.813 4  23458286.223 4      3164.588 4  96057778.31346  23458289.32846
      2465.83846         0.000 0
 120409207.854 6  22913110.293 6      1441.734 6  93825366.10848  22913112.28148
      1123.35748         0.000 0
 132594575.386 2  25231909.453 2      2574.373 2 103320481.43843  25231915.40243
      2006.03343         0.000 0
 107469172.256 6  20450704.371 6       162.379 6  83742222.50248  20450707.43448
       126.63748         0.000 0
 121903588.514 6  23197483.453 6     -3353.133 6  94989828.91647  23197489.56347
     -2612.83847         0.000 0
 123041421.205 6  22985169.914 6      2426.332 6  95698932.561 7         0.000 0
      1886.787 7  22985179.941 7
 121777407.986 5  22853730.695 5     -4484.330 5         0.000 0         0.000 0
         0.000 0         0.000 0
 104578918.186 4  19584273.320 4     -1258.016 4  81339185.738 6         0.000 0
      -978.049 6  19584280.480 6
 112318332.458 6  21070632.059 6      2815.629 6  87358756.535 7         0.000 0
      2189.953 7  21070643.805 7
 114339796.703 6  21419696.016 6     -3183.563 6  88930984.289 8         0.000 0
     -2476.223 8  21419707.188 8
 103369279.099 7  19323795.590 7       338.090 7  80398355.653 6         0.000 0
       262.959 6  19323804.758 6
 116795512.946 3  21841348.484 3      3080.674 3  90840996.006 4         0.000 0
      2397.209 4  21841359.797 4
 18  5 22 19 59 32.0000000  0 19G 1G 3G 7G 8G11G17G18G19G22G24G28G30
                                R 7R12R13R14R22R23R24
 108014608.544 9  20554497.039 9     -1233.770 9  84167253.47749  20554503.02049
      -961.48049         0.000 0
 122631594.193 6  23336014.117 6      2958.070 6  95557107.50648  23336020.84448
      2305.16448         0.000 0
 130781289.344 5  24886852.809 5     -3781.916 5 101907509.36344  24886858.14844
     -2947.04944         0.000 0
 128237428.368 6  24402774.270 6     -3095.783 6  99925291.85046  24402781.08246
     -2412.34246         0.000 0
 110658339.545 7  21057583.051 7     -2154.260 7  86227290.02849  21057585.88749
     -1678.59049         0.000 0
 115797716.209 8  22035572.410 8      2043.852 8  90232002.30349  22035576.50049
      1592.54549         0.000 0
 114216209.855 6  21734622.625 6     -2791.896 6  88999658.21448  21734626.43048
     -2175.42848         0.000 0
 123270973.535 4  23457684.035 4      3163.578 4  96055312.62846  23457687.05546
      2465.00846         0.000 0
 120407766.802 6  22912836.070 6      1440.959 6  93824243.19547  22912837.21547
      1122.99447         0.000 0
 132592000.128 2  25231419.160 2      2574.320 2 103318474.75843  25231425.80143
      2005.88543         0.000 0
 107469010.646 6  20450673.547 6       160.998 6  83742096.56848  20450675.29348
       125.37748         0.000 0
 121906942.069 6  23198122.012 6     -3354.162 6  94992442.09747  23198127.32447
     -2613.72947         0.000 0
 123038995.604 6  22984716.816 6      2425.322 6  95697045.982 6         0.000 0
      1886.777 6  22984725.410 6
 121781892.188 5  22854567.973 5     -4484.344 5         0.000 0         0.000 0
         0.000 0         0.000 0
 104580176.817 5  19584509.879 5     -1259.164 5  81340164.693 6         0.000 0
      -979.348 6  19584514.895 6
 112315516.629 6  21070105.910 6      2815.068 6  87356566.472 8         0.000 0
      2189.826 8  21070118.086 8
 114342980.361 6  21420293.520 6     -3183.676 6  88933460.497 8         0.000 0
     -2476.313 8  21420304.121 8
 103368942.239 8  19323731.797 8       336.455 8  80398093.663 6         0.000 0
       261.658 6  19323740.961 6
 116792432.182 3  21840773.922 3      3079.779 3  90838599.811 3         0.000 0
      2396.631 3  21840782.660 3
 18  5 22 19 59 33.0000000  0 19G 1G 3G 7G 8G11G17G18G19G22G24G28G30
                                R 7R12R13R14R22R23R24
 108015841.813 9  20554732.070 9     -1233.908 9  84168214.48549  20554738.69549
      -961.50649         0.000 0
 122628635.925 6  23335451.129 6      2957.502 6  95554802.37448  23335458.13748
      2304.53348         0.000 0
 130785070.626 6  24887572.066 6     -3781.469 6 101910455.76744  24887577.85944
     -2946.35244         0.000 0
 128240523.992 6  24403363.453 6     -3096.449 6  99927704.04046  24403369.77746
     -2413.01246         0.000 0
 110660493.665 7  21057993.371 7     -2154.533 7  86228968.57449  21057996.37949
     -1678.67449         0.000 0
 115795672.147 7  22035183.848 7      2043.967 7  90230409.49949  22035187.46949
      1592.87149         0.000 0
 114219001.189 7  21735154.145 7     -2791.977 7  89001833.31348  21735157.64848
     -2175.88148         0.000 0
 123267809.790 5  23457082.410 5      3163.693 5  96052847.43046  23457084.52746
      2465.21746         0.000 0
 120406325.784 6  22912562.125 6      1439.727 6  93823120.30748  22912563.43048
      1121.83648         0.000 0
 132589425.773 1  25230929.145 1      2574.182 1 103316468.77143  25230936.47343
      2005.99843         0.000 0
 107468849.396 6  20450642.859 6       161.094 6  83741970.91848  20450644.71948
       125.41048         0.000 0
 121910295.844 6  23198760.277 6     -3353.539 6  94995055.39347  23198766.46147
     -2613.07047         0.000 0
 123036570.224 5  22984264.852 5      2424.598 5  95695159.554 7         0.000 0
      1886.127 7  22984273.301 7
 121786376.355 6  22855407.531 6     -4484.541 6         0.000 0         0.000 0
         0.000 0         0.000 0
 104581436.392 5  19584745.859 5     -1259.770 5  81341144.350 6         0.000 0
      -980.350 6  19584751.445 6
 112312701.739 6  21069575.168 6      2813.855 6  87354377.111 8         0.000 0
      2189.430 8  21069589.492 8
 114346163.958 6  21420888.867 6     -3184.066 6  88935936.634 8         0.000 0
     -2476.436 8  21420898.609 8
 103368605.992 8  19323669.566 8       336.084 8  80397832.130 6         0.000 0
       261.125 6  19323681.883 6
 116789352.020 3  21840196.918 3      3080.092 3  90836204.166 4         0.000 0
      2396.215 4  21840206.512 4
 18  5 22 19 59 34.0000000  0 19G 1G 3G 7G 8G11G17G18G19G22G24G28G30
                                R 7R12R13R14R22R23R24
 108017075.803 9  20554966.539 9     -1234.229 9  84169176.04949  20554972.99249
      -961.88349         0.000 0
 122625677.811 6  23334888.000 6      2959.135 6  95552497.36848  23334895.49648
      2305.68048         0.000 0
 130788850.914 6  24888291.473 6     -3779.035 6 101913401.45344  24888297.35244
     -2944.71744         0.000 0
 128243620.351 6  24403951.359 6     -3096.340 6  99930116.79647  24403959.28547
     -2412.78347         0.000 0
 110662648.560 7  21058402.699 7     -2155.012 7  86230647.70149  21058405.77349
     -1679.20749         0.000 0
 115793627.516 7  22034794.434 7      2044.936 7  90228816.27849  22034797.96949
      1593.41249         0.000 0
 114221793.546 7  21735685.668 7     -2792.844 7  89004009.21248  21735689.05948
     -2176.26048         0.000 0
 123264645.351 4  23456479.645 4      3164.799 4  96050381.64345  23456482.21945
      2466.01245         0.000 0
 120404885.520 6  22912287.758 6      1440.363 6  93821998.01947  22912289.63347
      1122.41647         0.000 0
 132586852.050 2  25230439.137 2      2573.490 2 103314463.22843  25230447.19543
      2005.28743         0.000 0
 107468688.186 6  20450612.176 6       161.086 6  83741845.32348  20450613.97748
       125.55948         0.000 0
 121913648.781 6  23199397.836 6     -3352.121 6  94997668.04547  23199404.86347
     -2612.06147         0.000 0
 123034146.131 6  22983812.180 6      2424.082 6  95693274.185 7         0.000 0
      1885.809 7  22983822.203 7
 121790859.931 5  22856246.379 5     -4482.537 5         0.000 0         0.000 0
         0.000 0         0.000 0
 104582696.071 5  19584979.984 5     -1259.934 5  81342124.103 6         0.000 0
      -980.375 6  19584990.727 6
 112309887.301 6  21069048.445 6      2813.750 6  87352188.129 8         0.000 0
      2188.115 8  21069062.336 8
 114349348.420 7  21421485.082 7     -3184.682 7  88938413.444 8         0.000 0
     -2477.125 8  21421496.398 8
 103368269.816 7  19323607.773 7       336.426 7  80397570.701 5         0.000 0
       260.748 5  19323615.363 5
 116786271.170 3  21839621.207 3      3081.588 3  90833807.971 4         0.000 0
      2396.482 4  21839630.660 4
 18  5 22 19 59 35.0000000  0 19G 1G 3G 7G 8G11G17G18G19G22G24G28G30
                                R 7R12R13R14R22R23R24
 108018310.797 9  20555202.297 9     -1234.713 9  84170138.38849  20555208.44949
      -962.20749         0.000 0
 122622720.023 6  23334325.020 6      2958.514 6  95550192.60848  23334332.45748
      2305.25848         0.000 0
 130792631.119 6  24889011.023 6     -3779.930 6 101916347.05844  24889016.39144
     -2945.25644         0.000 0
 128246716.738 6  24404540.840 6     -3096.141 6  99932529.53046  24404549.06646
     -2412.65846         0.000 0
 110664804.210 8  21058812.883 8     -2155.455 8  86232327.45549  21058815.96149
     -1679.62949         0.000 0
 115791583.655 7  22034405.738 7      2043.689 7  90227223.64749  22034408.65649
      1592.38549         0.000 0
 114224586.615 7  21736217.625 7     -2792.801 7  89006185.59048  21736221.00448
     -2176.29148         0.000 0
 123261481.464 5  23455878.316 5      3163.533 5  96047916.27745  23455881.19145
      2464.96545         0.000 0
 120403445.854 6  22912014.109 6      1439.998 6  93820876.22847  22912015.01247
      1122.13147         0.000 0
 132584279.165 2  25229950.137 2      2571.736 2 103312458.37443  25229957.46143
      2003.96743         0.000 0
 107468527.888 7  20450581.496 7       160.211 7  83741720.40648  20450583.65648
       124.90248         0.000 0
 121917002.082 6  23200036.109 6     -3352.957 6  95000281.01847  23200042.70747
     -2612.60047         0.000 0
 123031722.666 6  22983361.371 6      2424.164 6  95691389.263 6         0.000 0
      1885.033 6  22983368.816 6
 121795343.685 5  22857086.094 5     -4482.689 5         0.000 0         0.000 0
         0.000 0         0.000 0
 104583957.094 5  19585216.117 5     -1261.102 5  81343104.881 5         0.000 0
      -980.584 5  19585226.141 5
 112307074.117 6  21068522.008 6      2812.914 6  87350000.075 8         0.000 0
      2188.064 8  21068533.613 8
 114352533.343 7  21422082.160 7     -3184.305 7  88940890.598 8         0.000 0
     -2477.254 8  21422092.473 8
 103367934.810 7  19323544.836 7       335.082 7  80397310.079 6         0.000 0
       260.658 6  19323554.434 6
 116783191.063 3  21839044.641 3      3079.795 3  90831412.355 4         0.000 0
      2394.557 4  21839054.383 4
 18  5 22 19 59 36.0000000  0 19G 1G 3G 7G 8G11G17G18G19G22G24G28G30
                                R 7R12R13R14R22R23R24
 108019546.063 9  20555437.285 9     -1236.629 9  84171100.93649  20555443.31349
      -963.68449         0.000 0
 122619762.313 6  23333762.270 6      2956.889 6  95547887.91148  23333769.79748
      2304.03348         0.000 0
 130796411.478 6  24889729.809 6     -3780.693 6 101919292.77544  24889735.91844
     -2946.12744         0.000 0
 128249813.040 6  24405130.270 6     -3097.002 6  99934942.25246  24405137.92646
     -2413.47146         0.000 0
 110666959.979 7  21059223.449 7     -2156.943 7  86234007.25749  21059226.21149
     -1680.61949         0.000 0
 115789540.067 7  22034017.133 7      2043.217 7  90225631.24949  22034020.16849
      1592.09849         0.000 0
 114227379.854 6  21736748.531 6     -2794.424 6  89008362.12048  21736752.53948
     -2177.41648         0.000 0
 123258318.020 5  23455276.074 5      3163.373 5  96045451.22145  23455279.05145
      2465.02945         0.000 0
 120402006.418 6  22911739.547 6      1438.061 6  93819754.59147  22911741.33647
      1120.49647         0.000 0
 132581706.994 2  25229460.223 2      2572.631 2 103310454.12143  25229468.82043
      2004.58043         0.000 0
 107468367.775 6  20450551.336 6       159.035 6  83741595.62548  20450553.52748
       124.01248         0.000 0
 121920355.694 6  23200674.047 6     -3353.818 6  95002894.23547  23200680.34447
     -2613.33447         0.000 0
 123029299.746 5  22982907.496 5      2421.381 5  95689504.757 7         0.000 0
      1883.262 7  22982915.660 7
 121799827.659 5  22857927.035 5     -4484.256 5         0.000 0         0.000 0
         0.000 0         0.000 0
 104585218.774 5  19585451.332 5     -1262.053 5  81344086.229 6         0.000 0
      -981.920 6  19585461.500 6
 112304261.628 6  21067992.082 6      2811.463 6  87347812.596 8         0.000 0
      2187.107 8  21068005.832 8
 114355718.247 7  21422679.035 7     -3186.395 7  88943367.747 8         0.000 0
     -2478.020 8  21422688.918 8
 103367600.110 7  19323481.414 7       334.281 7  80397049.758 5         0.000 0
       260.207 5  19323490.723 5
 116780111.489 3  21838468.305 3      3078.906 3  90829017.116 3         0.000 0
      2395.342 3  21838478.477 3
 18  5 22 19 59 37.0000000  0 19G 1G 3G 7G 8G11G17G18G19G22G24G28G30
                                R 7R12R13R14R22R23R24
 108020781.761 8  20555672.500 8     -1235.656 8  84172063.78349  20555678.85249
      -962.88549         0.000 0
 122616804.508 6  23333199.605 6      2957.725 6  95545583.09048  23333206.74248
      2304.87148         0.000 0
 130800191.103 6  24890449.242 6     -3779.838 6 101922237.97944  24890455.06644
     -2945.46344         0.000 0
 128252909.083 6  24405720.207 6     -3095.189 6  99937354.75846  24405727.17646
     -2411.88946         0.000 0
 110669116.077 7  21059633.805 7     -2155.619 7  86235687.35449  21059637.38349
     -1679.64349         0.000 0
 115787496.426 7  22033627.750 7      2043.252 7  90224038.78048  22033630.58248
      1592.00048         0.000 0
 114230173.396 7  21737279.945 7     -2793.432 7  89010538.92148  21737284.20748
     -2176.86948         0.000 0
 123255154.348 4  23454673.914 4      3162.588 4  96042986.04945  23454675.96145
      2464.20745         0.000 0
 120400567.212 6  22911465.926 6      1439.209 6  93818633.11447  22911467.97347
      1121.31647         0.000 0
 132579134.991 2  25228971.105 2      2571.533 2 103308449.93343  25228978.84443
      2003.73843         0.000 0
 107468207.979 6  20450520.828 6       159.422 6  83741471.11648  20450523.46148
       124.36348         0.000 0
 121923709.008 6  23201312.352 6     -3353.744 6  95005507.16747  23201318.86347
     -2613.29547         0.000 0
 123026877.114 5  22982452.848 5      2422.865 5  95687620.521 6         0.000 0
      1883.617 6  22982462.590 6
 121804311.292 5  22858765.199 5     -4483.807 5         0.000 0         0.000 0
         0.000 0         0.000 0
 104586481.180 5  19585686.203 5     -1264.182 5  81345068.083 6         0.000 0
      -983.012 6  19585694.223 6
 112301449.640 6  21067465.242 6      2811.346 6  87345625.494 8         0.000 0
      2186.973 8  21067479.852 8
 114358903.176 7  21423276.141 7     -3184.637 7  88945844.914 8         0.000 0
     -2476.707 8  21423285.164 8
 103367265.859 7  19323418.363 7       334.008 7  80396789.805 5         0.000 0
       259.137 5  19323427.816 5
 116777031.808 3  21837893.344 3      3079.316 3  90826621.855 4         0.000 0
      2393.371 4  21837899.930 4
 18  5 22 19 59 38.0000000  0 19G 1G 3G 7G 8G11G17G18G19G22G24G28G30
                                R 7R12R13R14R22R23R24
 108022018.441 9  20555907.660 9     -1236.943 9  84173027.47149  20555914.16849
      -963.80949         0.000 0
 122613847.349 6  23332637.168 6      2957.219 6  95543278.83048  23332642.75048
      2304.51448         0.000 0
 130803971.125 6  24891168.625 6     -3780.109 6 101925183.43844  24891174.46544
     -2945.51044         0.000 0
 128256005.397 6  24406309.949 6     -3096.867 6  99939767.44246  24406316.44546
     -2413.18646         0.000 0
 110671272.913 7  21060043.969 7     -2157.102 7  86237367.99649  21060046.51649
     -1680.84249         0.000 0
 115785453.434 7  22033239.457 7      2043.508 7  90222446.86048  22033241.73448
      1592.34448         0.000 0
 114232967.586 7  21737812.020 7     -2794.602 7  89012716.19748  21737815.18448
     -2177.61948         0.000 0
 123251991.233 5  23454072.844 5      3162.785 5  96040521.28245  23454075.40645
      2464.63145         0.000 0
 120399128.795 6  22911192.250 6      1438.547 6  93817512.26347  22911194.24247
      1120.76247         0.000 0
 132576563.617 1  25228480.215 1      2570.305 1 103306446.30443  25228490.04743
      2002.85243         0.000 0
 107468049.042 6  20450490.980 6       159.326 6  83741347.26548  20450493.52748
       124.12148         0.000 0
 121927063.069 6  23201950.316 6     -3353.313 6  95008120.74447  23201956.71147
     -2612.79547         0.000 0
 123024455.410 5  22982001.730 5      2420.990 5  95685736.961 6         0.000 0
      1882.807 6  22982010.035 6
 121808795.567 5  22859606.461 5     -4483.299 5         0.000 0         0.000 0
         0.000 0         0.000 0
 104587744.911 5  19585924.313 5     -1263.654 5  81346050.979 6         0.000 0
      -983.041 6  19585933.051 6
 112298638.573 6  21066939.930 6      2810.447 6  87343439.097 8         0.000 0
      2186.377 8  21066951.676 8
 114362088.513 6  21423871.617 6     -3185.867 6  88948322.390 8         0.000 0
     -2477.596 8  21423881.641 8
 103366932.596 7  19323356.691 7       332.992 7  80396530.587 5         0.000 0
       259.010 5  19323364.996 5
 116773952.963 3  21837317.609 3      3079.082 3  90824227.156 4         0.000 0
      2394.223 4  21837322.625 4
 18  5 22 19 59 39.0000000  0 19G 1G 3G 7G 8G11G17G18G19G22G24G28G30
                                R 7R12R13R14R22R23R24
 108023255.679 9  20556143.063 9     -1238.404 9  84173991.51549  20556149.17249
      -964.87349         0.000 0
 122610890.275 6  23332073.977 6      2956.307 6  95540974.61048  23332080.50048
      2303.78148         0.000 0
 130807750.514 6  24891887.680 6     -3779.285 6 101928128.38744  24891893.39144
     -2944.81644         0.000 0
 128259101.994 6  24406898.930 6     -3096.824 6  99942180.40746  24406905.97346
     -2413.03946         0.000 0
 110673430.277 7  21060454.086 7     -2158.268 7  86239049.06449  21060458.10549
     -1681.77049         0.000 0
 115783410.245 7  22032850.410 7      2042.186 7  90220854.74848  22032853.88748
      1591.24248         0.000 0
 114235762.442 7  21738343.910 7     -2796.004 7  89014894.03148  21738348.20348
     -2178.82048         0.000 0
 123248827.819 4  23453470.730 4      3162.693 4  96038056.28845  23453472.74645
      2464.27045         0.000 0
 120397690.976 6  22910918.676 6      1437.049 6  93816391.87747  22910921.09447
      1119.93447         0.000 0
 132573992.779 3  25227992.574 3      2571.033 3 103304443.02243  25228000.88743
      2003.29343         0.000 0
 107467890.225 6  20450461.094 6       157.340 6  83741223.52748  20450462.58248
       122.56848         0.000 0
 121930416.642 6  23202589.094 6     -3354.246 6  95010733.92047  23202594.24647
     -2613.82047         0.000 0
 123022034.567 5  22981549.848 5      2420.479 5  95683854.099 7         0.000 0
      1883.094 7  22981558.156 7
 121813279.434 5  22860445.676 5     -4484.480 5         0.000 0         0.000 0
         0.000 0         0.000 0
 104589008.995 5  19586161.953 5     -1266.020 5  81347034.138 6         0.000 0
      -984.008 6  19586168.254 6
 112295828.097 6  21066412.566 6      2809.227 6  87341253.163 8         0.000 0
      2185.186 8  21066424.023 8
 114365274.306 7  21424465.902 7     -3186.742 7  88950800.228 8         0.000 0
     -2478.492 8  21424479.652 8
 103366599.551 7  19323293.684 7       331.162 7  80396271.572 6         0.000 0
       257.545 6  19323305.145 6
 116770873.876 3  21836739.543 3      3077.162 3  90821832.316 4         0.000 0
      2393.262 4  21836747.852 4
 18  5 22 19 59 40.0000000  0 19G 1G 3G 7G 8G11G17G18G19G22G24G28G30
                                R 7R12R13R14R22R23R24
 108024493.451 9  20556378.305 9     -1237.316 9  84174956.02149  20556384.66049
      -964.29149         0.000 0
 122607933.707 6  23331511.055 6      2957.141 6  95538670.79748  23331518.43848
      2303.99448         0.000 0
 130811530.589 6  24892606.719 6     -3780.561 6 101931073.91244  24892612.28544
     -2945.87544         0.000 0
 128262198.351 6  24407487.184 6     -3095.658 6  99944593.13246  24407494.30946
     -2412.08646         0.000 0
 110675587.888 7  21060865.332 7     -2157.064 7  86240730.31749  21060868.19549
     -1680.75649         0.000 0
 115781367.622 7  22032462.059 7      2042.883 7  90219263.11549  22032465.05149
      1591.94149         0.000 0
 114238557.406 7  21738875.785 7     -2794.232 7  89017071.90548  21738879.54748
     -2177.28148         0.000 0
 123245665.045 5  23452868.313 5      3162.238 5  96035591.76745  23452871.50445
      2464.03345         0.000 0
 120396253.582 6  22910645.086 6      1437.393 6  93815271.81847  22910647.04747
      1119.79347         0.000 0
 132571422.098 2  25227503.344 2      2570.383 2 103302439.89643  25227511.04343
      2002.74443         0.000 0
 107467732.091 6  20450429.758 6       158.545 6  83741100.29148  20450432.16048
       123.58248         0.000 0
 121933771.209 6  23203226.855 6     -3355.053 6  95013347.87347  23203233.63747
     -2614.35247         0.000 0
 123019613.995 5  22981095.090 5      2420.648 5  95681971.408 6         0.000 0
      1882.916 6  22981106.117 6
 121817764.181 5  22861285.445 5     -4485.482 5         0.000 0         0.000 0
         0.000 0         0.000 0
 104590274.409 4  19586398.719 4     -1265.400 4  81348018.383 6         0.000 0
      -984.420 6  19586409.031 6
 112293018.193 6  21065885.477 6      2809.924 6  87339067.686 8         0.000 0
      2185.945 8  21065895.789 8
 114368459.861 6  21425065.332 6     -3184.521 6  88953277.921 8         0.000 0
     -2477.420 8  21425076.934 8
 103366267.259 7  19323231.238 7       332.350 7  80396013.119 6         0.000 0
       258.520 6  19323243.270 6
 116767795.694 2  21836165.758 2      3078.018 2  90819438.157 4         0.000 0
      2393.182 4  21836172.063 4
 18  5 22 19 59 41.0000000  0 19G 1G 3G 7G 8G11G17G18G19G22G24G28G30
                                R 7R12R13R14R22R23R24
 108025731.833 9  20556613.441 9     -1238.963 9  84175921.01249  20556620.29749
      -965.39349         0.000 0
 122604977.367 6  23330949.168 6      2955.240 6  95536367.14048  23330956.09448
      2302.97148         0.000 0
 130815310.403 6  24893326.078 6     -3779.885 6 101934019.21944  24893331.68844
     -2945.39544         0.000 0
 128265294.698 6  24408076.758 6     -3096.973 6  99947005.88946  24408083.49646
     -2413.34246         0.000 0
 110677745.938 7  21061275.898 7     -2158.672 7  86242411.92149  21061278.70349
     -1682.15049         0.000 0
 115779325.176 7  22032073.313 7      2042.426 7  90217671.62449  22032076.26249
      1591.19349         0.000 0
 114241352.826 7  21739407.551 7     -2796.328 7  89019250.16548  21739411.98448
     -2178.75248         0.000 0
 123242502.299 5  23452267.223 5      3163.229 5  96033127.29345  23452270.09845
      2464.68945         0.000 0
 120394816.620 6  22910371.816 6      1436.352 6  93814152.11847  22910373.62147
      1119.18047         0.000 0
 132568851.826 2  25227013.148 2      2569.516 2 103300437.10943  25227021.67643
      2002.18943         0.000 0
 107467574.409 7  20450400.457 7       157.756 7  83740977.44348  20450402.20348
       123.04748         0.000 0
 121937125.827 6  23203866.086 6     -3354.396 6  95015961.82347  23203871.82047
     -2613.75247         0.000 0
 123017193.952 6  22980643.945 6      2419.098 6  95680089.185 7         0.000 0
      1881.287 7  22980654.117 7
 121822248.959 5  22862124.250 5     -4485.158 5         0.000 0         0.000 0
         0.000 0         0.000 0
 104591540.677 5  19586635.660 5     -1266.150 5  81349003.274 6         0.000 0
      -985.385 6  19586643.250 6
 112290208.965 6  21065356.559 6      2809.174 6  87336882.723 8         0.000 0
      2184.920 8  21065369.879 8
 114371645.658 6  21425662.070 6     -3186.268 6  88955755.714 8         0.000 0
     -2478.307 8  21425673.387 8
 103365935.523 7  19323169.543 7       331.033 7  80395755.066 6         0.000 0
       257.926 6  19323180.285 6
 116764717.689 3  21835588.859 3      3078.225 3  90817044.155 4         0.000 0
      2394.188 4  21835598.313 4
 18  5 22 19 59 42.0000000  0 19G 1G 3G 7G 8G11G17G18G19G22G24G28G30
                                R 7R12R13R14R22R23R24
 108026970.781 9  20556849.875 9     -1239.754 9  84176886.41049  20556856.52749
      -966.23049         0.000 0
 122602021.560 6  23330386.434 6      2956.051 6  95534063.91048  23330393.14548
      2303.57848         0.000 0
 130819090.399 6  24894046.160 6     -3780.010 6 101936964.69944  24894050.60944
     -2945.56844         0.000 0
 128268391.380 6  24408665.914 6     -3095.850 6  99949418.87946  24408673.53946
     -2412.28746         0.000 0
 110679904.457 8  21061686.332 8     -2159.150 8  86244093.85449  21061689.41049
     -1682.40249         0.000 0
 115777282.686 7  22031684.434 7      2041.598 7  90216080.05149  22031687.81349
      1591.02049         0.000 0
 114244148.688 7  21739939.609 7     -2796.455 7  89021428.74948  21739943.30148
     -2179.23848         0.000 0
 123239339.498 5  23451664.418 5      3161.949 5  96030662.78145  23451667.68445
      2463.87145         0.000 0
 120393380.392 6  22910098.270 6      1435.873 6  93813033.03147  22910099.41447
      1118.83047         0.000 0
 132566281.743 2  25226524.535 2      2569.371 2 103298434.45843  25226532.80543
      2002.15243         0.000 0
 107467417.052 6  20450370.453 6       156.459 6  83740854.80648  20450372.78548
       121.99448         0.000 0
 121940480.684 6  23204503.746 6     -3355.225 6  95018576.05147  23204511.03147
     -2614.33847         0.000 0
 123014774.743 5  22980192.094 5      2419.146 5  95678207.549 7         0.000 0
      1882.205 7  22980203.695 7
 121826734.091 5  22862962.918 5     -4484.738 5         0.000 0         0.000 0
         0.000 0         0.000 0
 104592807.659 5  19586874.473 5     -1268.600 5  81349988.671 6         0.000 0
      -986.146 6  19586881.492 6
 112287400.059 6  21064831.227 6      2807.523 6  87334698.032 8         0.000 0
      2183.672 8  21064843.832 8
 114374831.630 7  21426259.395 7     -3186.648 7  88958233.731 8         0.000 0
     -2478.012 8  21426268.703 8
 103365604.088 7  19323109.285 7       329.830 7  80395497.300 6         0.000 0
       256.814 6  19323118.738 6
 116761639.788 3  21835015.977 3      3076.945 3  90814650.263 4         0.000 0
      2393.447 4  21835021.703 4
 18  5 22 19 59 43.0000000  0 19G 1G 3G 7G 8G11G17G18G19G22G24G28G30
                                R 7R12R13R14R22R23R24
 108028210.144 9  20557085.707 9     -1239.449 9  84177852.14849  20557092.21949
      -965.80549         0.000 0
 122599065.716 6  23329823.813 6      2955.574 6  95531760.68048  23329830.55148
      2303.04748         0.000 0
 130822870.452 6  24894765.070 6     -3780.391 6 101939910.14244  24894770.03544
     -2945.74844         0.000 0
 128271487.622 6  24409255.324 6     -3096.580 6  99951831.50846  24409262.29346
     -2413.01446         0.000 0
 110682063.115 7  21062096.879 7     -2159.256 7  86245775.94149  21062100.09849
     -1682.46549         0.000 0
 115775240.838 7  22031295.672 7      2042.154 7  90214489.01049  22031299.10549
      1591.30749         0.000 0
 114246944.653 6  21740471.500 6     -2796.307 6  89023607.41948  21740475.37548
     -2178.89348         0.000 0
 123236177.396 5  23451063.164 5      3162.488 5  96028198.82345  23451066.52745
      2464.21945         0.000 0
 120391944.251 6  22909824.695 6      1435.475 6  93811913.94747  22909826.36747
      1118.41647         0.000 0
 132563712.397 2  25226036.035 2      2568.229 2 103296432.38443  25226044.64843
      2001.13143         0.000 0
 107467260.176 6  20450341.137 6       156.977 6  83740732.57048  20450342.65248
       122.36148         0.000 0
 121943836.060 6  23205142.238 6     -3355.469 6  95021190.63947  23205149.53547
     -2614.73247         0.000 0
 123012355.737 5  22979743.508 5      2417.967 5  95676326.079 6         0.000 0
      1881.070 6  22979749.383 6
 121831219.498 5  22863804.422 5     -4485.742 5         0.000 0         0.000 0
         0.000 0         0.000 0
 104594075.731 5  19587110.395 5     -1268.568 5  81350974.952 6         0.000 0
      -986.502 6  19587119.273 6
 112284592.139 6  21064303.434 6      2807.889 6  87332514.079 8         0.000 0
      2183.609 8  21064315.609 8
 114378017.474 6  21426855.258 6     -3185.875 6  88960711.604 8         0.000 0
     -2478.055 8  21426866.430 8
 103365273.348 7  19323046.281 7       330.801 7  80395240.073 6         0.000 0
       257.533 6  19323055.449 6
 116758562.792 3  21834440.773 3      3076.742 3  90812256.996 4         0.000 0
      2393.697 4  21834443.926 4
 18  5 22 19 59 44.0000000  0 19G 1G 3G 7G 8G11G17G18G19G22G24G28G30
                                R 7R12R13R14R22R23R24
 108029450.526 9  20557321.363 9     -1241.189 9  84178818.66449  20557328.16049
      -967.26449         0.000 0
 122596110.584 6  23329261.156 6      2955.238 6  95529458.00048  23329267.72748
      2302.50448         0.000 0
 130826650.089 6  24895483.805 6     -3779.473 6 101942855.34844  24895489.02744
     -2944.94144         0.000 0
 128274584.432 6  24409844.703 6     -3096.934 6  99954244.62046  24409852.12946
     -2413.28146         0.000 0
 110684222.719 8  21062508.539 8     -2160.586 8  86247458.75449  21062511.12949
     -1683.43649         0.000 0
 115773198.731 7  22030907.160 7      2041.938 7  90212897.71548  22030910.79348
      1591.29348         0.000 0
 114249741.537 7  21741003.641 7     -2797.871 7  89025786.83648  21741007.70748
     -2180.44748         0.000 0
 123233014.728 5  23450461.590 5      3162.250 5  96025734.38845  23450463.59445
      2464.12545         0.000 0
 120390509.232 6  22909551.801 6      1434.242 6  93810795.73247  22909553.66447
      1117.54347         0.000 0
 132561142.960 2  25225546.500 2      2569.047 2 103294430.22943  25225555.77343
      2001.76243         0.000 0
 107467103.867 6  20450310.930 6       154.865 6  83740610.77348  20450312.94548
       120.66648         0.000 0
 121947191.271 6  23205780.270 6     -3355.762 6  95023805.02847  23205786.76647
     -2614.66847         0.000 0
 123009937.896 5  22979286.578 5      2416.863 5  95674445.549 7         0.000 0
      1880.330 7  22979298.609 7
 121835704.979 5  22864642.738 5     -4485.746 5         0.000 0         0.000 0
         0.000 0         0.000 0
 104595344.505 4  19587351.289 4     -1269.676 4  81351961.801 6         0.000 0
      -988.232 6  19587357.160 6
 112281784.465 6  21063776.750 6      2806.223 6  87330330.347 8         0.000 0
      2183.158 8  21063786.922 8
 114381203.971 7  21427453.371 7     -3187.123 7  88963189.964 8         0.000 0
     -2478.549 8  21427462.824 8
 103364943.107 7  19322984.387 7       329.490 7  80394983.225 6         0.000 0
       255.771 6  19322992.980 6
 116755485.379 3  21833864.676 3      3076.889 3  90809863.468 3         0.000 0
      2393.484 3  21833871.121 3
 18  5 22 19 59 45.0000000  0 19G 1G 3G 7G 8G11G17G18G19G22G24G28G30
                                R 7R12R13R14R22R23R24
 108030691.611 9  20557557.824 9     -1241.234 9  84179785.77649  20557563.89149
      -966.95549         0.000 0
 122593155.561 6  23328699.309 6      2954.666 6  95527155.35448  23328706.04748
      2302.38348         0.000 0
 130830429.444 5  24896204.203 5     -3779.889 5 101945800.26744  24896207.75044
     -2945.31644         0.000 0
 128277681.448 6  24410433.887 6     -3097.348 6  99956657.86846  24410441.16846
     -2413.52046         0.000 0
 110686382.878 8  21062920.141 8     -2160.414 8  86249142.02949  21062922.23049
     -1683.45949         0.000 0
 115771157.021 7  22030518.449 7      2042.264 7  90211306.77949  22030522.75849
      1591.50449         0.000 0
 114252539.146 7  21741535.871 7     -2797.602 7  89027966.76848  21741540.36348
     -2179.98448         0.000 0
 123229852.430 5  23449859.242 5      3162.461 5  96023270.26945  23449861.78945
      2464.35545         0.000 0
 120389074.647 6  22909279.570 6      1434.158 6  93809677.85547  22909280.25847
      1117.57647         0.000 0
 132558574.702 1  25225058.629 1      2567.752 1 103292428.94943  25225067.43043
      2000.82043         0.000 0
 107466948.010 6  20450280.520 6       155.936 6  83740489.32548  20450283.59848
       121.52148         0.000 0
 121950546.455 6  23206419.246 6     -3355.475 6  95026419.49147  23206426.08647
     -2614.71147         0.000 0
 123007520.912 6  22978839.340 6      2416.348 6  95672565.726 6         0.000 0
      1878.977 6  22978845.211 6
 121840190.353 5  22865483.438 5     -4485.715 5         0.000 0         0.000 0
         0.000 0         0.000 0
 104596614.174 5  19587588.984 5     -1269.449 5  81352949.288 6         0.000 0
      -987.516 6  19587593.996 6
 112278977.916 6  21063249.871 6      2806.430 6  87328147.497 8         0.000 0
      2183.035 8  21063262.906 8
 114384391.012 6  21428049.289 6     -3187.287 6  88965668.763 8         0.000 0
     -2478.750 8  21428061.750 8
 103364613.590 7  19322923.441 7       329.541 7  80394726.910 6         0.000 0
       256.879 6  19322931.891 6
 116752408.392 4  21833287.379 4      3077.350 4  90807470.297 4         0.000 0
      2392.580 4  21833297.977 4
 18  5 22 19 59 46.0000000  0 19G 1G 3G 7G 8G11G17G18G19G22G24G28G30
                                R 7R12R13R14R22R23R24
 108031933.385 9  20557794.117 9     -1243.469 9  84180753.39949  20557800.77049
      -968.90049         0.000 0
 122590201.047 6  23328136.430 6      2954.229 6  95524853.15248  23328143.71548
      2302.03948         0.000 0
 130834208.194 6  24896923.145 6     -3778.334 6 101948744.75944  24896928.35244
     -2944.17444         0.000 0
 128280779.442 6  24411022.898 6     -3099.193 6  99959071.93246  24411030.05546
     -2414.89646         0.000 0
 110688543.826 8  21063330.578 8     -2161.945 8  86250825.87949  21063333.68449
     -1684.76049         0.000 0
 115769114.701 7  22030129.574 7      2041.592 7  90209715.37148  22030132.92248
      1590.75048         0.000 0
 114255337.749 7  21742068.938 7     -2799.680 7  89030147.49248  21742072.82848
     -2181.69348         0.000 0
 123226689.339 5  23449257.875 5      3162.139 5  96020805.52445  23449260.36745
      2463.89645         0.000 0
 120387641.062 6  22909006.027 6      1432.764 6  93808560.81047  22909007.82847
      1116.29747         0.000 0
 132556006.915 2  25224570.305 2      2566.572 2 103290428.07843  25224579.21943
      2000.00843         0.000 0
 107466792.154 6  20450251.523 6       154.598 6  83740367.88948  20450253.81348
       120.53548         0.000 0
 121953901.026 6  23207057.199 6     -3355.053 6  95029033.39747  23207064.38347
     -2613.97947         0.000 0
 123005105.462 5  22978388.922 5      2414.680 5  95670687.028 6         0.000 0
      1877.775 6  22978395.367 6
 121844675.438 5  22866321.105 5     -4484.453 5         0.000 0         0.000 0
         0.000 0         0.000 0
 104597883.927 5  19587824.363 5     -1270.785 5  81353936.917 6         0.000 0
      -989.186 6  19587831.809 6
 112276171.657 6  21062722.684 6      2804.566 6  87325964.853 8         0.000 0
      2181.209 8  21062736.863 8
 114387578.861 6  21428647.473 6     -3189.424 6  88968148.193 8         0.000 0
     -2480.498 8  21428657.500 8
 103364284.110 7  19322861.039 7       327.990 7  80394470.660 5         0.000 0
       254.955 5  19322868.059 5
 116749330.719 4  21832711.777 4      3076.678 4  90805076.518 4         0.000 0
      2393.135 4  21832725.813 4
 18  5 22 19 59 47.0000000  0 19G 1G 3G 7G 8G11G17G18G19G22G24G28G30
                                R 7R12R13R14R22R23R24
 108033176.262 9  20558030.785 9     -1241.857 9  84181721.88949  20558037.07849
      -967.82449         0.000 0
 122587246.504 6  23327573.645 6      2955.041 6  95522550.91348  23327581.82848
      2302.64848         0.000 0
 130837986.531 5  24897642.316 5     -3778.051 5 101951688.92344  24897647.42644
     -2943.99844         0.000 0
 128283876.969 6  24411612.574 6     -3096.898 6  99961485.56346  24411619.88746
     -2413.27546         0.000 0
 110690705.611 8  21063742.246 8     -2160.725 8  86252510.37349  21063744.48049
     -1683.82049         0.000 0
 115767073.471 7  22029741.648 7      2041.604 7  90208124.80849  22029744.89549
      1590.77149         0.000 0
 114258136.976 7  21742601.090 7     -2798.850 7  89032328.73248  21742605.16848
     -2180.81448         0.000 0
 123223527.026 5  23448656.313 5      3161.879 5  96018341.39646  23448658.37146
      2463.78146         0.000 0
 120386207.828 6  22908733.285 6      1434.084 6  93807443.96747  22908734.21947
      1117.33447         0.000 0
 132553439.841 2  25224082.355 2      2567.033 2 103288427.74243  25224090.46943
      2000.14843         0.000 0
 107466637.563 7  20450222.469 7       155.488 7  83740247.43848  20450223.87148
       121.29948         0.000 0
 121957255.933 6  23207695.813 6     -3354.613 6  95031647.63447  23207701.69147
     -2613.90047         0.000 0
 123002690.244 6  22977937.449 6      2416.166 6  95668808.542 6         0.000 0
      1879.480 6  22977945.902 6
 121849160.464 5  22867162.590 5     -4484.672 5         0.000 0         0.000 0
         0.000 0         0.000 0
 104599155.380 4  19588062.266 4     -1270.271 4  81354925.803 5         0.000 0
      -988.285 5  19588068.566 5
 112273366.884 6  21062195.586 6      2805.422 6  87323783.341 8         0.000 0
      2181.883 8  21062210.625 8
 114390767.043 6  21429244.746 6     -3187.148 6  88970627.909 8         0.000 0
     -2479.176 8  21429254.773 8
 103363956.064 7  19322801.309 7       328.766 7  80394215.481 5         0.000 0
       256.354 5  19322807.895 5
 116746253.978 4  21832135.262 4      3077.168 4  90802683.521 3         0.000 0
      2393.611 3  21832152.023 3
 18  5 22 19 59 48.0000000  0 19G 1G 3G 7G 8G11G17G18G19G22G24G28G30
                                R 7R12R13R14R22R23R24
 108034419.431 9  20558267.211 9     -1244.100 9  84182690.55949  20558273.34849
      -969.22149         0.000 0
 122584292.466 6  23327012.477 6      2953.756 6  95520249.05148  23327019.84448
      2301.76048         0.000 0
 130841764.621 6  24898360.676 6     -3777.385 6 101954632.85644  24898366.04344
     -2943.36344         0.000 0
 128286975.333 6  24412201.863 6     -3098.691 6  99963899.88146  24412209.56346
     -2414.43646         0.000 0
 110692867.741 8  21064153.387 8     -2163.242 8  86254195.15949  21064156.50849
     -1685.68649         0.000 0
 115765031.371 7  22029352.473 7      2041.977 7  90206533.56449  22029355.79349
      1591.07649         0.000 0
 114260936.766 7  21743134.000 7     -2800.684 7  89034510.37548  21743138.68048
     -2182.42448         0.000 0
 123220363.912 5  23448054.363 5      3163.463 5  96015876.60746  23448056.00846
      2464.96346         0.000 0
 120384775.388 6  22908461.020 6      1432.074 6  93806327.81847  22908463.02347
      1115.87947         0.000 0
 132550873.187 2  25223594.020 2      2566.234 2 103286427.74443  25223601.53143
      1999.68943         0.000 0
 107466482.536 7  20450193.172 7       153.908 7  83740126.62948  20450194.01648
       119.98048         0.000 0
 121960610.356 6  23208333.754 6     -3354.201 6  95034261.49247  23208340.57847
     -2613.57647         0.000 0
 123000276.399 6  22977485.449 6      2413.512 6  95666931.054 6         0.000 0
      1877.635 6  22977493.184 6
 121853645.486 5  22868001.535 5     -4484.553 5         0.000 0         0.000 0
         0.000 0         0.000 0
 104600426.660 5  19588301.215 5     -1272.869 5  81355914.564 6         0.000 0
      -989.799 6  19588307.660 6
 112270562.044 6  21061670.680 6      2804.174 6  87321601.845 8         0.000 0
      2180.975 8  21061681.992 8
 114393955.665 7  21429841.488 7     -3189.471 7  88973107.944 8         0.000 0
     -2480.436 8  21429849.797 8
 103363627.637 8  19322738.465 8       327.127 8  80393960.080 6         0.000 0
       254.879 6  19322748.922 6
 116743176.568 5  21831561.227 5      3077.482 5  90800290.022 4         0.000 0
      2392.879 4  21831572.973 4
 18  5 22 19 59 49.0000000  0 19G 1G 3G 7G 8G11G17G18G19G22G24G28G30
                                R 7R12R13R14R22R23R24
 108035663.394 9  20558503.891 9     -1243.404 9  84183659.91549  20558509.42649
      -968.88749         0.000 0
 122581338.619 6  23326450.418 6      2954.080 6  95517947.36447  23326457.94547
      2301.87947         0.000 0
 130845542.636 6  24899079.863 6     -3778.076 6 101957576.77344  24899086.60244
     -2943.86944         0.000 0
 128290073.422 6  24412792.125 6     -3098.113 6  99966313.97546  24412799.72346
     -2414.04546         0.000 0
 110695030.394 8  21064564.641 8     -2162.215 8  86255880.35049  21064568.07449
     -1684.78749         0.000 0
 115762989.938 7  22028964.414 7      2041.539 7  90204942.83949  22028967.73449
      1590.72549         0.000 0
 114263736.994 7  21743666.738 7     -2799.734 7  89036692.35748  21743671.14848
     -2181.56448         0.000 0
 123217201.291 5  23447452.809 5      3163.006 5  96013412.21346  23447454.21146
      2464.84846         0.000 0
 120383343.369 6  22908188.578 6      1432.066 6  93805211.94547  22908190.49647
      1115.82247         0.000 0
 132548306.806 2  25223105.512 2      2566.717 2 103284427.99143  25223113.06643
      2000.02143         0.000 0
 107466328.384 6  20450163.414 6       154.486 6  83740006.48448  20450165.05948
       120.33248         0.000 0
 121963965.260 6  23208972.094 6     -3354.207 6  95036875.65747  23208979.39147
     -2613.51847         0.000 0
 122997862.863 6  22977032.984 6      2413.525 6  95665053.874 6         0.000 0
      1877.754 6  22977042.582 6
 121858130.728 6  22868842.172 6     -4485.027 6         0.000 0         0.000 0
         0.000 0         0.000 0
 104601699.266 5  19588538.270 5     -1272.426 5  81356904.358 5         0.000 0
      -989.525 5  19588547.578 5
 112267758.151 6  21061145.453 6      2804.539 6  87319421.012 8         0.000 0
      2181.445 8  21061159.777 8
 114397144.440 7  21430438.918 7     -3188.168 7  88975588.112 8         0.000 0
     -2479.789 8  21430450.090 8
 103363300.196 7  19322677.313 7       328.174 7  80393705.378 6         0.000 0
       255.135 6  19322688.055 6
 116740099.840 4  21830987.879 4      3076.713 4  90797896.923 4         0.000 0
      2393.525 4  21830998.762 4
 18  5 22 19 59 50.0000000  0 19G 1G 3G 7G 8G11G17G18G19G22G24G28G30
                                R 7R12R13R14R22R23R24
 108036908.112 9  20558740.738 9     -1245.451 9  84184629.79149  20558747.16049
      -970.53549         0.000 0
 122578384.947 6  23325888.383 6      2953.557 6  95515645.80647  23325895.19547
      2301.53947         0.000 0
 130849320.525 5  24899799.215 5     -3777.582 5 101960520.58144  24899804.25444
     -2943.66244         0.000 0
 128293171.476 6  24413382.555 6     -3098.285 6  99968728.05846  24413388.25046
     -2414.42446         0.000 0
 110697193.619 8  21064976.633 8     -2163.656 8  86257565.96049  21064979.65249
     -1686.12349         0.000 0
 115760949.082 7  22028576.238 7      2040.061 7  90203352.55049  22028579.43049
      1589.52549         0.000 0
 114266537.762 7  21744199.789 7     -2801.039 7  89038874.79648  21744203.98048
     -2182.74448         0.000 0
 123214039.201 4  23446850.852 4      3161.389 4  96010948.28346  23446852.07046
      2463.43446         0.000 0
 120381911.791 6  22907916.164 6      1431.230 6  93804096.41247  22907917.00847
      1115.34647         0.000 0
 132545741.408 2  25222617.598 2      2564.768 2 103282428.98043  25222624.79343
      1998.37343         0.000 0
 107466174.880 6  20450134.254 6       152.969 6  83739886.89648  20450135.97348
       119.15248         0.000 0
 121967320.436 6  23209611.027 6     -3355.492 6  95039490.10448  23209618.02748
     -2614.71748         0.000 0
 122995449.950 6  22976581.836 6      2412.982 6  95663177.193 6         0.000 0
      1876.533 6  22976592.293 6
 121862616.073 5  22869682.402 5     -4485.531 5         0.000 0         0.000 0
         0.000 0         0.000 0
 104602973.000 5  19588775.063 5     -1274.961 5  81357895.054 5         0.000 0
      -991.896 5  19588785.805 5
 112264955.350 6  21060619.969 6      2802.043 6  87317241.075 8         0.000 0
      2179.074 8  21060630.996 8
 114400333.541 7  21431037.801 7     -3189.609 7  88978068.512 8         0.000 0
     -2480.578 8  21431046.680 8
 103362973.603 8  19322615.184 8       325.502 8  80393451.375 6         0.000 0
       253.525 6  19322625.637 6
 116737023.769 4  21830410.254 4      3075.506 4  90795504.397 4         0.000 0
      2391.662 4  21830420.566 4
 18  5 22 19 59 51.0000000  0 19G 1G 3G 7G 8G11G17G18G19G22G24G28G30
                                R 7R12R13R14R22R23R24
 108038153.119 9  20558977.289 9     -1245.207 9  84185599.94049  20558983.72749
      -970.32849         0.000 0
 122575430.920 6  23325326.625 6      2953.898 6  95513343.97247  23325333.96547
      2301.68847         0.000 0
 130853098.131 5  24900517.129 5     -3778.119 5 101963464.20444  24900522.43844
     -2944.00244         0.000 0
 128296269.016 6  24413971.684 6     -3097.475 6  99971141.69446  24413978.15246
     -2413.53146         0.000 0
 110699356.954 8  21065388.188 8     -2163.605 8  86259251.68449  21065391.47749
     -1685.93449         0.000 0
 115758908.777 7  22028188.051 7      2039.777 7  90201762.70249  22028190.88349
      1589.22749         0.000 0
 114269338.673 7  21744733.398 7     -2800.951 7  89041057.29448  21744737.44948
     -2182.28148         0.000 0
 123210877.725 5  23446249.457 5      3160.734 5  96008484.74246  23446249.74646
      2462.99646         0.000 0
 120380480.111 6  22907643.449 6      1431.867 6  93802980.85847  22907645.53947
      1115.70947         0.000 0
 132543176.860 2  25222128.531 2      2564.582 2 103280430.61343  25222136.57043
      1998.21143         0.000 0
 107466021.745 6  20450104.797 6       152.549 6  83739767.56548  20450106.14548
       118.87348         0.000 0
 121970675.772 6  23210249.383 6     -3356.205 6  95042104.63948  23210255.90648
     -2615.25248         0.000 0
 122993037.145 6  22976131.680 6      2413.227 6  95661300.560 6         0.000 0
      1876.605 6  22976142.996 6
 121867101.217 5  22870520.902 5     -4485.717 5         0.000 0         0.000 0
         0.000 0         0.000 0
 104604247.599 5  19589013.996 5     -1274.932 5  81358886.413 5         0.000 0
      -992.293 5  19589023.164 5
 112262153.515 6  21060094.473 6      2801.955 6  87315061.854 8         0.000 0
      2179.008 8  21060107.934 8
 114403522.512 7  21431634.098 7     -3188.428 7  88980548.855 8         0.000 0
     -2480.156 8  21431643.691 8
 103362647.617 8  19322555.477 8       325.688 8  80393197.888 6         0.000 0
       253.068 6  19322563.211 6
 116733948.331 5  21829835.199 5      3074.051 5  90793112.519 3         0.000 0
      2390.580 3  21829844.082 3
 18  5 22 19 59 52.0000000  0 19G 1G 3G 7G 8G11G17G18G19G22G24G28G30
                                R 7R12R13R14R22R23R24
 108039398.333 9  20559214.547 9     -1245.602 9  84186570.26149  20559221.14549
      -970.79949         0.000 0
 122572477.047 6  23324763.570 6      2953.971 6  95511042.20847  23324771.59847
      2301.74247         0.000 0
 130856875.746 6  24901236.320 6     -3777.732 6 101966407.74444  24901241.60244
     -2943.63344         0.000 0
 128299366.508 6  24414560.805 6     -3097.381 6  99973555.34846  24414567.68846
     -2413.59446         0.000 0
 110701520.384 7  21065800.305 7     -2164.430 7  86260937.47649  21065803.12149
     -1686.46549         0.000 0
 115756868.526 7  22027799.426 7      2039.381 7  90200172.90949  22027803.21549
      1589.10549         0.000 0
 114272139.769 7  21745265.855 7     -2802.010 7  89043239.96348  21745270.70748
     -2183.22348         0.000 0
 123207716.441 5  23445647.914 5      3160.709 5  96006021.41146  23445649.65646
      2462.99246         0.000 0
 120379048.758 6  22907371.160 6      1431.061 6  93801865.49747  22907372.87547
      1115.11947         0.000 0
 132540612.852 1  25221640.457 1      2563.033 1 103278432.71743  25221648.92643
      1997.23043         0.000 0
 107465868.691 7  20450075.762 7       152.738 7  83739648.31048  20450078.10948
       119.12348         0.000 0
 121974031.267 6  23210888.156 6     -3355.701 6  95044719.31748  23210894.62548
     -2614.66848         0.000 0
 122990624.863 5  22975682.941 5      2411.768 5  95659424.349 6         0.000 0
      1876.268 6  22975691.535 6
 121871586.483 5  22871361.254 5     -4485.668 5         0.000 0         0.000 0
         0.000 0         0.000 0
 104605522.773 5  19589252.629 5     -1275.572 5  81359878.204 5         0.000 0
      -992.080 5  19589263.656 5
 112259352.206 6  21059569.391 6      2800.227 6  87312883.068 8         0.000 0
      2177.572 8  21059581.277 8
 114406711.501 6  21432232.813 6     -3189.230 6  88983029.167 8         0.000 0
     -2480.717 8  21432240.547 8
 103362321.895 8  19322493.035 8       325.467 8  80392944.505 6         0.000 0
       252.645 6  19322501.773 6
 116730873.125 5  21829261.133 5      3074.703 5  90790720.663 3         0.000 0
      2390.709 3  21829269.727 3
 18  5 22 19 59 53.0000000  0 19G 1G 3G 7G 8G11G17G18G19G22G24G28G30
                                R 7R12R13R14R22R23R24
 108040644.952 9  20559451.754 9     -1245.766 9  84187541.62249  20559457.61749
      -970.61949         0.000 0
 122569523.277 6  23324202.465 6      2954.686 6  95508740.61647  23324210.06347
      2302.29347         0.000 0
 130860652.566 5  24901955.172 5     -3777.369 5 101969350.70144  24901960.77044
     -2943.31644         0.000 0
 128302464.259 6  24415149.871 6     -3096.627 6  99975969.17346  24415157.67246
     -2413.06146         0.000 0
 110703684.985 8  21066211.652 8     -2163.541 8  86262624.16849  21066214.94149
     -1685.87349         0.000 0
 115754829.058 7  22027411.031 7      2038.494 7  90198583.68848  22027415.12548
      1588.52348         0.000 0
 114274941.938 7  21745799.547 7     -2801.158 7  89045423.50748  21745803.60948
     -2182.96348         0.000 0
 123204555.448 5  23445045.738 5      3160.486 5  96003558.35046  23445048.27346
      2462.72346         0.000 0
 120377618.117 6  22907098.672 6      1431.441 6  93800750.70947  22907100.74647
      1115.51647         0.000 0
 132538049.838 2  25221153.188 2      2562.869 2 103276435.56343  25221160.49643
      1997.09843         0.000 0
 107465716.804 7  20450046.961 7       152.164 7  83739529.93148  20450048.59048
       118.85448         0.000 0
 121977386.633 6  23211527.305 6     -3356.705 6  95047333.89147  23211533.10247
     -2615.61947         0.000 0
 122988213.528 6  22975229.000 6      2411.723 6  95657548.836 6         0.000 0
      1877.211 6  22975239.742 6
 121876071.438 5  22872199.117 5     -4484.969 5         0.000 0         0.000 0
         0.000 0         0.000 0
 104606799.348 5  19589491.641 5     -1277.023 5  81360871.088 5         0.000 0
      -992.914 5  19589500.520 5
 112256552.387 6  21059042.543 6      2800.301 6  87310705.407 8         0.000 0
      2177.773 8  21059054.574 8
 114409901.403 7  21432829.047 7     -3189.002 7  88985510.149 8         0.000 0
     -2479.539 8  21432839.645 8
 103361997.573 7  19322433.410 7       323.920 7  80392692.259 6         0.000 0
       251.715 6  19322443.004 6
 116727798.407 4  21828685.586 4      3074.717 4  90788329.200 3         0.000 0
      2390.150 3  21828697.477 3
 18  5 22 19 59 54.0000000  0 19G 1G 3G 7G 8G11G17G18G19G22G24G28G30
                                R 7R12R13R14R22R23R24
 108041891.204 9  20559689.285 9     -1247.393 9  84188512.74849  20559695.16849
      -972.08049         0.000 0
 122566569.533 6  23323641.117 6      2952.707 6  95506438.98447  23323647.37147
      2300.87347         0.000 0
 130864430.313 5  24902674.211 5     -3778.156 5 101972294.42044  24902680.00844
     -2944.09244         0.000 0
 128305560.939 6  24415739.414 6     -3097.590 6  99978382.12746  24415746.09446
     -2413.66246         0.000 0
 110705848.949 7  21066623.469 7     -2164.678 7  86264310.36849  21066625.90249
     -1686.74849         0.000 0
 115752790.036 7  22027023.539 7      2038.449 7  90196994.86349  22027026.15649
      1588.25449         0.000 0
 114277743.311 7  21746332.707 7     -2801.924 7  89047606.38248  21746337.02748
     -2183.33048         0.000 0
 123201395.379 5  23444443.609 5      3159.602 5  96001095.93746  23444446.69946
      2461.98646         0.000 0
 120376187.147 6  22906827.082 6      1429.797 6  93799635.65847  22906827.87147
      1114.27047         0.000 0
 132535486.777 1  25220665.387 1      2563.039 1 103274438.38143  25220673.34443
      1997.31643         0.000 0
 107465564.979 7  20450018.199 7       150.832 7  83739411.64948  20450019.96148
       117.49248         0.000 0
 121980743.171 6  23212165.785 6     -3356.691 6  95049949.34747  23212171.43847
     -2615.42047         0.000 0
 122985801.602 6  22974779.969 6      2410.740 6  95655672.941 6         0.000 0
      1874.131 6  22974786.988 6
 121880557.240 5  22873039.605 5     -4486.068 5         0.000 0         0.000 0
         0.000 0         0.000 0
 104608076.838 5  19589732.129 5     -1278.006 5  81361864.724 5         0.000 0
      -995.037 5  19589741.727 5
 112253752.880 6  21058517.742 6      2798.967 6  87308528.032 8         0.000 0
      2176.234 8  21058530.348 8
 114413090.124 6  21433427.043 6     -3189.516 6  88987990.272 8         0.000 0
     -2480.316 8  21433437.355 8
 103361673.372 8  19322373.254 8       324.051 8  80392440.101 5         0.000 0
       250.605 5  19322380.844 5
 116724724.802 4  21828110.512 4      3073.188 4  90785938.550 4         0.000 0
      2391.463 4  21828121.684 4
 18  5 22 19 59 55.0000000  0 19G 1G 3G 7G 8G11G17G18G19G22G24G28G30
                                R 7R12R13R14R22R23R24
 108043138.101 9  20559926.676 9     -1247.561 9  84189484.33649  20559932.45749
      -972.45149         0.000 0
 122563615.764 6  23323077.766 6      2953.596 6  95504137.33947  23323084.69147
      2301.55747         0.000 0
 130868207.216 5  24903392.391 5     -3776.742 5 101975237.46743  24903399.10243
     -2942.88343         0.000 0
 128308657.893 6  24416328.238 6     -3097.465 6  99980795.36246  24416335.06346
     -2413.54746         0.000 0
 110708013.479 7  21067035.289 7     -2165.160 7  86265997.02149  21067038.09449
     -1687.16049         0.000 0
 115750750.887 7  22026635.477 7      2038.479 7  90195405.88748  22026638.50848
      1588.66448         0.000 0
 114280545.411 7  21746865.297 7     -2802.445 7  89049789.84348  21746869.44948
     -2183.60548         0.000 0
 123198234.931 5  23443844.344 5      3160.412 5  95998633.22446  23443844.95746
      2462.70946         0.000 0
 120374756.632 6  22906554.496 6      1430.391 6  93798520.97947  22906556.34047
      1114.48447         0.000 0
 132532924.479 2  25220178.016 2      2561.232 2 103272441.75443  25220186.30143
      1995.91043         0.000 0
 107465413.353 7  20449989.152 7       150.996 7  83739293.48248  20449991.25848
       117.76448         0.000 0
 121984099.116 6  23212803.691 6     -3355.805 6  95052564.39047  23212810.00047
     -2614.93447         0.000 0
 122983390.554 5  22974329.078 5      2410.309 5  95653797.696 6         0.000 0
      1874.873 6  22974336.668 6
 121885042.496 5  22873877.801 5     -4485.746 5         0.000 0         0.000 0
         0.000 0         0.000 0
 104609354.783 4  19589973.906 4     -1278.943 4  81362858.671 5         0.000 0
      -995.119 5  19589982.070 5
 112250953.966 6  21057992.512 6      2798.549 6  87306351.117 8         0.000 0
      2176.184 8  21058006.121 8
 114416279.428 6  21434023.461 6     -3189.939 6  88990470.852 8         0.000 0
     -2480.678 8  21434032.773 8
 103361349.554 8  19322313.383 8       323.121 8  80392188.214 6         0.000 0
       251.395 6  19322321.121 6
 116721650.885 4  21827534.148 4      3073.926 4  90783547.815 4         0.000 0
      2389.531 4  21827543.031 4
 18  5 22 19 59 56.0000000  0 19G 1G 3G 7G 8G11G17G18G19G22G24G28G30
                                R 7R12R13R14R22R23R24
 108044385.899 9  20560163.832 9     -1247.262 9  84190456.64349  20560170.11349
      -971.91049         0.000 0
 122560662.786 6  23322515.609 6      2953.250 6  95501836.33647  23322523.55147
      2301.31647         0.000 0
 130871985.005 5  24904111.625 5     -3778.262 5 101978181.23843  24904117.39143
     -2944.15843         0.000 0
 128311754.835 6  24416917.398 6     -3096.541 6  99983208.55546  24416925.52746
     -2412.80946         0.000 0
 110710178.602 7  21067447.734 7     -2164.998 7  86267684.09649  21067450.38349
     -1686.79349         0.000 0
 115748712.599 7  22026247.176 7      2037.975 7  90193817.64749  22026250.94149
      1588.17249         0.000 0
 114283347.940 7  21747398.512 7     -2801.775 7  89051973.62148  21747403.17648
     -2183.10248         0.000 0
 123195075.390 5  23443242.266 5      3159.598 5  95996171.23346  23443243.45346
      2462.02046         0.000 0
 120373326.884 6  22906282.242 6      1430.416 6  93797406.88047  22906284.05947
      1114.67647         0.000 0
 132530362.411 1  25219689.840 1      2562.234 1 103270445.32043  25219698.95343
      1996.60943         0.000 0
 107465262.767 7  20449960.445 7       150.902 7  83739176.16848  20449962.28948
       117.60448         0.000 0
 121987456.289 6  23213442.789 6     -3357.459 6  95055180.36147  23213449.54347
     -2616.30547         0.000 0
 122980980.036 6  22973879.383 6      2410.936 6  95651922.842 6         0.000 0
      1874.496 6  22973887.977 6
 121889528.813 5  22874718.770 5     -4486.016 5         0.000 0         0.000 0
         0.000 0         0.000 0
 104610634.400 5  19590212.586 5     -1279.352 5  81363853.910 6         0.000 0
      -995.203 6  19590220.176 6
 112248156.010 6  21057467.621 6      2798.199 6  87304174.890 8         0.000 0
      2175.609 8  21057480.941 8
 114419468.751 6  21434622.223 6     -3188.863 6  88992951.454 8         0.000 0
     -2479.727 8  21434632.109 8
 103361026.800 8  19322251.992 8       323.164 8  80391937.189 6         0.000 0
       251.584 6  19322261.445 6
 116718578.126 3  21826961.133 3      3072.836 3  90781157.857 4         0.000 0
      2389.584 4  21826972.305 4
 18  5 22 19 59 57.0000000  0 19G 1G 3G 7G 8G11G17G18G19G22G24G28G30
                                R 7R12R13R14R22R23R24
 108045634.024 9  20560401.508 9     -1248.986 9  84191429.22149  20560407.79349
      -973.22949         0.000 0
 122557709.671 6  23321954.547 6      2952.854 6  95499535.20747  23321961.45747
      2300.93447         0.000 0
 130875762.121 5  24904830.660 5     -3776.783 5 101981124.43644  24904836.09844
     -2943.13344         0.000 0
 128314851.936 6  24417507.512 6     -3097.836 6  99985621.89646  24417513.80946
     -2413.97346         0.000 0
 110712344.018 7  21067859.695 7     -2165.863 7  86269371.47749  21067863.11749
     -1687.78149         0.000 0
 115746674.176 7  22025859.828 7      2038.203 7  90192229.24048  22025863.13348
      1588.04348         0.000 0
 114286150.981 7  21747932.246 7     -2804.125 7  89054157.80948  21747935.98048
     -2185.04748         0.000 0
 123191915.711 5  23442639.992 5      3159.924 5  95993709.17046  23442641.56646
      2462.26446         0.000 0
 120371897.449 6  22906010.371 6      1428.320 6  93796293.03847  22906012.87547
      1113.16047         0.000 0
 132527801.302 2  25219202.328 2      2561.406 2 103268449.69743  25219211.85543
      1995.64143         0.000 0
 107465112.175 7  20449930.969 7       149.510 7  83739058.81948  20449933.30148
       116.45948         0.000 0
 121990812.979 6  23214081.840 6     -3356.334 6  95057795.96847  23214088.32047
     -2615.39847         0.000 0
 122978570.326 6  22973431.211 6      2408.451 6  95650048.621 6         0.000 0
      1873.549 6  22973438.660 6
 121894014.677 5  22875558.395 5     -4486.059 5         0.000 0         0.000 0
         0.000 0         0.000 0
 104611914.298 5  19590452.785 5     -1280.273 5  81364849.385 5         0.000 0
      -995.682 5  19590458.371 5
 112245358.723 6  21056943.965 6      2797.414 6  87301999.231 8         0.000 0
      2175.600 8  21056956.141 8
 114422658.436 6  21435218.645 6     -3189.824 6  88995432.375 8         0.000 0
     -2481.592 8  21435227.953 8
 103360704.260 8  19322192.121 8       321.967 8  80391686.335 6         0.000 0
       250.402 6  19322201.863 6
 116715505.281 4  21826384.051 4      3073.457 4  90778767.831 4         0.000 0
      2390.082 4  21826402.242 4
 18  5 22 19 59 58.0000000  0 19G 1G 3G 7G 8G11G17G18G19G22G24G28G30
                                R 7R12R13R14R22R23R24
 108046882.849 9  20560638.984 9     -1248.680 9  84192402.32049  20560645.05149
      -973.04149         0.000 0
 122554756.762 6  23321392.281 6      2953.277 6  95497234.25247  23321400.50847
      2301.14147         0.000 0
 130879539.472 4  24905548.781 4     -3777.490 4 101984067.81544  24905554.44944
     -2943.35544         0.000 0
 128317948.387 6  24418096.707 6     -3095.264 6  99988034.70246  24418102.27346
     -2411.98846         0.000 0
 110714509.773 7  21068272.172 7     -2165.127 7  86271059.05749  21068274.26249
     -1687.14549         0.000 0
 115744636.563 7  22025472.133 7      2037.438 7  90190641.49048  22025474.80948
      1587.70348         0.000 0
 114288954.014 7  21748465.922 7     -2801.494 7  89056341.98648  21748470.19948
     -2182.98448         0.000 0
 123188756.710 5  23442039.520 5      3158.844 5  95991247.60946  23442040.96546
      2461.47346         0.000 0
 120370468.226 6  22905738.152 6      1430.150 6  93795179.36747  22905740.08247
      1114.36347         0.000 0
 132525240.210 2  25218715.898 2      2561.012 2 103266454.08543  25218723.78543
      1995.51643         0.000 0
 107464962.504 6  20449902.723 6       149.350 6  83738942.18848  20449905.78548
       116.15848         0.000 0
 121994170.488 6  23214721.402 6     -3357.373 6  95060412.19547  23214727.05547
     -2616.03147         0.000 0
 122976160.497 6  22972979.258 6      2410.344 6  95648174.302 6         0.000 0
      1875.125 6  22972987.707 6
 121898501.039 5  22876398.250 5     -4486.939 5         0.000 0         0.000 0
         0.000 0         0.000 0
 104613195.756 5  19590690.781 5     -1281.721 5  81365846.106 5         0.000 0
      -997.680 5  19590700.234 5
 112242562.227 6  21056419.395 6      2796.221 6  87299824.192 8         0.000 0
      2174.207 8  21056431.855 8
 114425847.852 7  21435816.152 7     -3188.068 7  88997912.997 8         0.000 0
     -2479.938 8  21435825.746 8
 103360382.757 8  19322132.195 8       321.146 8  80391436.295 6         0.000 0
       249.029 6  19322142.938 6
 116712433.359 4  21825810.066 4      3071.600 4  90776378.567 3         0.000 0
      2388.143 3  21825827.254 3
 18  5 22 19 59 59.0000000  0 19G 1G 3G 7G 8G11G17G18G19G22G24G28G30
                                R 7R12R13R14R22R23R24
 108048131.639 9  20560876.875 9     -1249.396 9  84193375.40049  20560883.15649
      -973.38749         0.000 0
 122551804.005 6  23320829.715 6      2952.109 6  95494933.39647  23320837.64547
      2300.40447         0.000 0
 130883317.119 5  24906267.605 5     -3777.504 5 101987011.43343  24906272.59843
     -2943.46543         0.000 0
 128321044.748 6  24418685.602 6     -3097.035 6  99990447.44046  24418691.74246
     -2413.07446         0.000 0
 110716675.380 7  21068684.348 7     -2166.254 7  86272746.55549  21068686.55549
     -1687.99649         0.000 0
 115742598.896 8  22025084.711 8      2037.871 8  90189053.72648  22025087.21948
      1587.86548         0.000 0
 114291757.020 6  21748998.723 6     -2804.301 6  89058526.12148  21749004.63348
     -2185.08648         0.000 0
 123185597.936 5  23441437.891 5      3158.555 5  95988786.23046  23441439.86346
      2461.22546         0.000 0
 120369039.193 6  22905467.063 6      1428.203 6  93794065.85447  22905467.43447
      1112.78747         0.000 0
 132522679.512 1  25218228.457 1      2559.883 1 103264458.77143  25218236.54343
      1994.52543         0.000 0
 107464812.691 7  20449874.176 7       149.412 7  83738825.43849  20449876.86749
       116.51849         0.000 0
 121997528.342 6  23215359.523 6     -3357.543 6  95063028.71647  23215365.77347
     -2616.33647         0.000 0
 122973751.100 6  22972530.148 6      2407.979 6  95646300.297 6         0.000 0
      1872.670 6  22972541.320 6
 121902987.700 5  22877240.379 5     -4486.410 5         0.000 0         0.000 0
         0.000 0         0.000 0
 104614477.637 5  19590931.332 5     -1281.764 5  81366843.103 5         0.000 0
      -997.299 5  19590939.211 5
 112239765.995 6  21055893.801 6      2796.066 6  87297649.341 8         0.000 0
      2174.656 8  21055906.117 8
 114429036.993 6  21436415.500 6     -3189.465 6  89000393.443 8         0.000 0
     -2481.523 8  21436423.520 8
 103360061.197 8  19322073.105 8       321.287 8  80391186.187 6         0.000 0
       250.238 6  19322081.844 6
 116709361.811 4  21825236.488 4      3071.832 4  90773989.553 3         0.000 0
      2389.904 3  21825250.953 3
 18  5 22 20  0  0.0000000  0 19G 1G 3G 7G 8G11G17G18G19G22G24G28G30
                                R 7R12R13R14R22R23R24
 108049381.549 9  20561114.070 9     -1249.480 9  84194349.34949  20561120.99649
      -973.84449         0.000 0
 122548851.797 6  23320268.027 6      2952.357 6  95492632.95747  23320274.69547
      2300.63147         0.000 0
 130887094.910 5  24906986.879 5     -3777.959 5 101989955.15243  24906991.28543
     -2943.82643         0.000 0
 128324141.007 6  24419274.805 6     -3095.146 6  99992860.09746  24419281.38746
     -2411.85446         0.000 0
 110718841.788 7  21069095.832 7     -2165.926 7  86274434.62849  21069099.00849
     -1687.75049         0.000 0
 115740562.001 7  22024696.738 7      2036.244 7  90187466.54349  22024699.34449
      1586.64649         0.000 0
 114294560.578 7  21749532.406 7     -2803.564 7  89060710.72648  21749537.34048
     -2184.60748         0.000 0
 123182439.617 5  23440836.566 5      3157.338 5  95986325.17846  23440839.65646
      2460.37746         0.000 0
 120367610.896 6  22905194.852 6      1428.256 6  93792952.87647  22905195.84047
      1112.95347         0.000 0
 132520118.889 2  25217741.180 2      2561.400 2 103262463.46643  25217749.33643
      1995.76843         0.000 0
 107464664.085 7  20449846.793 7       148.488 7  83738709.64548  20449848.35248
       115.72748         0.000 0
 122000886.881 6  23215998.234 6     -3359.326 6  95065645.76947  23216005.11747
     -2617.73247         0.000 0
 122971342.118 6  22972081.211 6      2409.223 6  95644426.674 6         0.000 0
      1873.910 6  22972090.234 6
 121907474.948 5  22878077.949 5     -4487.764 5         0.000 0         0.000 0
         0.000 0         0.000 0
 104615761.182 5  19591173.344 5     -1284.289 5  81367841.416 5         0.000 0
      -998.910 5  19591183.227 5
 112236970.723 6  21055368.520 6      2794.986 6  87295475.227 8         0.000 0
      2173.848 8  21055383.699 8
 114432226.409 7  21437011.438 7     -3188.709 7  89002874.052 8         0.000 0
     -2480.223 8  21437020.891 8
 103359740.901 8  19322012.184 8       319.896 8  80390937.046 6         0.000 0
       249.469 6  19322022.781 6
 116706291.051 3  21824662.652 3      3070.186 3  90771601.214 4         0.000 0
      2388.139 4  21824679.410 4
 18  5 22 20  0  1.0000000  0 19G 1G 3G 7G 8G11G17G18G19G22G24G28G30
                                R 7R12R13R14R22R23R24
 108050631.003 9  20561352.199 9     -1249.672 9  84195322.94749  20561358.22349
      -973.71549         0.000 0
 122545899.574 6  23319706.559 6      2952.539 6  95490332.53047  23319713.45747
      2300.68247         0.000 0
 130890873.410 5  24907705.938 5     -3778.070 5 101992899.42643  24907711.37543
     -2943.83243         0.000 0
 128327236.634 6  24419864.223 6     -3095.746 6  99995272.27046  24419871.26246
     -2412.34846         0.000 0
 110721007.567 7  21069508.531 7     -2166.020 7  86276122.23949  21069510.98049
     -1687.56349         0.000 0
 115738525.186 8  22024309.270 8      2037.090 8  90185879.42249  22024311.60249
      1587.51849         0.000 0
 114297363.489 6  21750065.590 6     -2803.266 6  89062894.81148  21750069.88348
     -2184.45748         0.000 0
 123179281.812 5  23440236.320 5      3158.223 5  95983864.56246  23440237.80946
      2460.97546         0.000 0
 120366182.374 6  22904923.145 6      1428.396 6  93791839.74047  22904924.44547
      1113.26047         0.000 0
 132517558.676 2  25217254.117 2      2560.137 2 103260468.48343  25217262.71943
      1995.01843         0.000 0
 107464515.112 7  20449818.199 7       149.256 7  83738593.53649  20449820.07449
       116.42449         0.000 0
 122004246.099 6  23216638.020 6     -3358.813 6  95068263.36347  23216643.81647
     -2617.17247         0.000 0
 122968933.005 6  22971629.910 6      2409.361 6  95642552.882 6         0.000 0
      1873.588 6  22971638.789 6
 121911962.766 5  22878920.320 5     -4487.215 5         0.000 0         0.000 0
         0.000 0         0.000 0
 104617045.180 5  19591411.566 5     -1283.955 5  81368840.080 6         0.000 0
      -999.447 6  19591420.301 6
 112234175.629 6  21054845.031 6      2794.695 6  87293301.230 8         0.000 0
      2173.545 8  21054859.066 8
 114435414.932 6  21437606.590 6     -3188.590 6  89005354.010 8         0.000 0
     -2480.311 8  21437618.336 8
 103359420.392 8  19321953.051 8       320.092 8  80390687.753 6         0.000 0
       249.557 6  19321962.219 6
 116703220.967 3  21824090.895 3      3069.582 3  90769213.410 4         0.000 0
      2387.973 4  21824103.641 4
 18  5 22 20  0  2.0000000  0 19G 1G 3G 7G 8G11G17G18G19G22G24G28G30
                                R 7R12R13R14R22R23R24
 108051882.141 9  20561590.137 9     -1251.816 9  84196297.86349  20561596.70749
      -975.20949         0.000 0
 122542948.003 6  23319145.332 6      2950.746 6  95488032.60447  23319152.47347
      2299.20747         0.000 0
 130894651.695 5  24908425.383 5     -3779.688 5 101995843.50243  24908430.44543
     -2945.25043         0.000 0
 128330332.750 6  24420453.023 6     -3096.582 6  99997684.81646  24420460.77746
     -2412.94346         0.000 0
 110723174.741 7  21069921.043 7     -2167.461 7  86277810.93949  21069923.23449
     -1689.07649         0.000 0
 115736489.307 8  22023921.754 8      2034.865 8  90184293.00049  22023924.73049
      1585.65249         0.000 0
 114300167.711 7  21750599.586 7     -2803.535 7  89065079.89648  21750603.50848
     -2184.56448         0.000 0
 123176124.595 5  23439635.883 5      3155.512 5  95981404.41246  23439638.11746
      2458.81646         0.000 0
 120364754.972 6  22904650.961 6      1426.896 6  93790727.50547  22904652.80547
      1111.94147         0.000 0
 132514999.195 2  25216767.438 2      2559.242 2 103258474.02542  25216775.89542
      1994.10942         0.000 0
 107464367.688 7  20449790.273 7       146.369 7  83738478.67149  20449792.37949
       114.12749         0.000 0
 122007605.755 6  23217277.477 6     -3361.270 6  95070881.26047  23217283.02747
     -2619.03747         0.000 0
 122966525.054 5  22971178.707 5      2407.373 5  95640680.016 6         0.000 0
      1873.014 6  22971188.449 6
 121916450.827 5  22879760.781 5     -4489.494 5         0.000 0         0.000 0
         0.000 0         0.000 0
 104618330.932 5  19591654.176 5     -1286.842 5  81369840.136 5         0.000 0
     -1001.350 5  19591660.195 5
 112231382.010 6  21054320.492 6      2792.689 6  87291128.438 8         0.000 0
      2171.953 8  21054335.531 8
 114438604.461 6  21438205.137 6     -3189.113 6  89007834.785 8         0.000 0
     -2480.711 8  21438215.734 8
 103359101.481 8  19321894.020 8       317.676 8  80390439.699 6         0.000 0
       247.535 6  19321901.324 6
 116700151.574 2  21823514.648 2      3068.531 2  90766826.095 4         0.000 0
      2386.479 4  21823527.969 4
 18  5 22 20  0  3.0000000  0 19G 1G 3G 7G 8G11G17G18G19G22G24G28G30
                                R 7R12R13R14R22R23R24
 108053132.928 8  20561828.066 8     -1251.586 8  84197272.48249  20561834.62149
      -975.28149         0.000 0
 122539996.542 6  23318583.516 6      2951.484 6  95485732.76347  23318590.17247
      2299.76247         0.000 0
 130898430.611 5  24909144.098 5     -3778.426 5 101998788.11143  24909148.92243
     -2944.17043         0.000 0
 128333427.955 6  24421041.383 6     -3095.221 6 100000096.66746  24421050.28546
     -2412.00246         0.000 0
 110725341.298 7  21070332.828 7     -2167.232 7  86279499.18349  21070335.64549
     -1688.68049         0.000 0
 115734453.415 8  22023535.371 8      2034.842 8  90182706.60349  22023537.64849
      1585.71949         0.000 0
 114302971.188 7  21751132.855 7     -2803.990 7  89067264.43848  21751137.52048
     -2184.98848         0.000 0
 123172967.594 5  23439035.148 5      3156.113 5  95978944.40846  23439037.09446
      2459.35246         0.000 0
 120363327.426 6  22904379.766 6      1426.971 6  93789615.11447  22904380.75447
      1111.83047         0.000 0
 132512439.231 2  25216279.891 2      2559.551 2 103256479.28742  25216287.05942
      1994.56642         0.000 0
 107464220.147 7  20449762.191 7       146.500 7  83738363.70948  20449764.52748
       114.33048         0.000 0
 122010966.194 6  23217917.063 6     -3360.748 6  95073499.79247  23217922.52747
     -2618.74047         0.000 0
 122964116.660 6  22970727.637 6      2407.223 6  95638806.827 6         0.000 0
      1873.492 6  22970738.664 6
 121920939.610 6  22880598.512 6     -4488.461 6         0.000 0         0.000 0
         0.000 0         0.000 0
 104619617.357 5  19591892.910 5     -1287.225 5  81370840.632 6         0.000 0
     -1000.994 6  19591903.797 6
 112228588.168 6  21053796.230 6      2792.629 6  87288955.473 8         0.000 0
      2171.637 8  21053809.121 8
 114441792.912 6  21438803.523 6     -3188.416 6  89010314.682 8         0.000 0
     -2480.186 8  21438813.266 8
 103358782.449 8  19321833.684 8       318.023 8  80390191.605 6         0.000 0
       247.025 6  19321842.277 6
 116697082.760 3  21822942.402 3      3068.223 3  90764439.224 4         0.000 0
      2386.529 4  21822954.434 4
 18  5 22 20  0  4.0000000  0 19G 1G 3G 7G 8G11G17G18G19G22G24G28G30
                                R 7R12R13R14R22R23R24
 108054384.552 9  20562066.434 9     -1252.367 9  84198247.75849  20562073.38749
      -975.88749         0.000 0
 122537045.599 6  23318021.715 6      2950.977 6  95483433.33247  23318028.05147
      2299.50847         0.000 0
 130902209.234 5  24909862.824 5     -3778.055 5 102001732.52143  24909868.48843
     -2944.05343         0.000 0
 128336523.856 6  24421630.609 6     -3095.689 6 100002509.04046  24421639.02346
     -2412.11746         0.000 0
 110727508.644 8  21070745.766 8     -2167.896 8  86281188.02149  21070748.38349
     -1689.16849         0.000 0
 115732417.417 7  22023147.141 7      2035.545 7  90181120.11949  22023150.05949
      1586.14849         0.000 0
 114305775.558 6  21751666.707 6     -2804.732 6  89069449.62348  21751669.38348
     -2185.41848         0.000 0
 123169810.356 5  23438434.281 5      3156.309 5  95976484.21446  23438436.58646
      2459.43046         0.000 0
 120361900.737 6  22904108.012 6      1426.326 6  93788503.41147  22904109.64147
      1111.38147         0.000 0
 132509879.910 2  25215793.066 2      2559.297 2 103254485.06342  25215800.19142
      1994.17642         0.000 0
 107464072.951 7  20449734.266 7       146.385 7  83738248.99748  20449735.56648
       114.03748         0.000 0
 122014326.418 6  23218556.945 6     -3360.592 6  95076118.14447  23218562.60947
     -2618.62347         0.000 0
 122961709.543 6  22970278.867 6      2406.930 6  95636934.669 7         0.000 0
      1870.738 7  22970289.035 7
 121925428.379 5  22881438.543 5     -4488.791 5         0.000 0         0.000 0
         0.000 0         0.000 0
 104620904.350 5  19592136.813 5     -1287.205 5  81371841.683 6         0.000 0
     -1001.951 6  19592148.125 6
 112225794.960 6  21053271.836 6      2792.475 6  87286782.944 8         0.000 0
      2172.242 8  21053285.441 8
 114444982.066 6  21439401.352 6     -3189.041 6  89012795.097 8         0.000 0
     -2480.361 8  21439412.523 8
 103358463.788 8  19321773.215 8       318.492 8  80389943.771 6         0.000 0
       246.889 6  19321781.953 6
 116694013.822 2  21822367.305 2      3068.652 2  90762052.269 4         0.000 0
      2386.178 4  21822374.609 4
 18  5 22 20  0  5.0000000  0 19G 1G 3G 7G 8G11G17G18G19G22G24G28G30
                                R 7R12R13R14R22R23R24
 108055636.741 9  20562304.809 9     -1252.742 9  84199223.51549  20562310.77349
      -975.82649         0.000 0
 122534094.902 6  23317460.633 6      2950.328 6  95481134.08047  23317467.11747
      2299.10047         0.000 0
 130905987.976 5  24910581.988 5     -3778.701 5 102004676.98543  24910588.31343
     -2944.59843         0.000 0
 128339619.539 6  24422220.703 6     -3096.104 6 100004921.24946  24422228.34846
     -2412.46746         0.000 0
 110729676.354 7  21071158.141 7     -2167.820 7  86282877.15549  21071161.10249
     -1689.24449         0.000 0
 115730381.951 8  22022759.488 8      2034.859 8  90179534.03349  22022762.30549
      1585.70149         0.000 0
 114308580.176 7  21752200.277 7     -2804.717 7  89071635.05548  21752204.41448
     -2185.27948         0.000 0
 123166653.646 5  23437833.852 5      3155.426 5  95974024.45646  23437835.71146
      2458.84646         0.000 0
 120360474.471 6  22903836.691 6      1425.641 6  93787392.04847  22903838.07847
      1110.99247         0.000 0
 132507320.996 2  25215305.105 2      2557.984 2 103252491.10342  25215314.27742
      1993.26042         0.000 0
 107463926.344 7  20449706.633 7       146.107 7  83738134.77648  20449708.34848
       113.84448         0.000 0
 122017687.177 6  23219196.121 6     -3361.436 6  95078736.90147  23219202.07447
     -2619.38347         0.000 0
 122959302.786 6  22969830.250 6      2406.223 6  95635062.714 6         0.000 0
      1871.402 6  22969837.840 6
 121929917.499 6  22882278.871 6     -4490.299 6         0.000 0         0.000 0
         0.000 0         0.000 0
 104622192.518 5  19592376.137 5     -1288.986 5  81372843.543 6         0.000 0
     -1001.910 6  19592386.449 6
 112223002.562 6  21052747.305 6      2791.768 6  87284611.071 8         0.000 0
      2171.756 8  21052762.914 8
 114448171.192 6  21439996.605 6     -3189.162 6  89015275.546 8         0.000 0
     -2480.730 8  21440008.352 8
 103358145.927 8  19321714.477 8       317.180 8  80389696.490 6         0.000 0
       247.711 6  19321721.063 6
 116690945.521 3  21821796.652 3      3068.143 3  90759665.842 4         0.000 0
      2385.789 4  21821800.949 4
 18  5 22 20  0  6.0000000  0 19G 1G 3G 7G 8G11G17G18G19G22G24G28G30
                                R 7R12R13R14R22R23R24
 108056889.719 9  20562543.723 9     -1252.746 9  84200199.85249  20562549.54349
      -976.02749         0.000 0
 122531144.525 6  23316898.090 6      2950.227 6  95478835.08947  23316905.16047
      2299.01647         0.000 0
 130909766.589 5  24911301.547 5     -3779.156 5 102007621.32743  24911307.58643
     -2944.77943         0.000 0
 128342715.389 6  24422809.051 6     -3096.127 6 100007333.61146  24422817.99246
     -2412.64846         0.000 0
 110731844.698 7  21071570.910 7     -2168.510 7  86284566.77949  21071573.67249
     -1689.81649         0.000 0
 115728346.773 8  22022372.375 8      2035.205 8  90177948.18049  22022375.12149
      1585.89149         0.000 0
 114311385.428 6  21752734.250 6     -2804.994 6  89073820.96348  21752739.05548
     -2185.75448         0.000 0
 123163497.089 5  23437231.957 5      3156.965 5  95971564.76046  23437234.57446
      2459.99246         0.000 0
 120359048.780 6  22903565.340 6      1425.615 6  93786281.10947  22903567.38747
      1110.85047         0.000 0
 132504762.707 2  25214818.258 2      2558.156 2 103250497.60542  25214827.37542
      1993.56642         0.000 0
 107463780.352 7  20449678.395 7       146.199 7  83738021.02749  20449679.93849
       113.81849         0.000 0
 122021048.115 6  23219835.547 6     -3361.264 6  95081355.82747  23219841.64547
     -2619.29147         0.000 0
 122956896.765 6  22969380.594 6      2406.297 6  95633191.398 6         0.000 0
      1870.461 6  22969389.047 6
 121934406.741 6  22883120.164 6     -4489.307 6         0.000 0         0.000 0
         0.000 0         0.000 0
 104623481.690 5  19592615.715 5     -1289.361 5  81373846.270 6         0.000 0
     -1003.105 6  19592624.883 6
 112220211.004 6  21052224.457 6      2791.139 6  87282439.852 8         0.000 0
      2171.242 8  21052238.926 8
 114451360.693 6  21440595.410 6     -3188.932 6  89017756.278 8         0.000 0
     -2480.422 8  21440604.578 8
 103357828.751 8  19321654.844 8       317.041 8  80389449.851 6         0.000 0
       246.338 6  19321663.578 6
 116687877.621 3  21821220.809 3      3067.572 3  90757279.719 4         0.000 0
      2385.061 4  21821230.980 4
 18  5 22 20  0  7.0000000  0 19G 1G 3G 7G 8G11G17G18G19G22G24G28G30
                                R 7R12R13R14R22R23R24
 108058143.254 9  20562781.902 9     -1253.764 9  84201176.63949  20562788.12549
      -976.85249         0.000 0
 122528194.477 6  23316336.961 6      2950.322 6  95476536.34847  23316344.01247
      2299.02947         0.000 0
 130913545.300 5  24912020.230 5     -3778.551 5 102010565.80643  24912026.07043
     -2944.45143         0.000 0
 128345811.098 6  24423398.090 6     -3096.283 6 100009745.83546  24423406.36346
     -2412.67246         0.000 0
 110734013.363 7  21071983.664 7     -2169.369 7  86286256.64249  21071986.39849
     -1690.40649         0.000 0
 115726311.871 8  22021985.098 8      2034.266 8  90176362.55249  22021987.93449
      1585.18249         0.000 0
 114314190.948 6  21753268.344 6     -2806.225 6  89076007.07548  21753272.50848
     -2186.57848         0.000 0
 123160340.723 5  23436632.477 5      3155.615 5  95969105.30946  23436633.87946
      2458.77546         0.000 0
 120357623.581 6  22903294.398 6      1424.734 6  93785170.58047  22903296.14547
      1110.16247         0.000 0
 132502204.456 2  25214331.820 2      2557.313 2 103248504.13343  25214340.20743
      1992.74043         0.000 0
 107463634.890 7  20449650.566 7       144.852 7  83737907.65149  20449652.88349
       112.79749         0.000 0
 122024409.452 6  23220475.246 6     -3361.479 6  95083975.03147  23220481.38347
     -2619.17847         0.000 0
 122954491.179 6  22968930.918 6      2404.979 6  95631320.365 7         0.000 0
      1870.648 7  22968939.512 7
 121938896.360 6  22883961.867 6     -4489.838 6         0.000 0         0.000 0
         0.000 0         0.000 0
 104624771.852 5  19592858.563 5     -1290.623 5  81374849.676 6         0.000 0
     -1003.520 6  19592867.156 6
 112217419.911 6  21051702.020 6      2790.352 6  87280268.995 8         0.000 0
      2170.781 8  21051714.195 8
 114454550.189 6  21441193.617 6     -3190.043 6  89020236.973 8         0.000 0
     -2481.063 8  21441203.215 8
 103357512.120 8  19321595.902 8       315.984 8  80389203.570 6         0.000 0
       245.934 6  19321605.211 6
 116684810.115 3  21820648.672 3      3066.938 3  90754893.813 4         0.000 0
      2385.561 4  21820654.258 4
 18  5 22 20  0  8.0000000  0 19G 1G 3G 7G 8G11G17G18G19G22G24G28G30
                                R 7R12R13R14R22R23R24
 108059397.090 9  20563020.672 9     -1254.436 9  84202153.66949  20563027.21149
      -977.58849         0.000 0
 122525244.607 6  23315775.988 6      2949.924 6  95474237.75447  23315782.97347
      2298.58647         0.000 0
 130917323.991 5  24912739.504 5     -3778.947 5 102013510.28643  24912744.22743
     -2944.62143         0.000 0
 128348906.805 6  24423987.723 6     -3095.998 6 100012158.07446  24423994.10546
     -2412.60946         0.000 0
 110736182.242 7  21072396.004 7     -2169.631 7  86287946.65749  21072398.92249
     -1690.52049         0.000 0
 115724276.970 8  22021598.129 8      2034.492 8  90174776.90649  22021601.16049
      1585.22549         0.000 0
 114316996.697 6  21753801.598 6     -2806.213 6  89078193.36847  21753806.53147
     -2186.57447         0.000 0
 123157184.457 5  23436031.871 5      3156.115 5  95966645.86846  23436033.50046
      2459.28946         0.000 0
 120356198.722 6  22903022.902 6      1423.633 6  93784060.28847  22903024.34847
      1109.34647         0.000 0
 132499646.750 2  25213845.543 2      2558.010 2 103246511.13543  25213853.07043
      1993.07843         0.000 0
 107463489.527 7  20449623.184 7       144.727 7  83737794.40549  20449624.44549
       112.70549         0.000 0
 122027770.907 6  23221115.102 6     -3362.131 6  95086594.34847  23221120.32447
     -2619.62147         0.000 0
 122952086.175 6  22968482.980 6      2404.504 6  95629449.817 6         0.000 0
      1869.893 6  22968493.008 6
 121943386.093 5  22884801.301 5     -4489.826 5         0.000 0         0.000 0
         0.000 0         0.000 0
 104626062.572 5  19593101.148 5     -1290.980 5  81375853.595 6         0.000 0
     -1004.061 6  19593110.172 6
 112214629.330 6  21051176.164 6      2789.779 6  87278098.583 8         0.000 0
      2169.674 8  21051192.063 8
 114457739.731 6  21441792.137 6     -3190.088 6  89022717.726 8         0.000 0
     -2481.096 8  21441801.875 8
 103357195.735 8  19321535.980 8       315.938 8  80388957.486 6         0.000 0
       245.842 6  19321547.438 6
 116681742.813 3  21820074.691 3      3066.854 3  90752508.143 4         0.000 0
      2385.586 4  21820082.996 4
 18  5 22 20  0  9.0000000  0 19G 1G 3G 7G 8G11G17G18G19G22G24G28G30
                                R 7R12R13R14R22R23R24
 108060651.967 9  20563259.012 9     -1255.594 9  84203131.47449  20563265.16449
      -978.43849         0.000 0
 122522295.245 6  23315214.445 6      2948.004 6  95471939.55147  23315222.81647
      2297.07247         0.000 0
 130921102.685 5  24913458.773 5     -3779.326 5 102016454.73943  24913463.55543
     -2944.90443         0.000 0
 128352002.602 6  24424577.066 6     -3096.844 6 100014570.39446  24424583.70746
     -2413.04946         0.000 0
 110738351.888 7  21072808.344 7     -2170.262 7  86289637.28849  21072812.02049
     -1691.03549         0.000 0
 115722242.746 8  22021211.586 8      2033.842 8  90173191.79349  22021214.26249
      1584.70949         0.000 0
 114319803.117 6  21754335.707 6     -2806.785 6  89080380.22147  21754340.21547
     -2187.10947         0.000 0
 123154028.688 5  23435430.691 5      3156.207 5  95964186.81346  23435432.29346
      2459.37746         0.000 0
 120354774.555 6  22902751.980 6      1423.568 6  93782950.53847  22902753.82447
      1109.29947         0.000 0
 132497089.550 2  25213358.551 2      2557.084 2 103244518.50543  25213366.55143
      1992.54143         0.000 0
 107463345.125 7  20449595.660 7       144.115 7  83737681.89149  20449597.89549
       112.34449         0.000 0
 122031132.851 6  23221753.813 6     -3362.820 6  95089214.03947  23221760.68047
     -2620.43247         0.000 0
 122949681.855 6  22968033.184 6      2403.189 6  95627579.776 6         0.000 0
      1868.811 6  22968043.211 6
 121947876.221 5  22885641.020 5     -4490.984 5         0.000 0         0.000 0
         0.000 0         0.000 0
 104627354.729 5  19593343.734 5     -1292.822 5  81376858.583 5         0.000 0
     -1004.930 5  19593351.039 5
 112211839.789 6  21050653.461 6      2789.402 6  87275928.939 8         0.000 0
      2169.195 8  21050669.504 8
 114460929.633 6  21442389.648 6     -3190.719 6  89025198.771 8         0.000 0
     -2481.281 8  21442396.809 8
 103356880.456 8  19321478.207 8       315.170 8  80388712.264 6         0.000 0
       245.227 6  19321488.949 6
 116678676.195 2  21819500.996 2      3066.809 2  90750123.002 4         0.000 0
      2385.908 4  21819509.160 4
 18  5 22 20  0 10.0000000  0 19G 1G 3G 7G 8G11G17G18G19G22G24G28G30
                                R 7R12R13R14R22R23R24
 108061907.024 9  20563497.746 9     -1255.682 9  84204109.44549  20563504.12949
      -978.64849         0.000 0
 122519346.072 6  23314653.008 6      2949.811 6  95469641.49447  23314660.93447
      2298.42647         0.000 0
 130924881.550 5  24914177.727 5     -3778.088 5 102019399.28243  24914183.12143
     -2943.78743         0.000 0
 128355098.313 6  24425166.520 6     -3095.664 6 100016982.63246  24425173.73046
     -2412.14646         0.000 0
 110740521.570 8  21073221.648 8     -2170.547 8  86291327.94649  21073224.48449
     -1691.28549         0.000 0
 115720208.313 8  22020823.863 8      2034.574 8  90171606.53649  22020826.92649
      1585.41649         0.000 0
 114322609.569 7  21754869.926 7     -2807.285 7  89082567.06947  21754874.46147
     -2187.65447         0.000 0
 123150872.770 5  23434830.617 5      3157.232 5  95961727.65346  23434831.86346
      2460.41846         0.000 0
 120353350.772 6  22902480.590 6      1422.875 6  93781841.10347  22902482.18047
      1108.77547         0.000 0
 132494532.360 2  25212872.098 2      2556.664 2 103242525.87143  25212879.32043
      1992.17443         0.000 0
 107463200.762 7  20449567.957 7       143.908 7  83737569.37848  20449570.28948
       112.11548         0.000 0
 122034495.011 6  23222393.348 6     -3361.193 6  95091833.93547  23222400.23047
     -2619.04147         0.000 0
 122947277.942 6  22967582.348 6      2403.189 6  95625710.074 7         0.000 0
      1869.385 7  22967593.375 7
 121952366.621 5  22886482.992 5     -4489.975 5         0.000 0         0.000 0
         0.000 0         0.000 0
 104628647.366 5  19593585.852 5     -1292.859 5  81377863.957 6         0.000 0
     -1004.965 6  19593592.871 6
 112209050.367 6  21050132.297 6      2788.205 6  87273759.385 8         0.000 0
      2168.799 8  21050143.613 8
 114464119.319 6  21442986.410 6     -3190.244 6  89027679.638 8         0.000 0
     -2481.070 8  21442997.582 8
 103356565.214 8  19321418.109 8       314.791 8  80388467.098 6         0.000 0
       244.520 6  19321427.992 6
 116675609.666 2  21818927.266 2      3066.826 2  90747737.969 4         0.000 0
      2383.828 4  21818936.004 4
 18  5 22 20  0 11.0000000  0 19G 1G 3G 7G 8G11G17G18G19G22G24G28G30
                                R 7R12R13R14R22R23R24
 108063163.139 9  20563736.934 9     -1256.545 9  84205088.25149  20563743.05949
      -979.07649         0.000 0
 122516397.187 6  23314092.172 6      2947.775 6  95467343.66147  23314099.27047
      2297.02047         0.000 0
 130928659.401 5  24914896.129 5     -3778.404 5 102022343.00043  24914901.91043
     -2944.15643         0.000 0
 128358194.720 6  24425755.281 6     -3096.957 6 100019395.44246  24425762.41046
     -2413.08246         0.000 0
 110742692.320 7  21073635.125 7     -2170.883 7  86293019.46249  21073636.97349
     -1691.57849         0.000 0
 115718174.049 7  22020436.309 7      2034.570 7  90170021.37549  22020439.98849
      1585.32049         0.000 0
 114325417.345 6  21755404.027 6     -2808.168 6  89084754.93747  21755408.47747
     -2188.06347         0.000 0
 123147716.766 5  23434229.285 5      3155.959 5  95959268.44546  23434231.89146
      2459.24846         0.000 0
 120351927.789 6  22902210.375 6      1422.480 6  93780732.29047  22902211.85947
      1108.46547         0.000 0
 132491976.440 2  25212385.523 2      2556.037 2 103240534.31143  25212393.37943
      1991.45343         0.000 0
 107463056.917 7  20449540.281 7       144.119 7  83737457.32449  20449542.41449
       112.15449         0.000 0
 122037856.570 6  23223033.910 6     -3362.406 6  95094453.31847  23223040.30547
     -2620.03547         0.000 0
 122944875.448 6  22967135.402 6      2402.131 6  95623841.458 6         0.000 0
      1868.742 6  22967146.289 6
 121956856.433 5  22887322.988 5     -4490.682 5         0.000 0         0.000 0
         0.000 0         0.000 0
 104629940.674 5  19593827.570 5     -1293.449 5  81378869.873 5         0.000 0
     -1005.998 5  19593835.445 5
 112206262.097 6  21049608.438 6      2788.338 6  87271590.764 8         0.000 0
      2168.896 8  21049622.047 8
 114467310.162 6  21443582.770 6     -3190.814 6  89030161.396 8         0.000 0
     -2481.205 8  21443594.512 8
 103356250.773 8  19321358.750 8       313.928 8  80388222.497 6         0.000 0
       244.287 6  19321367.773 6
 116672542.989 3  21818352.418 3      3066.744 3  90745352.738 4         0.000 0
      2385.021 4  21818363.016 4
 18  5 22 20  0 12.0000000  0 19G 1G 3G 7G 8G11G17G18G19G22G24G28G30
                                R 7R12R13R14R22R23R24
 108064419.689 9  20563976.129 9     -1257.729 9  84206067.36249  20563982.23849
      -979.91649         0.000 0
 122513448.522 6  23313531.195 6      2948.252 6  95465046.01547  23313538.26647
      2297.37147         0.000 0
 130932437.377 5  24915615.398 5     -3777.926 5 102025286.89043  24915619.74643
     -2943.82443         0.000 0
 128361291.025 6  24426344.195 6     -3096.734 6 100021808.13746  24426351.84846
     -2413.19946         0.000 0
 110744863.327 8  21074048.320 8     -2172.201 8  86294711.15449  21074050.37949
     -1692.69149         0.000 0
 115716139.822 7  22020049.047 7      2032.178 7  90168436.27449  22020052.51249
      1583.44549         0.000 0
 114328225.247 7  21755938.852 7     -2808.883 7  89086942.90247  21755943.11347
     -2188.98047         0.000 0
 123144560.772 5  23433629.820 5      3154.580 5  95956809.21846  23433631.40646
      2458.17446         0.000 0
 120350505.264 6  22901939.160 6      1421.531 6  93779623.82547  22901940.97747
      1107.54747         0.000 0
 132489420.606 2  25211900.531 2      2554.717 2 103238542.73443  25211906.59843
      1990.77043         0.000 0
 107462913.396 7  20449513.754 7       142.410 7  83737345.47048  20449515.34048
       110.84648         0.000 0
 122041218.360 6  23223673.902 6     -3362.418 6  95097072.90547  23223679.93047
     -2620.21147         0.000 0
 122942473.358 6  22966689.469 6      2401.416 6  95621973.182 6         0.000 0
      1868.057 6  22966695.770 6
 121961346.523 5  22888160.984 5     -4490.146 5         0.000 0         0.000 0
         0.000 0         0.000 0
 104631234.758 5  19594070.004 5     -1295.922 5  81379876.403 6         0.000 0
     -1007.814 6  19594078.313 6
 112203474.193 6  21049086.016 6      2786.568 6  87269422.355 8         0.000 0
      2167.666 8  21049098.906 8
 114470500.908 6  21444180.563 6     -3191.725 6  89032643.109 8         0.000 0
     -2482.221 8  21444190.445 8
 103355936.596 8  19321300.543 8       312.510 8  80387978.126 6         0.000 0
       243.289 6  19321310.855 6
 116669476.527 3  21817781.012 3      3064.877 3  90742967.767 4         0.000 0
      2384.844 4  21817787.457 4
 18  5 22 20  0 13.0000000  0 19G 1G 3G 7G 8G11G17G18G19G22G24G28G30
                                R 7R12R13R14R22R23R24
 108065677.568 9  20564215.727 9     -1258.039 9  84207047.53749  20564221.62149
      -980.38549         0.000 0
 122510500.532 6  23312970.336 6      2947.260 6  95462748.87747  23312977.50447
      2296.45547         0.000 0
 130936215.329 5  24916334.211 5     -3778.666 5 102028230.76543  24916338.61743
     -2944.52743         0.000 0
 128364387.854 6  24426933.223 6     -3096.809 6 100024221.26146  24426940.64846
     -2412.90646         0.000 0
 110747035.496 7  21074461.203 7     -2172.395 7  86296403.74349  21074464.19149
     -1692.69149         0.000 0
 115714106.405 7  22019662.188 7      2033.234 7  90166851.79149  22019665.63749
      1584.38349         0.000 0
 114331034.310 7  21756472.789 7     -2808.957 7  89089131.79248  21756477.42648
     -2188.84448         0.000 0
 123141405.346 5  23433029.180 5      3154.740 5  95954350.46246  23433030.81346
      2458.29146         0.000 0
 120349083.715 6  22901668.488 6      1421.398 6  93778516.12047  22901670.55147
      1107.48847         0.000 0
 132486865.720 2  25211413.648 2      2554.738 2 103236551.90443  25211420.33243
      1990.67243         0.000 0
 107462771.035 7  20449485.480 7       142.373 7  83737234.53848  20449487.98848
       111.13948         0.000 0
 122044580.645 6  23224313.445 6     -3363.158 6  95099692.82047  23224319.29747
     -2620.64147         0.000 0
 122940072.499 6  22966239.207 6      2400.463 6  95620105.849 6         0.000 0
      1867.160 6  22966246.941 6
 121965836.993 5  22889004.254 5     -4491.801 5         0.000 0         0.000 0
         0.000 0         0.000 0
 104632530.374 5  19594309.551 5     -1296.543 5  81380884.108 5         0.000 0
     -1008.830 5  19594321.152 5
 112200687.656 6  21048563.141 6      2786.318 6  87267255.050 8         0.000 0
      2167.297 8  21048576.891 8
 114473692.561 7  21444781.340 7     -3191.602 7  89035125.494 8         0.000 0
     -2481.557 8  21444789.074 8
 103355623.754 8  19321242.313 8       312.436 8  80387734.833 6         0.000 0
       243.018 6  19321251.906 6
 116666410.891 3  21817207.285 3      3064.822 3  90740583.305 4         0.000 0
      2384.357 4  21817215.020 4
 18  5 22 20  0 14.0000000  0 19G 1G 3G 7G 8G11G17G18G19G22G24G28G30
                                R 7R12R13R14R22R23R24
 108066935.255 9  20564455.535 9     -1257.920 9  84208027.55749  20564461.10249
      -980.11549         0.000 0
 122507552.245 6  23312409.262 6      2948.684 6  95460451.53447  23312416.51647
      2297.66047         0.000 0
 130939992.405 6  24917052.949 6     -3775.520 6 102031173.94443  24917058.52743
     -2942.01043         0.000 0
 128367484.718 6  24427522.891 6     -3096.750 6 100026634.37846  24427530.35946
     -2413.10446         0.000 0
 110749207.493 7  21074875.012 7     -2171.691 7  86298096.21349  21074877.80149
     -1692.10749         0.000 0
 115712072.114 7  22019275.684 7      2034.035 7  90165266.62449  22019279.06349
      1585.12149         0.000 0
 114333843.494 7  21757007.652 7     -2809.504 7  89091320.80748  21757012.13348
     -2189.23648         0.000 0
 123138249.142 5  23432427.895 5      3156.242 5  95951891.09546  23432430.44146
      2459.37946         0.000 0
 120347662.258 6  22901398.461 6      1421.809 6  93777408.48847  22901399.89547
      1107.91447         0.000 0
 132484311.271 2  25210927.695 2      2553.625 2 103234561.43843  25210934.56643
      1989.84843         0.000 0
 107462627.935 7  20449458.566 7       143.818 7  83737123.04048  20449461.03148
       111.87948         0.000 0
 122047941.986 6  23224953.051 6     -3360.344 6  95102312.04847  23224959.76247
     -2618.47547         0.000 0
 122937672.276 6  22965789.871 6      2399.813 6  95618239.007 6         0.000 0
      1866.688 6  22965799.754 6
 121970326.716 5  22889844.434 5     -4488.326 5         0.000 0         0.000 0
         0.000 0         0.000 0
 104633825.488 5  19594552.313 5     -1294.969 5  81381891.407 6         0.000 0
     -1007.053 6  19594562.910 6
 112197901.045 6  21048039.895 6      2785.596 6  87265087.687 8         0.000 0
      2166.389 8  21048054.363 8
 114476884.175 6  21445376.883 6     -3191.576 6  89037607.855 8         0.000 0
     -2482.740 8  21445386.766 8
 103355310.323 8  19321184.715 8       312.869 8  80387491.033 6         0.000 0
       244.199 6  19321192.160 6
 116663344.439 4  21816631.477 4      3066.146 4  90738198.274 4         0.000 0
      2385.973 4  21816643.793 4
 18  5 22 20  0 15.0000000  0 19G 1G 3G 7G 8G11G17G18G19G22G24G28G30
                                R 7R12R13R14R22R23R24
 108068194.653 9  20564694.332 9     -1259.555 9  84209008.88049  20564700.84449
      -981.35549         0.000 0
 122504604.539 6  23311848.176 6      2947.771 6  95458154.62547  23311854.94147
      2296.96747         0.000 0
 130943769.134 4  24917771.531 4     -3776.139 4 102034116.82143  24917777.25843
     -2942.49043         0.000 0
 128370582.050 6  24428112.691 6     -3096.900 6 100029047.89746  24428119.64846
     -2413.25046         0.000 0
 110751380.995 7  21075288.238 7     -2173.793 7  86299789.85549  21075290.61349
     -1693.73849         0.000 0
 115710038.735 7  22018888.887 7      2033.631 7  90163682.18349  22018891.47749
      1584.66249         0.000 0
 114336654.044 7  21757542.652 7     -2810.729 7  89093510.81048  21757546.32848
     -2189.96948         0.000 0
 123135093.373 5  23431827.746 5      3155.916 5  95949432.03746  23431830.19146
      2459.13546         0.000 0
 120346241.920 6  22901127.996 6      1420.330 6  93776301.72447  22901129.46947
      1106.69347         0.000 0
 132481757.579 3  25210440.016 3      2552.400 3 103232571.58243  25210448.60243
      1988.74443         0.000 0
 107462486.404 6  20449432.215 6       141.656 6  83737012.74948  20449433.93448
       110.48048         0.000 0
 122051303.623 6  23225593.078 6     -3361.939 6  95104931.53447  23225599.09047
     -2619.77547         0.000 0
 122935273.187 6  22965339.957 6      2398.064 6  95616373.054 6         0.000 0
      1865.449 6  22965348.555 6
 121974816.580 5  22890684.324 5     -4489.781 5         0.000 0         0.000 0
         0.000 0         0.000 0
 104635122.397 5  19594798.648 5     -1297.051 5  81382900.110 6         0.000 0
     -1008.447 6  19594808.961 6
 112195115.978 6  21047517.938 6      2784.510 6  87262921.535 8         0.000 0
      2165.012 8  21047529.539 8
 114480076.877 7  21445976.141 7     -3192.838 7  89040091.072 8         0.000 0
     -2482.631 8  21445984.594 8
 103354998.583 8  19321125.250 8       311.354 8  80387248.565 6         0.000 0
       242.842 6  19321136.711 6
 116660278.600 3  21816057.523 3      3065.824 3  90735813.783 4         0.000 0
      2383.953 4  21816066.547 4
 18  5 22 20  0 16.0000000  0 19G 1G 3G 7G 8G11G17G18G19G22G24G28G30
                                R 7R12R13R14R22R23R24
 108069454.287 9  20564933.707 9     -1259.588 9  84209990.45649  20564940.44949
      -981.59849         0.000 0
 122501657.349 6  23311288.238 6      2946.939 6  95455858.10147  23311293.76247
      2296.33447         0.000 0
 130947545.968 5  24918490.551 5     -3776.387 5 102037059.76043  24918495.94543
     -2942.47943         0.000 0
 128373679.685 6  24428702.355 6     -3098.338 6 100031461.63846  24428709.35546
     -2414.25446         0.000 0
 110753554.693 7  21075701.469 7     -2174.061 7  86301483.68649  21075705.14549
     -1694.11749         0.000 0
 115708004.959 7  22018501.375 7      2034.945 7  90162097.39249  22018504.18049
      1585.61149         0.000 0
 114339464.891 6  21758077.367 6     -2811.248 6  89095701.09148  21758081.25848
     -2190.62148         0.000 0
 123131937.308 5  23431226.598 5      3156.471 5  95946972.77046  23431228.58646
      2459.67446         0.000 0
 120344822.160 6  22900857.820 6      1419.438 6  93775195.46347  22900860.18447
      1105.96347         0.000 0
 132479203.965 1  25209953.773 1      2552.525 1 103230581.73743  25209961.28543
      1988.97143         0.000 0
 107462344.753 7  20449405.582 7       142.211 7  83736902.38249  20449407.01649
       110.74649         0.000 0
 122054665.347 6  23226232.109 6     -3360.779 6  95107551.03147  23226239.33647
     -2618.76647         0.000 0
 122932874.893 6  22964894.922 6      2397.975 6  95614507.755 6         0.000 0
      1864.191 6  22964899.934 6
 121979306.755 5  22891527.082 5     -4490.066 5         0.000 0         0.000 0
         0.000 0         0.000 0
 104636419.621 5  19595040.266 5     -1296.535 5  81383909.039 5         0.000 0
     -1008.844 5  19595050.578 5
 112192330.923 6  21046995.555 6      2784.986 6  87260755.386 8         0.000 0
      2166.471 8  21047008.016 8
 114483269.620 6  21446574.262 6     -3193.670 6  89042574.289 8         0.000 0
     -2483.518 8  21446583.859 8
 103354686.736 8  19321068.227 8       312.436 8  80387006.064 6         0.000 0
       242.641 6  19321076.391 6
 116657212.645 4  21815484.434 4      3066.223 4  90733429.129 4         0.000 0
      2385.939 4  21815493.602 4
 18  5 22 20  0 17.0000000  0 19G 1G 3G 7G 8G11G17G18G19G22G24G28G30
                                R 7R12R13R14R22R23R24
 108070714.957 9  20565173.738 9     -1261.650 9  84210972.76049  20565179.94949
      -983.08049         0.000 0
 122498710.665 6  23310727.238 6      2946.480 6  95453561.98547  23310733.75047
      2295.81147         0.000 0
 130951322.298 5  24919209.512 5     -3776.457 5 102040002.37143  24919214.09043
     -2942.77043         0.000 0
 128376777.851 6  24429291.102 6     -3097.824 6 100033875.80746  24429299.17246
     -2413.82446         0.000 0
 110755729.313 8  21076115.355 8     -2175.479 8  86303178.17549  21076118.57449
     -1695.20949         0.000 0
 115705971.156 7  22018114.090 7      2032.494 7  90160512.63449  22018117.68049
      1583.73849         0.000 0
 114342276.677 7  21758612.594 7     -2812.373 7  89097892.11048  21758616.80148
     -2191.55948         0.000 0
 123128780.855 5  23430626.680 5      3155.230 5  95944513.20946  23430627.80946
      2458.58446         0.000 0
 120343403.355 6  22900588.871 6      1418.451 6  93774089.87847  22900589.87547
      1105.39847         0.000 0
 132476650.686 2  25209468.754 2      2552.963 2 103228592.18243  25209475.69543
      1989.32443         0.000 0
 107462203.734 6  20449378.746 6       139.680 6  83736792.48848  20449380.32048
       108.93248         0.000 0
 122058026.816 6  23226872.223 6     -3362.512 6  95110170.36347  23226877.78947
     -2620.19147         0.000 0
 122930477.750 6  22964444.379 6      2397.176 6  95612643.256 6         0.000 0
      1866.113 6  22964454.402 6
 121983796.822 5  22892366.773 5     -4490.363 5         0.000 0         0.000 0
         0.000 0         0.000 0
 104637717.602 5  19595282.105 5     -1299.695 5  81384918.634 5         0.000 0
     -1010.756 5  19595292.703 5
 112189546.563 6  21046473.395 6      2782.912 6  87258589.789 8         0.000 0
      2163.748 8  21046487.430 8
 114486463.038 7  21447172.750 7     -3193.877 7  89045058.132 8         0.000 0
     -2484.381 8  21447180.484 8
 103354375.550 8  19321010.715 8       309.305 8  80386764.022 6         0.000 0
       240.369 6  19321018.734 6
 116654146.529 4  21814911.000 4      3064.855 4  90731044.438 3         0.000 0
      2382.744 3  21814922.457 3
 18  5 22 20  0 18.0000000  0 19G 1G 3G 7G 8G11G17G18G19G22G24G28G30
                                R 7R12R13R14R22R23R24
 108071975.688 9  20565414.035 9     -1261.656 9  84211955.18249  20565420.18849
      -982.90049         0.000 0
 122495763.763 6  23310165.648 6      2945.379 6  95451265.68747  23310173.54747
      2295.07247         0.000 0
 130955098.137 6  24919927.879 6     -3775.369 6 102042944.56243  24919931.98443
     -2941.90643         0.000 0
 128379875.912 6  24429880.973 6     -3099.451 6 100036289.87646  24429887.98446
     -2415.14846         0.000 0
 110757903.944 8  21076529.078 8     -2175.465 8  86304872.72449  21076532.08649
     -1695.22549         0.000 0
 115703937.265 7  22017727.645 7      2033.973 7  90158927.79249  22017730.20349
      1584.93449         0.000 0
 114345088.633 7  21759147.375 7     -2813.201 7  89100083.23248  21759151.62548
     -2192.08248         0.000 0
 123125624.483 5  23430026.453 5      3157.627 5  95942053.71346  23430028.25846
      2460.30746         0.000 0
 120341984.612 6  22900318.047 6      1417.664 6  93772984.35447  22900319.37547
      1104.54347         0.000 0
 132474098.397 2  25208982.859 2      2552.391 2 103226603.39742  25208990.31642
      1988.82242         0.000 0
 107462062.470 7  20449351.750 7       140.904 7  83736682.41948  20449353.70748
       109.75848         0.000 0
 122061387.987 6  23227511.891 6     -3360.721 6  95112789.45347  23227517.88747
     -2618.78147         0.000 0
 122928081.101 5  22963997.973 5      2394.730 5  95610779.219 6         0.000 0
      1862.604 6  22964006.277 6
 121988286.557 5  22893208.883 5     -4490.152 5         0.000 0         0.000 0
         0.000 0         0.000 0
 104639015.779 4  19595525.934 4     -1298.059 4  81385928.288 6         0.000 0
     -1009.363 6  19595533.668 6
 112186762.709 6  21045950.074 6      2783.729 6  87256424.561 8         0.000 0
      2166.000 8  21045963.535 8
 114489656.513 6  21447771.648 6     -3194.232 6  89047541.908 8         0.000 0
     -2484.395 8  21447777.664 8
 103354064.366 7  19320950.746 7       311.156 7  80386521.975 6         0.000 0
       242.387 6  19320959.770 6
 116651080.408 5  21814339.980 5      3066.707 5  90728659.604 4         0.000 0
      2385.445 4  21814348.719 4
 18  5 22 20  0 19.0000000  0 19G 1G 3G 7G 8G11G17G18G19G22G24G28G30
                                R 7R12R13R14R22R23R24
 108073238.472 9  20565653.918 9     -1263.047 9  84212939.15849  20565660.61349
      -984.02149         0.000 0
 122492818.541 6  23309605.645 6      2945.648 6  95448970.72147  23309612.93047
      2295.23847         0.000 0
 130958873.915 4  24920646.258 4     -3774.926 4 102045886.74343  24920650.02043
     -2941.60243         0.000 0
 128382975.485 6  24430470.715 6     -3099.377 6 100038705.11046  24430477.06646
     -2415.11746         0.000 0
 110760080.511 8  21076943.676 8     -2176.174 8  86306568.73049  21076946.32449
     -1695.60549         0.000 0
 115701903.269 7  22017340.352 7      2033.361 7  90157342.81448  22017343.68848
      1584.41848         0.000 0
 114347902.429 7  21759683.172 7     -2813.654 7  89102275.79548  21759687.34848
     -2192.36348         0.000 0
 123122467.288 5  23429425.527 5      3156.977 5  95939593.60446  23429426.65646
      2460.00446         0.000 0
 120340568.008 6  22900049.090 6      1416.623 6  93771880.53047  22900049.73447
      1103.94947         0.000 0
 132471545.715 2  25208497.410 2      2551.957 2 103224614.23643  25208505.00843
      1988.53943         0.000 0
 107461922.581 6  20449325.191 6       139.355 6  83736573.41749  20449326.79349
       108.49849         0.000 0
 122064749.258 6  23228151.715 6     -3361.293 6  95115408.65747  23228156.87947
     -2619.18047         0.000 0
 122925686.529 6  22963549.000 6      2394.766 6  95608916.781 6         0.000 0
      1862.693 6  22963559.313 6
 121992776.931 4  22894046.848 4     -4490.451 4         0.000 0         0.000 0
         0.000 0         0.000 0
 104640315.324 5  19595767.195 5     -1300.408 5  81386939.063 5         0.000 0
     -1011.014 5  19595777.367 5
 112183979.319 6  21045428.051 6      2782.609 6  87254259.697 8         0.000 0
      2163.822 8  21045442.230 8
 114492851.443 7  21448368.129 7     -3194.100 7  89050026.868 8         0.000 0
     -2484.578 8  21448378.297 8
 103353754.271 7  19320894.660 7       310.098 7  80386280.777 6         0.000 0
       241.109 6  19320899.816 6
 116648013.921 4  21813765.250 4      3065.568 4  90726274.600 4         0.000 0
      2384.676 4  21813775.422 4
 18  5 22 20  0 20.0000000  0 19G 1G 3G 7G 8G11G17G18G19G22G24G28G30
                                R 7R12R13R14R22R23R24
 108074501.079 9  20565894.563 9     -1262.529 9  84213923.05249  20565900.80149
      -983.99049         0.000 0
 122489872.372 6  23309045.121 6      2946.164 6  95446675.01347  23309052.18847
      2295.66047         0.000 0
 130962648.725 3  24921364.258 3     -3773.332 3 102048828.14543  24921369.02343
     -2940.18443         0.000 0
 128386074.552 6  24431059.930 6     -3099.836 6 100041120.00146  24431066.05546
     -2415.47546         0.000 0
 110762256.934 8  21077358.180 8     -2176.789 8  86308264.62749  21077360.94149
     -1696.23649         0.000 0
 115699869.490 7  22016952.539 7      2034.230 7  90155758.09849  22016955.50049
      1585.07449         0.000 0
 114350716.342 7  21760218.441 7     -2814.641 7  89104468.45448  21760221.89148
     -2193.17048         0.000 0
 123119310.587 6  23428824.219 6      3158.020 6  95937133.80646  23428826.18046
      2460.73846         0.000 0
 120339150.934 6  22899778.469 6      1416.672 6  93770776.33247  22899779.75847
      1104.00047         0.000 0
 132468994.741 1  25208011.289 1      2550.441 1 103222626.46042  25208019.76242
      1987.26242         0.000 0
 107461782.400 7  20449297.969 7       140.908 7  83736464.18949  20449299.47349
       109.76049         0.000 0
 122068109.893 6  23228791.156 6     -3359.426 6  95118027.30647  23228797.55547
     -2617.76047         0.000 0
 122923292.239 6  22963104.082 6      2393.316 6  95607054.558 6         0.000 0
      1861.510 6  22963112.102 6
 121997266.325 4  22894889.441 4     -4489.002 4         0.000 0         0.000 0
         0.000 0         0.000 0
 104641614.953 5  19596011.508 5     -1298.264 5  81387949.903 5         0.000 0
     -1010.512 5  19596021.535 5
 112181197.164 6  21044907.219 6      2781.969 6  87252095.780 8         0.000 0
      2163.279 8  21044919.824 8
 114496046.480 7  21448967.227 7     -3195.711 7  89052511.908 8         0.000 0
     -2486.064 8  21448977.969 8
 103353444.416 7  19320835.180 7       310.102 7  80386039.769 6         0.000 0
       240.758 6  19320844.633 6
 116644947.680 4  21813190.422 4      3067.189 4  90723889.712 3         0.000 0
      2386.732 3  21813203.313 3
 18  5 22 20  0 21.0000000  0 19G 1G 3G 7G 8G11G17G18G19G22G24G28G30
                                R 7R12R13R14R22R23R24
 108075765.466 9  20566134.781 9     -1264.762 9  84214908.24449  20566141.37549
      -985.43649         0.000 0
 122486927.481 6  23308484.738 6      2944.422 6  95444380.29247  23308490.97747
      2294.23447         0.000 0
 130966422.743 2  24922082.117 2     -3773.064 2 102051768.99742  24922087.03942
     -2940.04542         0.000 0
 128389175.432 6  24431650.582 6     -3100.953 6 100043536.29546  24431656.94946
     -2416.29546         0.000 0
 110764435.148 8  21077771.965 8     -2178.258 8  86309961.94949  21077774.71549
     -1697.19349         0.000 0
 115697835.027 7  22016566.301 7      2034.654 7  90154172.77549  22016569.28949
      1585.50449         0.000 0
 114353532.194 7  21760754.719 7     -2816.402 7  89106662.58848  21760758.29748
     -2194.45948         0.000 0
 123116152.631 6  23428223.773 6      3157.977 6  95934673.08546  23428224.53146
      2460.66046         0.000 0
 120337735.847 6  22899509.281 6      1414.439 6  93769673.66147  22899510.21147
      1102.06647         0.000 0
 132466443.909 2  25207526.320 2      2551.648 2 103220638.81142  25207533.77342
      1988.31642         0.000 0
 107461642.937 6  20449271.180 6       138.932 6  83736355.55049  20449273.58249
       108.27749         0.000 0
 122071469.771 6  23229430.457 6     -3359.684 6  95120645.40447  23229436.88347
     -2618.11147         0.000 0
 122920900.328 6  22962658.168 6      2391.768 6  95605194.184 6         0.000 0
      1859.771 6  22962666.047 6
 122001755.556 4  22895729.754 4     -4489.418 4         0.000 0         0.000 0
         0.000 0         0.000 0
 104642915.117 4  19596256.117 4     -1300.926 4  81388961.133 5         0.000 0
     -1011.957 5  19596264.137 5
 112178415.331 6  21044383.820 6      2781.396 6  87249932.121 8         0.000 0
      2163.631 8  21044396.137 8
 114499243.189 7  21449567.336 7     -3196.811 7  89054998.250 7         0.000 0
     -2486.650 7  21449576.504 7
 103353135.099 7  19320777.137 7       308.633 7  80385799.203 6         0.000 0
       240.230 6  19320786.734 6
 116641880.374 3  21812618.750 3      3066.891 3  90721504.044 3         0.000 0
      2386.908 3  21812631.355 3
 18  5 22 20  0 22.0000000  0 19G 1G 3G 7G 8G11G17G18G19G22G24G28G30
                                R 7R12R13R14R22R23R24
 108077030.178 9  20566376.184 9     -1264.457 9  84215893.76849  20566382.10549
      -985.19949         0.000 0
 122483982.467 6  23307924.109 6      2945.313 6  95442085.48247  23307930.06347
      2295.05747         0.000 0
 130970196.811 3  24922800.586 3     -3774.047 3 102054709.89642  24922805.39542
     -2940.88542         0.000 0
 128392275.758 6  24432240.699 6     -3100.258 6 100045952.12246  24432247.16446
     -2415.70946         0.000 0
 110766613.509 8  21078187.082 8     -2178.051 8  86311659.34549  21078190.05949
     -1697.17449         0.000 0
 115695801.349 7  22016179.098 7      2033.867 7  90152588.12149  22016181.53149
      1584.87949         0.000 0
 114356348.066 7  21761290.176 7     -2815.336 7  89108856.83648  21761293.91048
     -2193.71748         0.000 0
 123112995.536 6  23427622.219 6      3156.914 6  95932212.98046  23427624.03946
      2460.03746         0.000 0
 120336320.746 6  22899240.559 6      1415.096 6  93768570.97947  22899241.86347
      1102.49647         0.000 0
 132463893.963 1  25207041.242 1      2550.371 1 103218651.82242  25207048.42642
      1987.26442         0.000 0
 107461504.028 7  20449244.855 7       139.314 7  83736247.30849  20449247.20349
       108.43449         0.000 0
 122074830.211 6  23230070.086 6     -3360.707 6  95123263.92347  23230076.03947
     -2618.75647         0.000 0
 122918508.474 6  22962208.855 6      2392.109 6  95603333.887 6         0.000 0
      1859.926 6  22962218.594 6
 122006244.997 5  22896569.672 5     -4489.389 5         0.000 0         0.000 0
         0.000 0         0.000 0
 104644216.448 5  19596501.051 5     -1301.033 5  81389973.264 5         0.000 0
     -1011.588 5  19596507.926 5
 112175634.595 6  21043863.180 6      2780.547 6  87247769.351 8         0.000 0
      2162.340 8  21043875.066 8
 114502439.767 7  21450163.188 7     -3196.938 7  89057484.463 8         0.000 0
     -2486.299 8  21450175.078 8
 103352826.607 8  19320719.566 8       308.389 8  80385559.248 6         0.000 0
       240.152 6  19320730.594 6
 116638814.111 4  21812047.117 4      3065.924 4  90719119.241 4         0.000 0
      2383.996 4  21812052.133 4
 18  5 22 20  0 23.0000000  0 19G 1G 3G 7G 8G11G17G18G19G22G24G28G30
                                R 7R12R13R14R22R23R24
 108078295.374 9  20566616.809 9     -1266.064 9  84216879.61849  20566622.83249
      -986.46749         0.000 0
 122481037.828 6  23307363.707 6      2943.861 6  95439790.95447  23307369.84847
      2293.88947         0.000 0
 130973970.698 4  24923518.281 4     -3774.016 4 102057650.53042  24923523.54742
     -2940.80542         0.000 0
 128395376.433 6  24432831.328 6     -3101.105 6 100048368.23145  24432837.19545
     -2416.39145         0.000 0
 110768792.235 8  21078601.422 8     -2179.348 8  86313357.09449  21078604.77049
     -1698.26449         0.000 0
 115693767.464 8  22015792.125 8      2033.393 8  90151003.23349  22015794.65649
      1584.39549         0.000 0
 114359164.491 7  21761826.000 7     -2816.770 7  89111051.44748  21761830.02048
     -2194.82848         0.000 0
 123109838.142 6  23427022.609 6      3157.514 6  95929752.68847  23427023.41047
      2460.37347         0.000 0
 120334906.292 6  22898971.637 6      1413.469 6  93767468.80147  22898972.96547
      1101.38747         0.000 0
 132461344.379 2  25206556.395 2      2548.959 2 103216665.13342  25206562.98842
      1986.11542         0.000 0
 107461365.179 7  20449219.188 7       138.469 7  83736139.09649  20449220.76249
       107.93049         0.000 0
 122078190.542 6  23230709.223 6     -3360.813 6  95125882.36247  23230715.14547
     -2618.59847         0.000 0
 122916117.514 6  22961763.781 6      2390.475 6  95601474.230 6         0.000 0
      1858.801 6  22961770.941 6
 122010734.517 4  22897409.961 4     -4490.033 4         0.000 0         0.000 0
         0.000 0         0.000 0
 104645518.200 5  19596743.918 5     -1302.939 5  81390985.733 5         0.000 0
     -1012.990 5  19596752.941 5
 112172854.140 6  21043342.762 6      2780.215 6  87245606.803 8         0.000 0
      2161.631 8  21043355.367 8
 114505636.563 7  21450766.570 7     -3197.199 7  89059970.897 8         0.000 0
     -2487.357 8  21450773.875 8
 103352518.230 8  19320661.359 8       307.701 8  80385319.434 5         0.000 0
       238.760 5  19320671.387 5
 116635747.712 4  21811472.848 4      3065.889 4  90716734.211 3         0.000 0
      2384.162 3  21811473.422 3
 18  5 22 20  0 24.0000000  0 19G 1G 3G 7G 8G11G17G18G19G22G24G28G30
                                R 7R12R13R14R22R23R24
 108079561.380 9  20566857.309 9     -1265.363 9  84217866.12849  20566863.94549
      -986.11349         0.000 0
 122478093.139 6  23306803.465 6      2945.539 6  95437496.39447  23306809.46147
      2295.39547         0.000 0
 130977744.238 3  24924236.137 3     -3772.887 3 102060590.90641  24924241.00041
     -2940.00241         0.000 0
 128398476.734 6  24433420.113 6     -3099.682 6 100050784.05645  24433428.35545
     -2415.39145         0.000 0
 110770971.548 7  21079016.063 7     -2178.510 7  86315055.25449  21079018.45349
     -1697.52049         0.000 0
 115691734.337 7  22015405.453 7      2033.174 7  90149419.01049  22015407.91449
      1584.24249         0.000 0
 114361981.404 7  21762362.984 7     -2816.654 7  89113246.46048  21762366.96148
     -2194.88348         0.000 0
 123106681.379 6  23426421.301 6      3155.969 6  95927292.89247  23426422.96147
      2459.32047         0.000 0
 120333492.091 6  22898702.441 6      1415.420 6  93766366.81447  22898703.87147
      1103.18647         0.000 0
 132458795.452 2  25206071.273 2      2547.531 2 103214678.96243  25206078.84443
      1985.19943         0.000 0
 107461227.261 7  20449192.965 7       138.992 7  83736031.62349  20449195.15249
       108.38149         0.000 0
 122081551.085 6  23231348.949 6     -3359.369 6  95128500.95747  23231354.43047
     -2617.55947         0.000 0
 122913726.841 6  22961315.285 6      2391.020 6  95599614.806 6         0.000 0
      1859.584 6  22961326.027 6
 122015223.928 5  22898250.121 5     -4489.275 5         0.000 0         0.000 0
         0.000 0         0.000 0
 104646821.308 5  19596989.523 5     -1303.098 5  81391999.276 5         0.000 0
     -1013.262 5  19596995.539 5
 112170074.924 6  21042820.359 6      2778.883 6  87243445.182 8         0.000 0
      2160.910 8  21042831.961 8
 114508833.658 7  21451362.664 7     -3196.576 7  89062457.479 8         0.000 0
     -2486.652 8  21451373.406 8
 103352210.965 8  19320604.316 8       307.738 8  80385080.426 6         0.000 0
       238.957 6  19320612.910 6
 116632682.055 4  21810899.883 4      3065.828 4  90714349.839 3         0.000 0
      2383.832 3  21810898.738 3
 18  5 22 20  0 25.0000000  0 19G 1G 3G 7G 8G11G17G18G19G22G24G28G30
                                R 7R12R13R14R22R23R24
 108080827.796 9  20567098.695 9     -1266.697 9  84218852.95549  20567104.96549
      -987.05749         0.000 0
 122475148.499 6  23306243.680 6      2944.732 6  95435201.84847  23306249.99247
      2294.68647         0.000 0
 130981517.713 3  24924954.734 3     -3773.576 3 102063531.20541  24924959.48841
     -2940.41841         0.000 0
 128401576.945 6  24434010.645 6     -3099.668 6 100053199.81345  24434018.38745
     -2415.34045         0.000 0
 110773151.052 8  21079429.879 8     -2179.531 8  86316753.57049  21079434.22749
     -1698.34649         0.000 0
 115689701.457 7  22015018.094 7      2032.934 7  90147834.96849  22015021.69949
      1584.03949         0.000 0
 114364798.548 7  21762898.285 7     -2817.148 7  89115441.59748  21762902.09048
     -2195.22348         0.000 0
 123103524.918 6  23425820.879 6      3156.471 6  95924833.27947  23425823.36747
      2459.41247         0.000 0
 120332078.163 6  22898433.137 6      1413.676 6  93765265.07247  22898434.50847
      1101.61747         0.000 0
 132456247.157 1  25205586.184 1      2549.166 1 103212693.31343  25205593.05143
      1986.48043         0.000 0
 107461089.596 7  20449166.199 7       137.385 7  83735924.35349  20449168.78949
       107.04749         0.000 0
 122084911.875 6  23231988.563 6     -3361.621 6  95131119.76847  23231994.77347
     -2619.46147         0.000 0
 122911336.660 6  22960870.828 6      2389.645 6  95597755.787 6         0.000 0
      1859.010 6  22960879.137 6
 122019713.400 3  22899089.168 3     -4489.867 3         0.000 0         0.000 0
         0.000 0         0.000 0
 104648125.138 5  19597231.008 5     -1304.512 5  81393013.426 5         0.000 0
     -1015.301 5  19597240.172 5
 112167296.466 6  21042297.699 6      2778.838 6  87241284.149 8         0.000 0
      2160.551 8  21042311.449 8
 114512030.739 7  21451960.652 7     -3196.953 7  89064944.099 8         0.000 0
     -2485.859 8  21451971.824 8
 103351904.167 7  19320546.871 7       306.441 7  80384841.798 6         0.000 0
       238.422 6  19320556.613 6
 116629616.854 4  21810326.090 4      3065.234 4  90711965.779 4         0.000 0
      2383.473 4  21810329.242 4
 18  5 22 20  0 26.0000000  0 19G 1G 3G 7G 8G11G17G18G19G22G24G28G30
                                R 7R12R13R14R22R23R24
 108082095.154 9  20567339.480 9     -1269.066 9  84219840.47249  20567346.35949
      -988.65049         0.000 0
 122472204.661 6  23305682.719 6      2943.299 6  95432907.96447  23305689.85947
      2293.42247         0.000 0
 130985291.464 3  24925673.445 3     -3774.146 3 102066471.79441  24925678.39541
     -2941.11341         0.000 0
 128404677.568 6  24434600.285 6     -3101.471 6 100055615.86845  24434608.89845
     -2417.01245         0.000 0
 110775331.404 8  21079846.090 8     -2181.781 8  86318452.55249  21079848.58249
     -1700.27349         0.000 0
 115687668.941 7  22014631.277 7      2031.639 7  90146251.15749  22014634.32449
      1583.24649         0.000 0
 114367616.401 7  21763434.695 7     -2818.656 7  89117637.32948  21763438.40248
     -2196.42648         0.000 0
 123100368.636 6  23425219.277 6      3155.215 6  95922373.87146  23425222.14146
      2458.52046         0.000 0
 120330665.205 6  22898164.223 6      1411.268 6  93764164.10047  22898166.01247
      1099.67047         0.000 0
 132453699.286 1  25205101.348 1      2546.229 1 103210707.94443  25205108.94543
      1983.96943         0.000 0
 107460952.688 7  20449140.543 7       135.701 7  83735817.68749  20449142.30549
       105.62749         0.000 0
 122088273.105 6  23232628.141 6     -3361.646 6  95133738.89447  23232633.63747
     -2619.57047         0.000 0
 122908947.440 6  22960421.750 6      2387.795 6  95595897.548 6         0.000 0
      1857.258 6  22960432.348 6
 122024203.476 3  22899931.609 3     -4490.678 3         0.000 0         0.000 0
         0.000 0         0.000 0
 104649430.146 5  19597475.602 5     -1306.539 5  81394028.391 5         0.000 0
     -1016.131 5  19597485.340 5
 112164518.668 6  21041777.434 6      2775.977 6  87239123.638 8         0.000 0
      2159.223 8  21041791.328 8
 114515228.338 6  21452558.887 6     -3199.398 6  89067431.118 8         0.000 0
     -2487.816 8  21452571.633 8
 103351598.101 7  19320489.535 7       304.287 7  80384603.761 6         0.000 0
       237.189 6  19320496.410 6
 116626552.046 4  21809753.688 4      3063.990 4  90709582.022 3         0.000 0
      2382.910 3  21809759.703 3
 18  5 22 20  0 27.0000000  0 19G 1G 3G 7G 8G11G17G18G19G22G24G28G30
                                R 7R12R13R14R22R23R24
 108083362.449 9  20567580.672 9     -1267.719 9  84220828.00349  20567587.49649
      -987.53949         0.000 0
 122469260.308 6  23305122.313 6      2942.891 6  95430613.65447  23305129.59447
      2293.24447         0.000 0
 130989064.507 4  24926391.418 4     -3773.189 4 102069411.88342  24926396.97342
     -2940.15842         0.000 0
 128407777.702 5  24435190.621 5     -3101.254 5 100058031.55845  24435197.53145
     -2416.52545         0.000 0
 110777511.565 7  21080260.711 7     -2180.922 7  86320151.37149  21080263.07049
     -1699.49249         0.000 0
 115685636.398 7  22014244.867 7      2032.869 7  90144667.36649  22014248.00049
      1584.37749         0.000 0
 114370434.244 7  21763970.941 7     -2818.539 7  89119833.06748  21763975.25048
     -2196.31148         0.000 0
 123097212.495 6  23424618.949 6      3156.289 6  95919914.50947  23424621.98047
      2459.27947         0.000 0
 120329252.011 6  22897895.438 6      1411.990 6  93763062.87647  22897897.49647
      1100.27547         0.000 0
 132451152.158 1  25204617.063 1      2546.816 1 103208723.12643  25204624.67643
      1984.55343         0.000 0
 107460815.623 7  20449114.438 7       136.736 7  83735710.86449  20449116.19949
       106.36749         0.000 0
 122091634.056 6  23233267.129 6     -3361.469 6  95136357.81947  23233273.49647
     -2619.18247         0.000 0
 122906558.415 6  22959976.813 6      2387.895 6  95594039.318 6         0.000 0
      1857.900 6  22959985.262 6
 122028692.975 4  22900771.605 4     -4490.246 4         0.000 0         0.000 0
         0.000 0         0.000 0
 104650735.453 5  19597722.043 5     -1305.854 5  81395043.610 5         0.000 0
     -1015.781 5  19597729.063 5
 112161741.507 6  21041256.008 6      2776.428 6  87236963.626 8         0.000 0
      2160.061 8  21041271.047 8
 114518425.671 6  21453160.254 6     -3197.346 6  89069917.948 8         0.000 0
     -2487.504 8  21453167.129 8
 103351292.147 8  19320433.469 8       305.285 8  80384365.807 6         0.000 0
       237.424 6  19320442.063 6
 116623487.327 5  21809179.410 5      3064.148 5  90707198.365 4         0.000 0
      2383.494 4  21809188.578 4
 18  5 22 20  0 28.0000000  0 19G 1G 3G 7G 8G11G17G18G19G22G24G28G30
                                R 7R12R13R14R22R23R24
 108084630.621 9  20567822.133 9     -1267.832 9  84221816.18649  20567828.54349
      -987.96349         0.000 0
 122466316.429 6  23304561.887 6      2944.418 6  95428319.73347  23304569.72747
      2294.32447         0.000 0
 130992838.006 4  24927109.234 4     -3773.887 4 102072352.27842  24927115.61742
     -2940.62142         0.000 0
 128410877.616 6  24435780.656 6     -3098.555 6 100060447.06546  24435787.62546
     -2414.43046         0.000 0
 110779692.324 8  21080675.457 8     -2181.016 8  86321850.65549  21080678.16449
     -1699.41049         0.000 0
 115683604.517 7  22013858.156 7      2030.607 7  90143084.09249  22013860.84449
      1582.29149         0.000 0
 114373252.414 7  21764506.602 7     -2817.129 7  89122029.00948  21764511.50848
     -2195.27048         0.000 0
 123094056.805 5  23424018.027 5      3154.438 5  95917455.55846  23424020.87546
      2458.07446         0.000 0
 120327839.396 6  22897626.203 6      1413.322 6  93761962.13647  22897627.99247
      1101.21747         0.000 0
 132448605.046 2  25204132.047 2      2545.883 2 103206738.38643  25204137.74243
      1983.81643         0.000 0
 107460679.535 7  20449088.605 7       135.549 7  83735604.80849  20449090.63749
       105.65049         0.000 0
 122094995.762 6  23233906.816 6     -3362.910 6  95138977.34747  23233913.16847
     -2620.40647         0.000 0
 122904169.696 5  22959529.711 5      2389.814 5  95592181.532 6         0.000 0
      1858.416 6  22959540.594 6
 122033183.204 4  22901610.152 4     -4490.650 4         0.000 0         0.000 0
         0.000 0         0.000 0
 104652042.293 4  19597966.176 4     -1308.271 4  81396060.078 5         0.000 0
     -1018.371 5  19597973.340 5
 112158965.075 6  21040736.574 6      2774.773 6  87234804.140 8         0.000 0
      2158.389 8  21040748.891 8
 114521623.041 7  21453761.754 7     -3196.656 7  89072404.767 8         0.000 0
     -2486.619 8  21453769.344 8
 103350987.154 7  19320376.531 7       304.236 7  80384128.592 6         0.000 0
       236.824 6  19320384.980 6
 116620423.431 4  21808605.691 4      3062.279 4  90704815.281 4         0.000 0
      2382.174 4  21808615.719 4
 18  5 22 20  0 29.0000000  0 19G 1G 3G 7G 8G11G17G18G19G22G24G28G30
                                R 7R12R13R14R22R23R24
 108085898.503 9  20568063.340 9     -1268.355 9  84222804.13449  20568070.03549
      -988.15249         0.000 0
 122463372.214 6  23304001.777 6      2943.818 6  95426025.53447  23304009.54747
      2293.88347         0.000 0
 130996612.334 4  24927827.223 4     -3774.822 4 102075293.30242  24927833.96142
     -2941.43642         0.000 0
 128413976.319 5  24436369.859 5     -3098.670 5 100062861.61745  24436377.76245
     -2414.46345         0.000 0
 110781872.291 7  21081090.520 7     -2179.664 7  86323549.30649  21081093.52349
     -1698.40649         0.000 0
 115681573.759 7  22013471.617 7      2030.848 7  90141501.65249  22013474.82049
      1582.47549         0.000 0
 114376069.791 7  21765043.004 7     -2817.184 7  89124224.39148  21765046.88348
     -2195.22348         0.000 0
 123090902.834 5  23423418.426 5      3154.150 5  95914997.88746  23423421.35946
      2458.02346         0.000 0
 120326426.192 6  22897357.715 6      1412.156 6  93760860.94847  22897358.41847
      1100.36547         0.000 0
 132446058.803 2  25203647.922 2      2546.512 2 103204754.30743  25203653.77343
      1984.33243         0.000 0
 107460543.716 7  20449062.660 7       135.846 7  83735498.98949  20449064.28949
       105.81449         0.000 0
 122098358.825 6  23234546.961 6     -3363.982 6  95141597.90747  23234553.73047
     -2621.35747         0.000 0
 122901780.235 6  22959084.785 6      2389.377 6  95590323.040 6         0.000 0
      1858.445 6  22959092.230 6
 122037674.061 4  22902451.309 4     -4490.564 4         0.000 0         0.000 0
         0.000 0         0.000 0
 104653350.409 5  19598209.910 5     -1307.963 5  81397077.489 5         0.000 0
     -1017.137 5  19598218.793 5
 112156189.649 6  21040216.883 6      2776.539 6  87232645.546 8         0.000 0
      2158.441 8  21040227.770 8
 114524819.318 6  21454358.410 6     -3196.146 6  89074890.766 8         0.000 0
     -2486.348 8  21454365.859 8
 103350682.781 8  19320318.617 8       304.260 8  80383891.842 6         0.000 0
       236.920 6  19320327.930 6
 116617361.247 4  21808033.148 4      3062.154 4  90702433.615 4         0.000 0
      2382.322 4  21808043.746 4
 18  5 22 20  0 30.0000000  0 19G 1G 3G 7G 8G11G17G18G19G22G24G28G30
                                R 7R12R13R14R22R23R24
 108087167.418 9  20568305.086 9     -1268.555 9  84223792.91649  20568311.18049
      -988.48249         0.000 0
 122460428.787 6  23303441.352 6      2943.734 6  95423731.96847  23303448.50447
      2293.72947         0.000 0
 131000386.424 4  24928545.754 4     -3773.266 4 102078234.13342  24928550.76242
     -2940.14542         0.000 0
 128417075.513 5  24436960.324 5     -3099.143 5 100065276.57545  24436966.90645
     -2414.85045         0.000 0
 110784053.278 7  21081505.695 7     -2181.115 7  86325248.80049  21081508.69949
     -1699.55749         0.000 0
 115679542.860 7  22013085.047 7      2031.174 7  90139919.16549  22013088.10949
      1582.43949         0.000 0
 114378888.082 7  21765579.523 7     -2818.791 7  89126420.45548  21765582.68448
     -2196.47148         0.000 0
 123087748.292 6  23422817.504 6      3154.652 6  95912539.82847  23422820.50847
      2458.16247         0.000 0
 120325014.069 6  22897088.910 6      1412.189 6  93759760.60847  22897089.59847
      1100.35047         0.000 0
 132443512.378 2  25203162.617 2      2546.195 2 103202770.07343  25203169.88743
      1984.08043         0.000 0
 107460408.586 7  20449036.680 7       135.215 7  83735393.67749  20449039.17249
       105.28949         0.000 0
 122101721.826 6  23235186.934 6     -3362.736 6  95144218.42147  23235193.70347
     -2620.43647         0.000 0
 122899391.912 6  22958638.539 6      2387.850 6  95588465.450 6         0.000 0
      1858.057 6  22958644.984 6
 122042165.211 4  22903292.430 4     -4490.490 4         0.000 0         0.000 0
         0.000 0         0.000 0
 104654659.430 5  19598455.762 5     -1308.748 5  81398095.623 5         0.000 0
     -1017.953 5  19598461.922 5
 112153414.593 6  21039695.152 6      2775.012 6  87230487.145 8         0.000 0
      2158.797 8  21039706.039 8
 114528016.177 7  21454956.898 7     -3196.521 7  89077377.220 8         0.000 0
     -2486.559 8  21454966.211 8
 103350379.027 8  19320262.969 8       303.455 8  80383655.581 6         0.000 0
       236.258 6  19320270.273 6
 116614298.871 4  21807459.711 4      3062.326 4  90700051.771 4         0.000 0
      2380.293 4  21807469.453 4
 18  5 22 20  0 31.0000000  0 19G 1G 3G 7G 8G11G17G18G19G22G24G28G30
                                R 7R12R13R14R22R23R24
 108088436.593 9  20568546.133 9     -1269.428 9  84224781.86549  20568552.90249
      -989.13749         0.000 0
 122457485.296 5  23302881.516 5      2943.682 5  95421438.33647  23302888.46947
      2293.69947         0.000 0
 131004160.798 4  24929264.012 4     -3775.113 4 102081175.17942  24929267.93442
     -2941.58042         0.000 0
 128420174.315 5  24437549.227 5     -3098.512 5 100067691.21245  24437556.69945
     -2414.45145         0.000 0
 110786234.254 7  21081920.602 7     -2181.303 7  86326948.24748  21081923.32048
     -1699.56648         0.000 0
 115677512.547 7  22012698.496 7      2030.107 7  90138337.06749  22012701.34449
      1581.92249         0.000 0
 114381706.283 7  21766115.484 7     -2817.770 7  89128616.46048  21766120.17648
     -2195.87548         0.000 0
 123084594.497 5  23422217.746 5      3154.600 5  95910082.33047  23422220.62147
      2458.11347         0.000 0
 120323601.963 6  22896819.836 6      1411.844 6  93758660.27147  22896822.29747
      1100.06447         0.000 0
 132440966.580 2  25202678.477 2      2547.666 2 103200786.32242  25202685.78942
      1984.96942         0.000 0
 107460273.794 6  20449011.008 6       135.164 6  83735288.67049  20449012.42249
       105.24049         0.000 0
 122105085.458 6  23235826.637 6     -3364.508 6  95146839.42647  23235833.34847
     -2621.48247         0.000 0
 122897003.727 6  22958193.172 6      2387.270 6  95586607.984 6         0.000 0
      1857.285 6  22958200.762 6
 122046656.708 5  22904134.000 5     -4492.301 5         0.000 0         0.000 0
         0.000 0         0.000 0
 104655969.488 5  19598699.055 5     -1310.480 5  81399114.550 5         0.000 0
     -1019.389 5  19598710.941 5
 112150640.346 6  21039175.734 6      2774.158 6  87228329.363 8         0.000 0
      2158.082 8  21039186.477 8
 114531212.765 7  21455555.406 7     -3196.281 7  89079863.430 8         0.000 0
     -2485.943 8  21455566.434 8
 103350075.832 8  19320204.324 8       303.051 8  80383419.780 6         0.000 0
       235.408 6  19320214.207 6
 116611237.326 5  21806888.012 5      3062.215 5  90697670.604 4         0.000 0
      2380.459 4  21806896.895 4
 18  5 22 20  0 32.0000000  0 19G 1G 3G 7G 8G11G17G18G19G22G24G28G30
                                R 7R12R13R14R22R23R24
 108089706.431 8  20568787.664 8     -1270.365 8  84225771.35749  20568793.85949
      -989.69549         0.000 0
 122454542.437 6  23302321.730 6      2942.527 6  95419145.19647  23302328.84047
      2292.84647         0.000 0
 131007935.548 5  24929981.895 5     -3775.523 5 102084116.57442  24929984.91442
     -2941.96342         0.000 0
 128423273.135 5  24438139.043 5     -3098.941 5 100070105.89045  24438146.38745
     -2414.69545         0.000 0
 110788415.664 7  21082335.273 7     -2181.303 7  86328648.06048  21082338.44948
     -1699.75448         0.000 0
 115675482.598 7  22012312.426 7      2029.207 7  90136755.31049  22012316.17249
      1580.99049         0.000 0
 114384524.822 7  21766652.070 7     -2818.744 7  89130812.72348  21766655.43448
     -2196.19948         0.000 0
 123081441.155 5  23421617.465 5      3151.473 5  95907625.16247  23421620.64147
      2455.85447         0.000 0
 120322190.546 6  22896551.387 6      1410.633 6  93757560.43847  22896553.50847
      1099.19347         0.000 0
 132438421.118 1  25202193.957 1      2544.930 1 103198802.90543  25202200.92643
      1983.21743         0.000 0
 107460139.624 7  20448985.383 7       134.439 7  83735184.11649  20448987.75849
       104.77749         0.000 0
 122108449.711 6  23236467.680 6     -3364.977 6  95149460.90847  23236473.81647
     -2621.98247         0.000 0
 122894616.147 5  22957744.699 5      2387.637 5  95584750.993 6         0.000 0
      1856.648 6  22957757.445 6
 122051148.796 5  22904975.191 5     -4492.730 5         0.000 0         0.000 0
         0.000 0         0.000 0
 104657280.654 5  19598944.109 5     -1311.914 5  81400134.303 5         0.000 0
     -1020.080 5  19598955.711 5
 112147866.653 6  21038654.930 6      2773.434 6  87226172.054 8         0.000 0
      2156.951 8  21038669.109 8
 114534409.416 7  21456154.961 7     -3196.588 7  89082349.692 8         0.000 0
     -2486.102 8  21456163.984 8
 103349773.239 8  19320149.742 8       302.098 8  80383184.433 6         0.000 0
       235.623 6  19320157.617 6
 116608176.441 4  21806317.363 4      3059.672 4  90695289.835 4         0.000 0
      2381.441 4  21806325.387 4
 18  5 22 20  0 33.0000000  0 19G 1G 3G 7G 8G11G17G18G19G22G24G28G30
                                R 7R12R13R14R22R23R24
 108090976.221 9  20569029.730 9     -1269.650 9  84226760.77149  20569036.31349
      -989.18849         0.000 0
 122451599.439 6  23301761.906 6      2942.402 6  95416851.96347  23301768.67647
      2292.80747         0.000 0
 131011710.658 5  24930700.457 5     -3774.711 5 102087058.22942  24930703.70342
     -2941.49242         0.000 0
 128426370.897 6  24438728.824 6     -3097.504 6 100072519.68645  24438736.44945
     -2413.60245         0.000 0
 110790596.687 7  21082750.477 7     -2180.979 7  86330347.52648  21082754.03948
     -1699.38348         0.000 0
 115673453.140 8  22011926.602 8      2029.336 8  90135173.92449  22011929.44949
      1581.34249         0.000 0
 114387342.808 7  21767187.473 7     -2818.283 7  89133008.54248  21767192.78148
     -2196.04348         0.000 0
 123078288.327 5  23421017.289 5      3152.639 5  95905168.36947  23421020.19547
      2456.55947         0.000 0
 120320778.842 6  22896282.613 6      1411.777 6  93756460.39747  22896284.51647
      1100.03347         0.000 0
 132435875.442 2  25201709.977 2      2546.074 2 103196819.28943  25201716.55943
      1983.86143         0.000 0
 107460005.772 7  20448960.152 7       134.082 7  83735079.78649  20448962.27049
       104.42849         0.000 0
 122111814.751 6  23237107.254 6     -3365.492 6  95152082.99847  23237114.30947
     -2622.25447         0.000 0
 122892228.038 6  22957297.055 6      2387.438 6  95582893.507 6         0.000 0
      1858.215 6  22957309.801 6
 122358745.343 5  22905817.348 5     -4493.125 5         0.000 0         0.000 0
         0.000 0         0.000 0
 104658592.905 5  19599189.563 5     -1312.309 5  81401154.932 5         0.000 0
     -1020.273 5  19599201.598 5
 112145093.415 6  21038134.809 6      2773.234 6  87224015.071 8         0.000 0
      2156.525 8  21038145.551 8
 114537605.130 7  21456752.910 7     -3194.756 7  89084835.263 8         0.000 0
     -2485.043 8  21456762.363 8
 103349471.061 8  19320091.973 8       302.387 8  80382949.388 6         0.000 0
       235.002 6  19320102.859 6
 116605116.381 3  21805742.527 3      3060.781 3  90692909.872 4         0.000 0
      2380.078 4  21805754.418 4
 18  5 22 20  0 34.0000000  0 19G 1G 3G 7G 8G11G17G18G19G22G24G28G30
                                R 7R12R13R14R22R23R24
 108092246.230 8  20569271.473 8     -1270.248 8  84227750.41249  20569277.62549
      -989.61749         0.000 0
 122448656.422 6  23301201.906 6      2943.230 6  95414558.70547  23301207.87147
      2293.49047         0.000 0
 131015485.927 5  24931419.410 5     -3775.484 5 102089999.97442  24931422.81642
     -2941.70942         0.000 0
 128429468.332 6  24439318.277 6     -3097.809 6 100074933.28145  24439325.53145
     -2413.91645         0.000 0
 110792777.722 7  21083165.504 7     -2181.186 7  86332047.03348  21083168.46548
     -1699.73448         0.000 0
 115671423.972 8  22011540.457 8      2029.246 8  90133592.74749  22011543.56349
      1581.06849         0.000 0
 114390160.762 7  21767724.414 7     -2817.984 7  89135204.32448  21767728.62148
     -2195.67448         0.000 0
 123075135.961 5  23420418.223 5      3152.254 5  95902712.00647  23420420.37147
      2456.30347         0.000 0
 120319367.259 6  22896013.805 6      1411.512 6  93755360.47547  22896015.33647
      1099.95547         0.000 0
 132433330.320 2  25201225.953 2      2545.047 2 103194836.06843  25201232.82443
      1983.06143         0.000 0
 107459872.183 7  20448935.027 7       133.150 7  83734975.69149  20448936.83249
       103.85949         0.000 0
 122115180.146 6  23237748.078 6     -3365.191 6  95154705.39747  23237753.83247
     -2622.17847         0.000 0
 122889840.112 5  22956852.949 5      2387.305 5  95581036.253 6         0.000 0
      1856.609 6  22956863.551 6
 122363238.003 5  22906657.605 5     -4492.340 5         0.000 0         0.000 0
         0.000 0         0.000 0
 104659905.960 4  19599437.703 4     -1314.102 4  81402176.206 5         0.000 0
     -1021.332 5  19599446.297 5
 112142320.810 6  21037611.930 6      2772.242 6  87221858.621 8         0.000 0
      2156.229 8  21037627.543 8
 114540800.660 6  21457351.535 6     -3195.455 6  89087320.675 8         0.000 0
     -2485.340 8  21457361.563 8
 103349169.280 8  19320037.176 8       301.922 8  80382714.688 6         0.000 0
       234.529 6  19320044.336 6
 116602056.966 3  21805170.949 3      3059.418 3  90690530.321 4         0.000 0
      2379.488 4  21805183.555 4
 18  5 22 20  0 35.0000000  0 19G 1G 3G 7G 8G11G17G18G19G22G24G28G30
                                R 7R12R13R14R22R23R24
 108093517.372 9  20569512.793 9     -1271.371 9  84228740.86549  20569519.61749
      -990.76049         0.000 0
 122445713.751 6  23300641.914 6      2942.561 6  95412265.72647  23300648.72347
      2292.72147         0.000 0
 131019261.280 4  24932137.086 4     -3775.924 4 102092941.82742  24932141.19142
     -2942.26642         0.000 0
 128432565.830 6  24439907.598 6     -3096.842 6 100077346.89645  24439915.44145
     -2413.10545         0.000 0
 110794959.632 7  21083580.684 7     -2181.664 7  86333747.21548  21083583.70348
     -1700.01848         0.000 0
 115669395.922 7  22011154.465 7      2027.031 7  90132012.43449  22011157.78149
      1579.53549         0.000 0
 114392979.542 7  21768260.363 7     -2818.285 7  89137400.76548  21768265.09848
     -2196.09448         0.000 0
 123071984.613 4  23419818.168 4      3150.783 4  95900256.40746  23419820.82846
      2455.27946         0.000 0
 120317956.312 6  22895745.289 6      1410.879 6  93754261.01647  22895746.72347
      1099.41847         0.000 0
 132430786.314 2  25200741.801 2      2544.648 2 103192853.72043  25200749.15643
      1982.79743         0.000 0
 107459739.714 7  20448909.484 7       131.756 7  83734872.48449  20448911.84449
       102.73849         0.000 0
 122118546.195 6  23238388.484 6     -3366.607 6  95157328.29847  23238394.79347
     -2623.49647         0.000 0
 122887452.877 5  22956407.426 5      2387.088 5  95579179.517 6         0.000 0
      1856.328 6  22956416.449 6
 122367731.079 5  22907495.582 5     -4493.635 5         0.000 0         0.000 0
         0.000 0         0.000 0
 104661220.606 5  19599683.988 5     -1315.799 5  81403198.726 5         0.000 0
     -1022.984 5  19599693.012 5
 112139549.769 6  21037092.211 6      2770.654 6  87219703.371 8         0.000 0
      2155.016 8  21037105.820 8
 114543996.734 6  21457949.027 6     -3195.254 6  89089806.519 8         0.000 0
     -2486.316 8  21457960.629 8
 103348868.889 8  19319979.238 8       299.705 8  80382481.018 6         0.000 0
       233.729 6  19319989.980 6
 116598998.608 3  21804598.668 3      3058.146 3  90688151.644 3         0.000 0
      2378.701 3  21804607.547 3
 18  5 22 20  0 36.0000000  0 19G 1G 3G 7G 8G11G17G18G19G22G24G28G30
                                R 7R12R13R14R22R23R24
 108094788.219 8  20569754.961 8     -1270.803 8  84229731.15949  20569761.59849
      -990.28749         0.000 0
 122442771.293 6  23300082.477 6      2943.088 6  95409972.86947  23300089.97747
      2293.27147         0.000 0
 131023037.597 5  24932855.891 5     -3776.334 5 102095884.38942  24932860.25442
     -2942.65242         0.000 0
 128435662.318 6  24440496.621 6     -3096.371 6 100079759.73245  24440505.32045
     -2412.68945         0.000 0
 110797140.931 7  21083995.988 7     -2181.156 7  86335446.88948  21083999.19548
     -1699.40848         0.000 0
 115667368.152 8  22010768.598 8      2028.203 8  90130432.37649  22010771.82049
      1580.38149         0.000 0
 114395797.433 6  21768797.871 6     -2817.602 6  89139596.51047  21768801.74647
     -2195.50247         0.000 0
 123068833.816 5  23419217.949 5      3150.256 5  95897801.25146  23419221.46946
      2454.85446         0.000 0
 120316545.182 6  22895477.477 6      1411.055 6  93753161.43547  22895478.35247
      1099.65847         0.000 0
 132428241.889 2  25200256.918 2      2543.557 2 103190871.05043  25200265.59043
      1982.02143         0.000 0
 107459607.380 7  20448884.496 7       132.518 7  83734769.35849  20448886.47349
       103.38749         0.000 0
 122121913.446 6  23239029.449 6     -3367.094 6  95159952.12847  23239035.98847
     -2623.68647         0.000 0
 122885065.081 5  22955962.031 5      2387.674 5  95577322.347 6         0.000 0
      1856.781 6  22955970.770 6
 122372225.132 5  22908339.133 5     -4492.990 5         0.000 0         0.000 0
         0.000 0         0.000 0
 104662536.317 5  19599930.117 5     -1316.365 5  81404222.052 6         0.000 0
     -1023.527 6  19599941.145 6
 112136778.679 6  21036573.480 6      2771.203 6  87217548.080 8         0.000 0
      2154.844 8  21036585.512 8
 114547191.584 6  21458547.648 6     -3194.803 6  89092291.360 7         0.000 0
     -2484.592 7  21458558.676 7
 103348568.579 8  19319923.434 8       300.525 8  80382247.454 6         0.000 0
       234.299 6  19319932.887 6
 116595941.209 3  21804027.941 3      3057.678 3  90685773.633 3         0.000 0
      2377.729 3  21804034.816 3
 18  5 22 20  0 37.0000000  0 19G 1G 3G 7G 8G11G17G18G19G22G24G28G30
                                R 7R12R13R14R22R23R24
 108096060.018 9  20569996.969 9     -1272.420 9  84230722.19649  20570003.20749
      -991.48249         0.000 0
 122439829.385 6  23299522.172 6      2942.135 6  95407680.50646  23299529.89846
      2292.54546         0.000 0
 131026813.823 4  24933574.539 4     -3776.113 4 102098826.90342  24933577.47342
     -2942.30542         0.000 0
 128438759.099 6  24441085.914 6     -3096.582 6 100082172.81845  24441094.01245
     -2412.89145         0.000 0
 110799322.950 7  21084410.855 7     -2181.814 7  86337147.19648  21084414.66048
     -1700.21348         0.000 0
 115665340.672 8  22010382.289 8      2027.252 8  90128852.52249  22010385.62549
      1579.57449         0.000 0
 114398616.011 6  21769333.504 6     -2818.633 6  89141792.83947  21769337.30947
     -2196.40647         0.000 0
 123065683.145 5  23418618.578 5      3149.420 5  95895346.15946  23418622.41446
      2454.04946         0.000 0
 120315134.860 6  22895209.363 6      1409.947 6  93752062.49847  22895209.77747
      1098.52047         0.000 0
 132425697.784 2  25199773.020 2      2543.697 2 103188888.67343  25199781.70743
      1981.97743         0.000 0
 107459475.740 7  20448859.496 7       130.941 7  83734666.78949  20448861.52749
       101.93649         0.000 0
 122125280.947 6  23239670.109 6     -3367.539 6  95162576.14147  23239676.83647
     -2624.00447         0.000 0
 122882678.133 6  22955517.625 6      2387.094 6  95575465.805 6         0.000 0
      1857.598 6  22955524.211 6
 122376719.467 5  22909180.230 5     -4494.273 5         0.000 0         0.000 0
         0.000 0         0.000 0
 104663853.088 5  19600176.375 5     -1317.531 5  81405246.217 5         0.000 0
     -1025.563 5  19600185.539 5
 112134008.289 6  21036052.590 6      2770.328 6  87215393.318 8         0.000 0
      2154.820 8  21036065.480 8
 114550386.867 6  21459147.117 6     -3194.896 6  89094776.579 8         0.000 0
     -2485.477 8  21459156.711 8
 103348269.033 8  19319868.902 8       299.242 8  80382014.491 6         0.000 0
       231.834 6  19319877.066 6
 116592884.058 3  21803461.070 3      3056.805 3  90683395.845 4         0.000 0
      2377.842 4  21803464.508 4
 18  5 22 20  0 38.0000000  0 19G 1G 3G 7G 8G11G17G18G19G22G24G28G30
                                R 7R12R13R14R22R23R24
 108097332.014 8  20570239.250 8     -1272.301 8  84231713.34349  20570245.81649
      -991.21349         0.000 0
 122436887.716 6  23298962.133 6      2941.021 6  95405388.28047  23298969.01647
      2291.69947         0.000 0
 131030590.549 5  24934293.457 5     -3777.127 5 102101769.79343  24934295.73443
     -2943.06843         0.000 0
 128441855.660 6  24441675.191 6     -3097.088 6 100084585.69246  24441683.00446
     -2413.30346         0.000 0
 110801505.035 7  21084826.277 7     -2183.416 7  86338847.52148  21084828.91048
     -1701.23248         0.000 0
 115663313.561 8  22009996.969 8      2027.018 8  90127272.95749  22010000.32049
      1579.76649         0.000 0
 114401434.641 6  21769869.695 6     -2818.494 6  89143989.15847  21769873.98847
     -2196.27147         0.000 0
 123062532.960 4  23418019.051 4      3150.826 4  95892891.49346  23418021.73846
      2455.19546         0.000 0
 120313724.783 6  22894940.375 6      1409.791 6  93750963.72747  22894941.42247
      1098.57447         0.000 0
 132423154.192 2  25199288.680 2      2543.814 2 103186906.64943  25199297.50843
      1982.40243         0.000 0
 107459344.382 7  20448834.625 7       131.469 7  83734564.43449  20448836.98449
       102.32449         0.000 0
 122128649.063 6  23240311.188 6     -3368.104 6  95165200.66747  23240317.16847
     -2624.55347         0.000 0
 122880291.521 5  22955070.762 5      2386.148 5  95573609.565 6         0.000 0
      1855.229 6  22955079.500 6
 122381214.313 5  22910024.031 5     -4495.352 5         0.000 0         0.000 0
         0.000 0         0.000 0
 104665170.711 5  19600421.465 5     -1317.482 5  81406270.996 6         0.000 0
     -1024.156 6  19600431.348 6
 112131238.536 6  21035534.398 6      2769.701 6  87213239.070 8         0.000 0
      2154.086 8  21035549.438 8
 114553581.899 6  21459743.555 6     -3194.893 6  89097261.651 7         0.000 0
     -2486.115 7  21459753.723 7
 103347969.855 8  19319812.918 8       299.281 8  80381781.797 6         0.000 0
       232.855 6  19319818.363 6
 116589827.690 3  21802885.156 3      3056.699 3  90681018.707 4         0.000 0
      2376.467 4  21802897.047 4
 18  5 22 20  0 39.0000000  0 19G 1G 3G 7G 8G11G17G18G19G22G24G28G30
                                R 7R12R13R14R22R23R24
 108098604.909 8  20570482.031 8     -1273.217 8  84232705.21549  20570487.91449
      -992.10549         0.000 0
 122433946.061 6  23298402.887 6      2941.082 6  95403096.09147  23298409.85547
      2291.70547         0.000 0
 131034366.641 4  24935011.734 4     -3776.090 4 102104712.18942  24935015.27042
     -2942.32242         0.000 0
 128444952.072 6  24442264.688 6     -3096.402 6 100086998.50946  24442272.28546
     -2412.86946         0.000 0
 110803687.767 7  21085242.484 7     -2183.197 7  86340548.35448  21085244.90248
     -1701.30548         0.000 0
 115661286.876 8  22009611.148 8      2026.355 8  90125693.73349  22009613.99649
      1579.04949         0.000 0
 114404253.912 6  21770406.242 6     -2820.072 6  89146185.98047  21770410.53547
     -2197.36147         0.000 0
 123059383.018 5  23417420.164 5      3149.795 5  95890436.98846  23417422.82846
      2454.30346         0.000 0
 120312315.146 6  22894672.035 6      1409.305 6  93749865.34147  22894673.66447
      1098.01247         0.000 0
 132420611.126 2  25198805.129 2      2541.668 2 103184925.00043  25198813.02743
      1980.55343         0.000 0
 107459213.770 7  20448809.395 7       130.262 7  83734462.65949  20448811.31349
       101.52749         0.000 0
 122132017.145 6  23240951.766 6     -3368.746 6  95167825.13347  23240958.76247
     -2624.90047         0.000 0
 122877905.460 5  22954624.551 5      2385.512 5  95571753.755 6         0.000 0
      1855.471 6  22954631.711 6
 122385708.924 5  22910864.328 5     -4494.641 5         0.000 0         0.000 0
         0.000 0         0.000 0
 104666489.479 5  19600670.930 5     -1319.547 5  81407296.729 5         0.000 0
     -1026.182 5  19600680.383 5
 112128469.764 6  21035014.707 6      2768.223 6  87211085.565 8         0.000 0
      2153.488 8  21035027.598 8
 114556777.336 6  21460342.793 6     -3195.529 6  89099746.942 8         0.000 0
     -2484.975 8  21460352.676 8
 103347671.645 8  19319756.727 8       297.473 8  80381549.847 6         0.000 0
       231.242 6  19319763.316 6
 116586771.612 3  21802314.191 3      3055.887 3  90678641.714 4         0.000 0
      2375.869 4  21802325.648 4
 18  5 22 20  0 40.0000000  0 19G 1G 3G 7G 8G11G17G18G19G22G24G28G30
                                R 7R12R13R14R22R23R24
 108099878.299 9  20570723.988 9     -1274.588 9  84233697.46649  20570730.15649
      -993.08649         0.000 0
 122431005.151 6  23297843.242 6      2940.203 6  95400804.49147  23297849.94147
      2291.21547         0.000 0
 131038143.158 4  24935731.336 4     -3776.152 4 102107654.96342  24935734.42642
     -2942.56142         0.000 0
 128448048.846 6  24442853.930 6     -3097.596 6 100089411.57846  24442861.61346
     -2413.65446         0.000 0
 110805870.897 7  21085657.297 7     -2184.725 7  86342249.51649  21085660.10249
     -1702.18849         0.000 0
 115659260.057 8  22009225.648 8      2026.119 8  90124114.36749  22009228.92649
      1578.77349         0.000 0
 114407073.480 6  21770943.113 6     -2821.053 6  89148383.07947  21770947.80947
     -2198.22347         0.000 0
 123056232.954 5  23416820.742 5      3149.715 5  95887982.39446  23416822.38746
      2454.34046         0.000 0
 120310906.307 6  22894404.156 6      1407.760 6  93748767.50447  22894405.65647
      1096.95547         0.000 0
 132418068.012 2  25198321.039 2      2542.408 2 103182943.36143  25198328.23443
      1981.23443         0.000 0
 107459083.444 7  20448785.059 7       129.730 7  83734361.10049  20448787.05149
       101.07649         0.000 0
 122135385.646 6  23241593.379 6     -3368.340 6  95170449.94647  23241599.10247
     -2624.68947         0.000 0
 122875520.254 6  22954179.234 6      2383.584 6  95569898.566 6         0.000 0
      1854.650 6  22954186.109 6
 122390204.171 5  22911705.809 5     -4495.715 5         0.000 0         0.000 0
         0.000 0         0.000 0
 104667808.902 5  19600920.004 5     -1320.477 5  81408322.966 5         0.000 0
     -1026.615 5  19600925.016 5
 112125701.143 6  21034495.770 6      2767.639 6  87208932.219 8         0.000 0
      2153.064 8  21034509.805 8
 114559972.833 6  21460941.352 6     -3197.059 6  89102232.343 8         0.000 0
     -2486.334 8  21460953.383 8
 103347373.597 8  19319701.145 8       296.943 8  80381318.020 6         0.000 0
       230.938 6  19319708.879 6
 116583715.666 4  21801743.547 4      3055.658 4  90676264.889 4         0.000 0
      2376.125 4  21801751.281 4
 18  5 22 20  0 41.0000000  0 19G 1G 3G 7G 8G11G17G18G19G22G24G28G30
                                R 7R12R13R14R22R23R24
 108101152.531 8  20570965.750 8     -1274.732 8  84234690.36549  20570972.05949
      -993.11549         0.000 0
 122428064.075 6  23297282.973 6      2940.389 6  95398512.72247  23297291.11747
      2291.18647         0.000 0
 131041918.361 5  24936449.879 5     -3775.555 5 102110596.71842  24936453.74242
     -2942.16042         0.000 0
 128451146.087 5  24443442.402 5     -3096.922 5 100091825.01846  24443450.58646
     -2413.21546         0.000 0
 110808054.868 7  21086073.059 7     -2184.752 7  86343951.31049  21086075.66449
     -1702.39349         0.000 0
 115657233.275 8  22008839.668 8      2026.346 8  90122535.08749  22008842.75849
      1578.87949         0.000 0
 114409894.198 6  21771478.930 6     -2820.672 6  89150581.02147  21771484.53947
     -2197.84447         0.000 0
 123053082.731 5  23416221.121 5      3149.609 5  95885527.65146  23416223.57046
      2454.50646         0.000 0
 120309497.979 6  22894135.938 6      1408.201 6  93747670.11447  22894136.76647
      1097.19947         0.000 0
 132415526.403 2  25197837.035 2      2541.619 2 103180962.92243  25197843.61743
      1980.57843         0.000 0
 107458953.373 7  20448759.953 7       129.371 7  83734259.76349  20448762.32849
       100.79149         0.000 0
 122138753.172 6  23242233.508 6     -3368.211 6  95173073.97947  23242240.57847
     -2624.46547         0.000 0
 122873136.250 5  22953735.578 5      2383.932 5  95568044.400 6         0.000 0
      1853.334 6  22953745.035 6
 122394698.442 5  22912546.801 5     -4494.879 5         0.000 0         0.000 0
         0.000 0         0.000 0
 104669128.703 5  19601165.723 5     -1320.891 5  81409349.429 5         0.000 0
     -1026.506 5  19601174.176 5
 112122933.746 6  21033977.637 6      2766.910 6  87206779.767 8         0.000 0
      2152.234 8  21033990.098 8
 114563169.396 6  21461539.996 6     -3196.615 6  89104718.530 7         0.000 0
     -2485.463 7  21461552.602 7
 103347076.170 8  19319644.074 8       296.820 8  80381086.685 6         0.000 0
       231.125 6  19319654.676 6
 116580659.448 3  21801170.270 3      3055.125 3  90673887.793 4         0.000 0
      2376.955 4  21801180.438 4
 18  5 22 20  0 42.0000000  0 19G 1G 3G 7G 8G11G17G18G19G22G24G28G30
                                R 7R12R13R14R22R23R24
 108102427.214 9  20571208.801 9     -1276.336 9  84235683.62349  20571215.05549
      -994.53149         0.000 0
 122425122.961 6  23296723.852 6      2940.877 6  95396220.95047  23296731.00847
      2291.56447         0.000 0
 131045693.234 5  24937167.566 5     -3774.697 5 102113538.18542  24937170.87142
     -2941.52542         0.000 0
 128454243.223 6  24444032.594 6     -3097.822 6 100094238.36746  24444039.64846
     -2413.88946         0.000 0
 110810239.172 7  21086488.824 7     -2185.906 7  86345653.36049  21086490.88349
     -1703.34249         0.000 0
 115655206.665 8  22008454.117 8      2025.816 8  90120955.88449  22008456.75049
      1578.51849         0.000 0
 114412715.215 6  21772016.750 6     -2822.859 6  89152779.23247  21772019.92647
     -2199.76847         0.000 0
 123049932.577 5  23415621.508 5      3149.744 5  95883072.99246  23415623.85246
      2454.43846         0.000 0
 120308090.010 6  22893868.293 6      1406.422 6  93746573.02447  22893869.84047
      1095.86147         0.000 0
 132412985.240 2  25197354.039 2      2540.660 2 103178982.75943  25197360.29343
      1979.80743         0.000 0
 107458823.641 7  20448734.566 7       128.217 7  83734158.64849  20448736.87149
       100.13749         0.000 0
 122142120.680 6  23242874.785 6     -3367.393 6  95175697.99747  23242881.15247
     -2623.75247         0.000 0
 122870752.766 5  22953290.211 5      2381.938 5  95566190.564 6         0.000 0
      1852.621 6  22953296.227 6
 122399192.588 4  22913388.945 4     -4494.178 4         0.000 0         0.000 0
         0.000 0         0.000 0
 104670449.222 4  19601412.453 4     -1322.064 4  81410376.550 5         0.000 0
     -1028.137 5  19601421.332 5
 112120166.985 6  21033456.926 6      2765.131 6  87204627.911 8         0.000 0
      2150.584 8  21033469.961 8
 114566366.036 6  21462140.078 6     -3198.490 6  89107204.880 8         0.000 0
     -2488.246 8  21462149.246 8
 103346779.203 7  19319590.590 7       295.551 7  80380855.726 6         0.000 0
       230.002 6  19319596.605 6
 116577603.430 4  21800599.000 4      3055.574 4  90671510.915 4         0.000 0
      2376.654 4  21800605.016 4
 18  5 22 20  0 43.0000000  0 19G 1G 3G 7G 8G11G17G18G19G22G24G28G30
                                R 7R12R13R14R22R23R24
 108103703.274 9  20571451.227 9     -1275.619 9  84236677.95849  20571457.95349
      -994.16449         0.000 0
 122422182.867 6  23296164.391 6      2939.717 6  95393929.95547  23296171.83247
      2290.72147         0.000 0
 131049467.888 4  24937885.770 4     -3774.547 4 102116479.44743  24937889.03143
     -2941.29543         0.000 0
 128457341.276 6  24444622.730 6     -3097.377 6 100096652.42946  24444629.42646
     -2413.60046         0.000 0
 110812424.784 7  21086904.531 7     -2185.541 7  86347356.43249  21086907.26649
     -1703.11149         0.000 0
 115653180.158 7  22008068.223 7      2025.418 7  90119376.79149  22008071.25849
      1578.12349         0.000 0
 114415537.571 7  21772553.656 7     -2822.064 7  89154978.46947  21772557.14847
     -2198.77547         0.000 0
 123046782.152 5  23415022.551 5      3150.127 5  95880618.14346  23415023.92246
      2454.64646         0.000 0
 120306683.352 6  22893600.453 6      1407.234 6  93745476.90947  22893601.73847
      1096.36347         0.000 0
 132410444.507 3  25196870.129 3      2541.141 3 103177002.93543  25196877.44143
      1980.07643         0.000 0
 107458694.794 6  20448710.410 6       128.172 6  83734058.25949  20448711.91449
        99.72349         0.000 0
 122145488.249 6  23243515.719 6     -3368.451 6  95178322.09847  23243522.55947
     -2624.65447         0.000 0
 122868370.827 6  22952844.352 6      2382.512 6  95564337.904 6         0.000 0
      1853.086 6  22952851.656 6
 122403687.080 5  22914229.453 5     -4495.533 5         0.000 0         0.000 0
         0.000 0         0.000 0
 104671770.763 5  19601660.840 5     -1321.924 5  81411404.381 5         0.000 0
     -1027.746 5  19601668.719 5
 112117401.001 6  21032937.160 6      2765.299 6  87202476.547 8         0.000 0
      2151.414 8  21032952.055 8
 114569563.735 6  21462739.668 6     -3196.676 6  89109691.938 8         0.000 0
     -2485.955 8  21462749.410 8
 103346483.095 8  19319534.035 8       295.879 8  80380625.422 6         0.000 0
       229.951 6  19319542.773 6
 116574547.395 4  21800027.383 4      3054.586 4  90669133.959 3         0.000 0
      2376.490 3  21800035.262 3
 18  5 22 20  0 44.0000000  0 19G 1G 3G 7G 8G11G17G18G19G22G24G28G30
                                R 7R12R13R14R22R23R24
 108104979.790 8  20571694.375 8     -1275.346 8  84237672.65649  20571700.49649
      -993.67849         0.000 0
 122419242.585 6  23295603.789 6      2941.631 6  95391638.85247  23295611.88747
      2291.94947         0.000 0
 131053242.433 4  24938603.695 4     -3774.410 4 102119420.64642  24938608.10242
     -2941.18042         0.000 0
 128460439.015 6  24445211.875 6     -3097.533 6 100099066.26046  24445218.98446
     -2413.68046         0.000 0
 110814610.603 7  21087320.105 7     -2184.428 7  86349059.66949  21087322.99649
     -1702.37149         0.000 0
 115651154.251 7  22007683.195 7      2026.297 7  90117798.15449  22007685.62949
      1578.93949         0.000 0
 114418360.154 7  21773090.430 7     -2821.889 7  89157177.87547  21773094.76647
     -2198.71947         0.000 0
 123043632.466 5  23414422.742 5      3149.072 5  95878163.84146  23414425.11746
      2453.76646         0.000 0
 120305276.834 6  22893332.473 6      1407.352 6  93744380.91747  22893334.63747
      1096.67447         0.000 0
 132407904.719 1  25196387.227 1      2538.816 1 103175023.92543  25196395.29743
      1978.21943         0.000 0
 107458566.430 7  20448685.832 7       128.836 7  83733958.23749  20448687.86349
       100.30749         0.000 0
 122148856.116 6  23244156.520 6     -3367.846 6  95180946.42047  23244162.55947
     -2624.34447         0.000 0
 122865989.146 5  22952400.797 5      2381.850 5  95562485.506 6         0.000 0
      1853.279 6  22952408.246 6
 122408181.492 5  22915070.832 5     -4493.539 5         0.000 0         0.000 0
         0.000 0         0.000 0
 104673093.364 5  19601909.668 5     -1322.762 5  81412433.086 5         0.000 0
     -1029.291 5  19601915.828 5
 112114636.088 6  21032418.840 6      2764.773 6  87200326.067 8         0.000 0
      2150.494 8  21032431.301 8
 114572761.422 6  21463339.988 6     -3197.260 6  89112179.057 8         0.000 0
     -2486.424 8  21463350.156 8
 103346187.720 8  19319479.355 8       295.781 8  80380395.665 6         0.000 0
       230.555 6  19319488.664 6
 116571492.093 4  21799455.348 4      3055.604 4  90666757.682 4         0.000 0
      2374.693 4  21799465.520 4
 18  5 22 20  0 45.0000000  0 19G 1G 3G 7G 8G11G17G18G19G22G24G28G30
                                R 7R12R13R14R22R23R24
 108106256.418 8  20571937.223 8     -1277.832 8  84238667.42149  20571943.04749
      -995.60949         0.000 0
 122416301.999 6  23295044.609 6      2939.281 6  95389347.45447  23295052.50847
      2290.38947         0.000 0
 131057016.249 5  24939321.324 5     -3772.854 5 102122361.24742  24939325.44542
     -2939.90842         0.000 0
 128463536.473 5  24445800.719 5     -3098.633 5 100101479.86645  24445808.52045
     -2414.61545         0.000 0
 110816796.470 7  21087736.238 7     -2187.051 7  86350762.92649  21087738.78549
     -1704.24449         0.000 0
 115649128.274 7  22007297.441 7      2025.471 7  90116219.47549  22007300.30549
      1578.33849         0.000 0
 114421182.912 7  21773627.762 7     -2824.199 7  89159377.42047  21773632.95747
     -2200.70947         0.000 0
 123040482.653 5  23413823.496 5      3149.398 5  95875709.45946  23413826.44546
      2454.15846         0.000 0
 120303870.281 6  22893065.918 6      1405.178 6  93743284.93347  22893066.69147
      1094.87947         0.000 0
 132405365.604 2  25195904.172 2      2538.811 2 103173045.34743  25195911.18443
      1978.29943         0.000 0
 107458437.910 6  20448662.246 6       127.756 6  83733858.10449  20448664.47749
        99.35249         0.000 0
 122152223.488 6  23244796.594 6     -3367.910 6  95183570.37547  23244803.06347
     -2624.43947         0.000 0
 122863607.842 5  22951954.082 5      2379.656 5  95560633.435 6         0.000 0
      1850.627 6  22951963.391 6
 122412675.341 5  22915913.059 5     -4494.932 5         0.000 0         0.000 0
         0.000 0         0.000 0
 104674416.194 5  19602156.910 5     -1323.645 5  81413461.977 6         0.000 0
     -1029.893 6  19602163.070 6
 112111871.809 6  21031901.938 6      2763.713 6  87198176.056 8         0.000 0
      2149.111 8  21031915.117 8
 114575959.151 7  21463937.719 7     -3199.102 7  89114666.156 7         0.000 0
     -2488.141 7  21463947.031 7
 103345892.417 8  19319423.949 8       294.801 8  80380166.037 6         0.000 0
       228.625 6  19319433.402 6
 116568436.724 4  21798885.168 4      3055.793 4  90664381.254 4         0.000 0
      2376.609 4  21798894.621 4
 18  5 22 20  0 46.0000000  0 19G 1G 3G 7G 8G11G17G18G19G22G24G28G30
                                R 7R12R13R14R22R23R24
 108107534.188 8  20572180.645 8     -1277.045 8  84239663.10449  20572186.71549
      -995.18249         0.000 0
 122413361.759 6  23294484.715 6      2940.518 6  95387056.37547  23294492.51247
      2291.36547         0.000 0
 131060789.891 5  24940038.953 5     -3774.332 5 102125301.68442  24940044.17642
     -2940.84842         0.000 0
 128466634.235 5  24446390.281 5     -3096.598 5 100103893.69245  24446397.87945
     -2412.91645         0.000 0
 110818983.333 7  21088152.371 7     -2186.186 7  86352466.99348  21088155.60548
     -1703.61948         0.000 0
 115647102.949 8  22006911.832 8      2025.010 8  90114641.28549  22006915.35549
      1577.92849         0.000 0
 114424006.617 7  21774165.523 7     -2822.574 7  89161577.71147  21774169.37547
     -2199.32247         0.000 0
 123037333.349 5  23413224.250 5      3147.939 5  95873255.45646  23413226.45346
      2452.98646         0.000 0
 120302464.526 6  22892797.215 6      1406.279 6  93742189.50347  22892799.03147
      1095.87747         0.000 0
 132402827.303 2  25195421.117 2      2539.346 2 103171067.46243  25195428.58643
      1978.59243         0.000 0
 107458310.440 7  20448637.512 7       127.664 7  83733758.76349  20448639.05949
        99.41049         0.000 0
 122155591.121 6  23245437.668 6     -3368.004 6  95186194.46947  23245444.43847
     -2624.38147         0.000 0
 122861227.505 5  22951508.512 5      2381.020 5  95558782.022 6         0.000 0
      1851.938 6  22951516.531 6
 122417169.304 5  22916751.852 5     -4494.021 5         0.000 0         0.000 0
         0.000 0         0.000 0
 104675740.358 5  19602406.160 5     -1324.330 5  81414491.876 5         0.000 0
     -1030.246 5  19602413.465 5
 112109108.718 6  21031383.035 6      2762.982 6  87196026.979 8         0.000 0
      2149.803 8  21031395.781 8
 114579157.524 6  21464537.598 6     -3197.008 6  89117153.787 8         0.000 0
     -2486.742 8  21464544.902 8
 103345598.334 8  19319368.684 8       294.418 8  80379937.297 6         0.000 0
       228.908 6  19319378.141 6
 116565381.972 4  21798312.691 4      3055.008 4  90662005.315 4         0.000 0
      2376.400 4  21798322.719 4
 18  5 22 20  0 47.0000000  0 19G 1G 3G 7G 8G11G17G18G19G22G24G28G30
                                R 7R12R13R14R22R23R24
 108108811.967 8  20572422.945 8     -1278.090 8  84240658.76149  20572429.59849
      -995.98049         0.000 0
 122410421.154 5  23293925.984 5      2941.094 5  95384765.01147  23293933.69547
      2291.66047         0.000 0
 131064563.679 5  24940756.320 5     -3772.818 5 102128242.28142  24940762.32842
     -2939.96742         0.000 0
 128469731.032 5  24446979.867 5     -3096.061 5 100106306.76745  24446987.02045
     -2412.36945         0.000 0
 110821169.842 7  21088568.387 7     -2186.488 7  86354170.75248  21088571.97748
     -1703.83248         0.000 0
 115645078.398 7  22006527.105 7      2023.906 7  90113063.72949  22006530.15249
      1577.14649         0.000 0
 114426829.914 6  21774702.738 6     -2823.014 6  89163777.67647  21774706.74247
     -2199.63547         0.000 0
 123034184.918 5  23412625.887 5      3147.754 5  95870802.12446  23412627.85946
      2452.69546         0.000 0
 120301058.408 6  22892530.105 6      1406.482 6  93741093.84547  22892532.98047
      1095.95547         0.000 0
 132400289.727 2  25194937.941 2      2536.484 2 103169090.13743  25194945.72343
      1976.50243         0.000 0
 107458183.281 7  20448612.945 7       126.932 7  83733659.67949  20448614.90649
        99.10049         0.000 0
 122158959.448 6  23246079.195 6     -3368.756 6  95188819.13147  23246085.21947
     -2625.02547         0.000 0
 122858846.783 5  22951064.395 5      2381.264 5  95556930.382 6         0.000 0
      1851.723 6  22951072.418 6
 122421663.490 5  22917594.531 5     -4494.326 5         0.000 0         0.000 0
         0.000 0         0.000 0
 104677065.586 5  19602653.707 5     -1325.826 5  81415522.603 5         0.000 0
     -1031.262 5  19602664.164 5
 112106346.544 6  21030864.148 6      2760.744 6  87193878.596 8         0.000 0
      2147.947 8  21030879.047 8
 114582355.303 7  21465134.637 7     -3197.623 7  89119640.914 8         0.000 0
     -2486.762 8  21465144.660 8
 103345304.816 8  19319314.160 8       293.391 8  80379708.967 6         0.000 0
       228.811 6  19319323.469 6
 116562328.374 4  21797744.680 4      3052.164 4  90659630.295 3         0.000 0
      2374.643 3  21797750.695 3
 18  5 22 20  0 48.0000000  0 19G 1G 3G 7G 8G11G17G18G19G22G24G28G30
                                R 7R12R13R14R22R23R24
 108110090.457 8  20572667.043 8     -1280.809 8  84241654.98349  20572673.32449
      -998.04349         0.000 0
 122407480.731 6  23293365.766 6      2938.727 6  95382473.76547  23293373.24647
      2289.81147         0.000 0
 131068337.021 5  24941475.195 5     -3774.168 5 102131182.53842  24941480.32042
     -2940.79942         0.000 0
 128472828.259 6  24447569.246 6     -3098.406 6 100108720.19845  24447576.95745
     -2414.54945         0.000 0
 110823357.067 7  21088984.766 7     -2189.520 7  86355875.10048  21088987.00048
     -1706.09248         0.000 0
 115643053.982 8  22006141.168 8      2022.574 8  90111486.25749  22006144.35949
      1576.11749         0.000 0
 114429654.087 7  21775239.887 7     -2825.652 7  89165978.34848  21775243.42248
     -2201.91248         0.000 0
 123031036.694 4  23412025.457 4      3146.676 4  95868348.96846  23412028.64846
      2451.88146         0.000 0
 120299652.882 6  22892262.793 6      1404.174 6  93739998.61447  22892264.12547
      1094.20347         0.000 0
 132397753.245 3  25194455.703 3      2535.699 3 103167113.64643  25194462.66043
      1975.96343         0.000 0
 107458056.438 7  20448588.891 7       124.721 7  83733560.85049  20448591.37949
        97.19149         0.000 0
 122162327.508 6  23246720.516 6     -3369.578 6  95191443.60647  23246726.51247
     -2625.60447         0.000 0
 122856467.152 6  22950619.785 6      2378.773 6  95555079.519 6         0.000 0
      1849.873 6  22950627.520 6
 122426157.431 5  22918433.563 5     -4495.229 5         0.000 0         0.000 0
         0.000 0         0.000 0
 104678391.447 5  19602903.055 5     -1328.201 5  81416553.837 5         0.000 0
     -1033.166 5  19602910.504 5
 112103585.337 6  21030347.207 6      2759.469 6  87191731.035 8         0.000 0
      2146.463 8  21030358.234 8
 114585553.743 7  21465735.473 7     -3199.322 7  89122128.557 8         0.000 0
     -2488.563 8  21465745.215 8
 103345011.876 8  19319259.141 8       290.947 8  80379481.163 6         0.000 0
       225.391 6  19319266.875 6
 116559274.841 4  21797173.309 4      3051.314 4  90657255.291 3         0.000 0
      2373.748 3  21797180.469 3
 18  5 22 20  0 49.0000000  0 19G 1G 3G 7G 8G11G17G18G19G22G24G28G30
                                R 7R12R13R14R22R23R24
 108111369.209 8  20572910.902 8     -1279.158 8  84242651.41249  20572916.60949
      -996.78749         0.000 0
 122404540.490 6  23292806.160 6      2940.377 6  95380182.65147  23292813.73047
      2291.22547         0.000 0
 131072110.556 4  24942193.262 4     -3772.891 4 102134123.02142  24942197.88342
     -2939.99042         0.000 0
 128475924.776 6  24448157.813 6     -3097.010 6 100111133.06746  24448165.76646
     -2413.33046         0.000 0
 110825544.192 7  21089401.336 7     -2187.205 7  86357579.34748  21089403.85548
     -1704.22948         0.000 0
 115641029.836 8  22005756.996 8      2024.477 8  90109909.00949  22005759.64549
      1577.62949         0.000 0
 114432477.975 7  21775777.656 7     -2824.236 7  89168178.75948  21775782.09448
     -2200.69348         0.000 0
 123027888.638 4  23411426.215 4      3148.131 4  95865895.92246  23411429.14846
      2453.02146         0.000 0
 120298247.530 6  22891995.383 6      1404.906 6  93738903.55047  22891996.94547
      1094.75847         0.000 0
 132395216.338 2  25193973.086 2      2536.859 2 103165136.85943  25193979.42243
      1976.73043         0.000 0
 107457930.086 7  20448564.449 7       126.078 7  83733462.37849  20448567.34049
        98.23449         0.000 0
 122165696.249 6  23247360.738 6     -3368.984 6  95194068.57147  23247367.80547
     -2625.12747         0.000 0
 122854087.328 5  22950174.934 5      2378.184 5  95553228.542 6         0.000 0
      1850.236 6  22950183.957 6
 122430651.859 5  22919276.801 5     -4494.668 5         0.000 0         0.000 0
         0.000 0         0.000 0
 104679718.411 5  19603149.445 5     -1326.664 5  81417585.902 5         0.000 0
     -1031.572 5  19603160.043 5
 112100824.439 6  21029828.879 6      2760.402 6  87189583.662 8         0.000 0
      2146.807 8  21029840.480 8
 114588751.593 6  21466333.641 6     -3198.291 6  89124615.801 8         0.000 0
     -2487.457 8  21466343.379 8
 103344719.410 8  19319206.172 8       291.666 8  80379253.666 6         0.000 0
       227.414 6  19319213.336 6
 116556221.891 4  21796599.121 4      3052.697 4  90654880.792 4         0.000 0
      2374.697 4  21796610.293 4
 18  5 22 20  0 50.0000000  0 18G 1G 3G 8G11G17G18G19G22G24G28G30R 7
                                R12R13R14R22R23R24
 108112648.902 8  20573153.215 8     -1279.270 8  84243648.60549  20573159.78149
      -996.99649         0.000 0
 122401600.738 5  23292247.156 5      2940.813 5  95377891.97646  23292254.59846
      2291.52346         0.000 0
 128479021.455 5  24448747.266 5     -3095.834 5 100113546.11345  24448754.13345
     -2412.21145         0.000 0
 110827732.091 7  21089817.074 7     -2187.572 7  86359284.23048  21089820.00848
     -1704.45748         0.000 0
 115639006.107 7  22005370.992 7      2024.758 7  90108332.11849  22005373.96949
      1577.93049         0.000 0
 114435302.465 6  21776314.879 6     -2823.959 6  89170379.72347  21776318.41447
     -2200.60947         0.000 0
 123024740.903 3  23410826.719 3      3148.391 3  95863443.18846  23410829.89546
      2453.43846         0.000 0
 120296842.874 5  22891727.715 5      1405.088 5  93737809.04147  22891729.59047
      1094.94147         0.000 0
 132392679.861 1  25193490.063 1      2537.434 1 103163160.37443  25193496.53143
      1977.28543         0.000 0
 107457804.482 6  20448540.609 6       125.947 6  83733364.55749  20448543.53149
        97.92849         0.000 0
 122169065.272 4  23248002.707 4     -3368.510 4  95196693.83646  23248008.90246
     -2625.00446         0.000 0
 122851708.217 5  22949730.258 5      2379.996 5  95551378.156 6         0.000 0
      1850.482 6  22949738.566 6
 122435146.586 4  22920119.063 4     -4493.953 4         0.000 0         0.000 0
         0.000 0         0.000 0
 104681046.528 3  19603396.863 3     -1327.055 3  81418618.916 5         0.000 0
     -1032.367 5  19603404.313 5
 112098064.305 6  21029311.156 6      2760.197 6  87187436.863 7         0.000 0
      2147.719 7  21029322.758 7
 114591949.755 6  21466932.266 6     -3197.232 6  89127103.277 7         0.000 0
     -2487.264 7  21466941.289 7
 103344427.769 7  19319151.086 7       292.357 7  80379026.806 5         0.000 0
       228.447 5  19319157.961 5
 116553169.352 2  21796030.121 2      3053.553 2  90652506.649 3         0.000 0
      2375.451 3  21796043.012 3
 18  5 22 20  0 51.0000000  0 18G 1G 3G 8G11G17G18G19G22G24G28G30R 7
                                R12R13R14R22R23R24
 108113928.642 8  20573397.301 8     -1280.598 8  84244645.81149  20573403.46949
      -997.88349         0.000 0
 122398661.214 5  23291687.781 5      2939.252 5  95375601.46946  23291695.48046
      2290.40246         0.000 0
 128482117.836 5  24449336.773 5     -3097.023 5 100115958.82745  24449343.45745
     -2413.21545         0.000 0
 110829919.795 6  21090233.160 6     -2188.684 6  86360988.94448  21090236.29348
     -1705.46148         0.000 0
 115636982.960 7  22004985.617 7      2022.570 7  90106755.64148  22004989.10948
      1576.28148         0.000 0
 114438126.828 6  21776852.164 6     -2825.402 6  89172580.48747  21776855.69547
     -2201.63347         0.000 0
 123021593.996 3  23410228.707 3      3146.732 3  95860991.05445  23410231.11345
      2451.96545         0.000 0
 120295438.334 6  22891460.250 6      1403.605 6  93736714.61446  22891462.55546
      1093.70146         0.000 0
 132390144.088 1  25193006.813 1      2535.051 1 103161184.49342  25193014.72742
      1975.40242         0.000 0
 107457679.160 6  20448516.973 6       124.326 6  83733266.90648  20448519.90648
        96.80748         0.000 0
 122172435.305 5  23248643.441 5     -3370.541 5  95199319.84646  23248650.34046
     -2626.34046         0.000 0
 122849329.367 4  22949283.922 4      2377.494 4  95549527.919 5         0.000 0
      1849.320 5  22949292.371 5
 122439642.071 4  22920959.949 4     -4495.654 4         0.000 0         0.000 0
         0.000 0         0.000 0
 104682375.709 4  19603643.195 4     -1330.787 4  81419652.687 5         0.000 0
     -1034.838 5  19603653.797 5
 112095304.878 6  21028795.063 6      2758.947 6  87185290.693 7         0.000 0
      2145.543 7  21028806.379 7
 114595147.559 6  21467530.520 6     -3198.756 6  89129590.450 7         0.000 0
     -2487.232 7  21467539.828 7
 103344136.523 7  19319095.629 7       290.717 7  80378800.339 5         0.000 0
       225.313 5  19319103.652 5
 116550117.408 3  21795458.883 3      3050.406 3  90650133.785 3         0.000 0
      2372.922 3  21795470.629 3
 18  5 22 20  0 52.0000000  0 18G 1G 3G 8G11G17G18G19G22G24G28G30R 7
                                R12R13R14R22R23R24
 108115208.924 8  20573641.367 8     -1279.535 8  84245643.39549  20573647.94949
      -997.07649         0.000 0
 122395721.431 6  23291128.102 6      2940.859 6  95373310.68946  23291136.01646
      2291.46346         0.000 0
 128485214.057 5  24449926.266 5     -3094.146 5 100118371.47745  24449932.53145
     -2411.10245         0.000 0
 110832107.985 7  21090649.078 7     -2187.760 7  86362693.97948  21090653.97348
     -1704.98648         0.000 0
 115634959.798 7  22004601.078 7      2022.578 7  90105179.12149  22004604.55949
      1575.77749         0.000 0
 114440951.744 7  21777390.281 7     -2824.361 7  89174781.68847  21777394.11747
     -2200.80947         0.000 0
 123018446.929 4  23409630.820 4      3146.445 4  95858538.79445  23409632.26645
      2451.83445         0.000 0
 120294034.062 6  22891192.762 6      1404.920 6  93735620.34347  22891195.96547
      1094.54747         0.000 0
 132387608.891 2  25192523.688 2      2536.387 2 103159208.99143  25192533.46143
      1976.36543         0.000 0
 107457554.056 6  20448493.027 6       124.998 6  83733169.38048  20448495.93448
        97.43848         0.000 0
 122175804.699 6  23249284.590 6     -3370.338 6  95201945.29846  23249290.68446
     -2626.33646         0.000 0
 122846951.014 5  22948841.285 5      2380.471 5  95547678.106 6         0.000 0
      1850.945 6  22948851.027 6
 122444136.868 5  22921801.387 5     -4494.377 5         0.000 0         0.000 0
         0.000 0         0.000 0
 104683705.338 4  19603896.098 4     -1330.252 4  81420686.847 5         0.000 0
     -1034.307 5  19603903.258 5
 112092546.244 6  21028276.660 6      2757.918 6  87183145.049 8         0.000 0
      2145.430 8  21028289.121 8
 114598345.696 6  21468131.328 6     -3197.480 6  89132077.877 7         0.000 0
     -2486.408 7  21468140.496 7
 103343845.729 8  19319040.008 8       290.918 8  80378574.167 6         0.000 0
       225.611 6  19319049.031 6
 116547065.781 4  21794887.340 4      3051.586 4  90647760.256 3         0.000 0
      2373.924 3  21794903.668 3
 18  5 22 20  0 53.0000000  0 18G 1G 3G 8G11G17G18G19G22G24G28G30R 7
                                R12R13R14R22R23R24
 108116490.221 8  20573884.883 8     -1281.342 8  84246641.81149  20573890.93849
      -998.54749         0.000 0
 122392782.616 6  23290569.016 6      2939.090 6  95371020.68846  23290576.15646
      2290.14646         0.000 0
 128488310.299 5  24450514.777 5     -3096.480 5 100120784.10345  24450522.21945
     -2412.84445         0.000 0
 110834296.724 7  21091066.309 7     -2187.906 7  86364399.50448  21091069.12948
     -1704.91448         0.000 0
 115632937.596 7  22004216.137 7      2022.840 7  90103603.37448  22004218.95748
      1576.08448         0.000 0
 114443776.995 6  21777927.566 6     -2825.953 6  89176983.20547  21777931.23047
     -2201.90647         0.000 0
 123015300.815 4  23409032.102 4      3146.785 4  95856087.23545  23409034.09045
      2451.96345         0.000 0
 120292630.600 6  22890925.871 6      1404.225 6  93734526.72647  22890928.03147
      1094.15047         0.000 0
 132385073.880 2  25192042.586 2      2535.027 2 103157233.65643  25192050.69943
      1975.14643         0.000 0
 107457430.164 6  20448469.535 6       124.693 6  83733072.85148  20448472.80148
        97.02148         0.000 0
 122179175.561 5  23249926.047 5     -3369.898 5  95204571.94746  23249932.37146
     -2625.98846         0.000 0
 122844573.144 5  22948398.957 5      2377.793 5  95545828.661 6         0.000 0
      1849.275 6  22948406.117 6
 122448632.987 4  22922643.277 4     -4495.566 4         0.000 0         0.000 0
         0.000 0         0.000 0
 104685036.833 4  19604146.723 4     -1331.506 4  81421722.494 5         0.000 0
     -1035.775 5  19604154.027 5
 112089788.397 6  21027758.418 6      2757.043 6  87181000.104 8         0.000 0
      2145.201 8  21027771.883 8
 114601543.806 7  21468731.297 7     -3198.213 7  89134565.225 7         0.000 0
     -2486.484 7  21468739.750 7
 103343556.095 7  19318984.406 7       290.572 7  80378348.930 5         0.000 0
       225.926 5  19318996.008 5
 116544015.900 3  21794316.961 3      3049.924 3  90645387.379 3         0.000 0
      2371.881 3  21794330.570 3
 18  5 22 20  0 54.0000000  0 18G 1G 3G 8G11G17G18G19G22G24G28G30R 7
                                R12R13R14R22R23R24
 108117771.604 8  20574128.508 8     -1282.416 8  84247640.30849  20574134.64849
      -999.35449         0.000 0
 122389843.427 5  23290009.324 5      2937.898 5  95368730.45646  23290016.83646
      2289.34046         0.000 0
 128491406.378 5  24451103.969 5     -3097.242 5 100123196.66245  24451110.86745
     -2413.49645         0.000 0
 110836485.627 7  21091482.648 7     -2189.469 7  86366105.14548  21091485.79748
     -1706.07248         0.000 0
 115630915.148 7  22003831.160 7      2022.059 7  90102027.46348  22003835.09848
      1575.80548         0.000 0
 114446602.471 6  21778465.391 6     -2826.422 6  89179184.85647  21778468.88347
     -2202.20547         0.000 0
 123012154.441 3  23408432.199 3      3145.340 3  95853635.54745  23408435.53145
      2451.11745         0.000 0
 120291227.229 6  22890659.230 6      1402.330 6  93733433.19347  22890660.50447
      1092.83647         0.000 0
 132382539.625 1  25191560.734 1      2532.137 1 103155258.91542  25191567.61742
      1973.07042         0.000 0
 107457306.061 6  20448446.008 6       123.541 6  83732976.14648  20448447.79748
        96.33048         0.000 0
 122182545.793 5  23250567.180 5     -3370.992 5  95207198.10946  23250574.07846
     -2626.85546         0.000 0
 122842195.873 5  22947955.738 5      2376.213 5  95543979.640 6         0.000 0
      1848.354 6  22947962.469 6
 122453128.438 5  22923485.996 5     -4496.385 5         0.000 0         0.000 0
         0.000 0         0.000 0
 104686368.434 4  19604394.457 4     -1332.168 4  81422758.146 5         0.000 0
     -1036.133 5  19604400.902 5
 112087031.178 6  21027241.719 6      2756.029 6  87178855.571 7         0.000 0
      2144.160 7  21027252.750 7
 114604742.031 7  21469328.660 7     -3199.168 7  89137052.785 7         0.000 0
     -2487.758 7  21469336.965 7
 103343266.466 7  19318933.500 7       289.188 7  80378123.616 5         0.000 0
       224.828 5  19318940.375 5
 116540965.325 3  21793747.555 3      3049.555 3  90643014.581 3         0.000 0
      2372.207 3  21793757.008 3
 18  5 22 20  0 55.0000000  0  8G19R 7R12R13R14R22R23R24
 123009007.736 2  23407834.633 2      3147.930 2  95851183.59945  23407836.55145
      2452.96345         0.000 0
 122839818.563 4  22947511.277 4      2377.547 4  95542130.616 5         0.000 0
      1849.072 5  22947518.012 5
 122457622.843 3  22924327.902 3     -4495.660 3         0.000 0         0.000 0
         0.000 0         0.000 0
 104687700.675 3  19604644.242 3     -1330.773 3  81423794.405 5         0.000 0
     -1036.727 5  19604651.402 5
 112084273.482 6  21026724.211 6      2757.631 6  87176710.605 7         0.000 0
      2144.609 7  21026735.242 7
 114607939.746 5  21469927.355 5     -3196.127 5  89139538.907 6         0.000 0
     -2485.703 6  21469938.098 6
 103342976.955 7  19318878.773 7       292.117 7  80377898.432 5         0.000 0
       227.018 5  19318888.367 5
 116537914.682 2  21793178.770 2      3050.869 2  90640641.910 3         0.000 0
      2372.498 3  21793188.223 3
 18  5 22 20  0 56.0000000  0  8G19R 7R12R13R14R22R23R24
 123005862.664 3  23407235.715 3      3144.654 3  95848732.94545  23407237.67645
      2450.47745         0.000 0
 122837441.022 5  22947068.039 5      2377.277 5  95540281.439 5         0.000 0
      1849.027 5  22947075.488 5
 122462119.346 4  22925168.879 4     -4496.125 4         0.000 0         0.000 0
         0.000 0         0.000 0
 104689034.812 3  19604892.957 3     -1334.443 3  81424831.994 5         0.000 0
     -1037.555 5  19604899.977 5
 112081517.465 6  21026207.352 6      2755.740 6  87174567.021 7         0.000 0
      2142.982 7  21026218.813 7
 114611136.977 6  21470525.559 6     -3196.826 6  89142025.677 6         0.000 0
     -2486.648 6  21470534.582 6
 103342688.674 7  19318825.984 7       288.447 7  80377674.197 5         0.000 0
       225.137 5  19318834.293 5
 116534865.911 3  21792606.770 3      3047.729 3  90638270.663 3         0.000 0
      2369.973 3  21792615.363 3
 18  5 22 20  0 57.0000000  0  2G19R14
 123002718.315 3  23406638.129 3      3143.504 3  95846282.72745  23406639.90245
      2449.60045         0.000 0
 112078761.761 6  21025690.254 6      2755.602 6  87172424.556 8         0.000 0
      2143.197 8  21025702.570 8
 18  5 22 20  0 58.0000000  0  2G19R14
 122999574.146 5  23406039.070 5      3143.836 5  95843832.70846  23406040.87546
      2449.69746         0.000 0
 112076007.917 6  21025173.250 6      2753.529 6  87170282.697 8         0.000 0
      2141.531 8  21025185.855 8
 18  5 22 20  0 59.0000000  0  8G19R 7R12R13R14R22R23R24
 122996429.910 3  23405440.375 3      3142.805 3  95841382.72745  23405442.10545
      2448.84645         0.000 0
 122830312.78515  22945734.438 5      2374.084 5  95534737.26315         0.000 0
      1846.31415  22945740.45315
 122475610.12613  22927691.227 3     -4497.145 3         0.000 0         0.000 0
         0.000 0         0.000 0
 104693042.84313  19605642.805 3     -1338.242 3  81427949.36515         0.000 0
     -1040.61315  19605651.82815
 112073254.240 6  21024657.613 6      2751.949 6  87168140.973 7         0.000 0
      2140.520 7  21024670.793 7
 114620730.51316  21472326.016 6     -3199.518 6  89149487.29316         0.000 0
     -2488.21516  21472333.89116
 103341827.61017  19318663.734 7       284.951 7  80377004.47515         0.000 0
       222.02715  19318671.75415
 116525722.22312  21790897.039 2      3045.943 2  90631158.83513         0.000 0
      2368.50813  21790902.19513
 18  5 22 20  1  0.0000000  0  8G19R 7R12R13R14R22R23R24
 122993285.807 2  23404843.074 2      3142.018 2  95838932.69245  23404844.35945
      2448.43845         0.000 0
 122827939.571 4  22945290.816 4      2370.221 4  95532891.335 5         0.000 0
      1843.447 5  22945298.266 5
 122480106.955 2  22928535.402 2     -4498.123 2         0.000 0         0.000 0
         0.000 0         0.000 0
 104694380.845 2  19605894.719 2     -1340.873 2  81428990.186 4         0.000 0
     -1043.309 4  19605899.301 4
 112070502.215 5  21024140.941 5      2749.680 5  87166000.417 7         0.000 0
      2139.611 7  21024154.262 7
 114623930.272 6  21472921.684 6     -3201.324 6  89151975.965 6         0.000 0
     -2489.102 6  21472932.566 6
 103341542.584 6  19318611.133 6       281.820 6  80376782.945 5         0.000 0
       218.971 5  19318618.582 5
 116522674.862 2  21790328.375 2      3044.559 2  90628788.718 3         0.000 0
      2370.076 3  21790336.109 3
 18  5 22 20  1  1.0000000  0  8G19R 7R12R13R14R22R23R24
 122990140.322 4  23404244.730 4      3146.129 4  95836481.71045  23404245.62945
      2451.57245         0.000 0
 122825566.334 5  22944847.293 5      2370.662 5  95531045.649 5         0.000 0
      1845.178 5  22944856.605 5
 122484602.852 4  22929376.668 4     -4494.889 4         0.000 0         0.000 0
         0.000 0         0.000 0
 104695718.057 4  19606144.582 4     -1337.775 4  81430030.069 5         0.000 0
     -1039.977 5  19606151.457 5
 112067749.646 6  21023625.805 6      2751.801 6  87163859.605 7         0.000 0
      2141.127 7  21023636.117 7
 114627129.398 7  21473522.035 7     -3201.078 7  89154464.178 7         0.000 0
     -2489.598 7  21473532.922 7
 103341256.389 8  19318557.203 8       285.875 8  80376560.218 5         0.000 0
       221.912 5  19318567.371 5
 116519625.691 3  21789756.230 3      3050.000 3         0.000 0         0.000 0
         0.000 0         0.000 0
 18  5 22 20  1  2.0000000  0 14G 1G11G17G18G19G28G30R 7R12R13R14R22
                                R23R24
 108128042.846 8  20576082.742 8     -1287.674 8  84255643.84949  20576089.48049
     -1003.14349         0.000 0
 110854010.690 7  21094817.574 7     -2194.568 7  86379760.26448  21094820.83648
     -1710.05748         0.000 0
 115614748.113 8  22000754.996 8      2019.848 8  90089429.76249  22000758.07049
      1574.24249         0.000 0
 114469218.183 7  21782768.047 7     -2831.035 7  89196807.49647  21782773.24247
     -2205.97747         0.000 0
 122986994.639 4  23403646.516 4      3145.063 4  95834030.54746  23403647.35946
      2450.70746         0.000 0
 107456331.094 6  20448261.016 6       119.494 6  83732216.43748  20448263.03548
        92.95148         0.000 0
 122209518.521 5  23255699.340 5     -3370.566 5  95228215.81246  23255706.20746
     -2626.56346         0.000 0
 122823195.158 5  22944405.758 5      2369.883 5  95529201.384 6         0.000 0
      1844.818 6  22944412.203 6
 122489098.117 5  22930217.918 5     -4495.645 5         0.000 0         0.000 0
         0.000 0         0.000 0
 104697056.112 4  19606394.711 4     -1339.145 4  81431070.803 6         0.000 0
     -1041.619 6  19606401.590 6
 112064998.478 6  21023107.785 6      2750.422 6  87161719.790 8         0.000 0
      2139.063 8  21023122.105 8
 114630330.531 7  21474122.082 7     -3202.041 7  89156953.983 7         0.000 0
     -2490.375 7  21474134.113 7
 103340971.481 8  19318502.105 8       284.088 8  80376338.632 6         0.000 0
       220.941 6  19318515.570 6
 116516576.856 3  21789187.363 3      3048.967 3         0.000 0         0.000 0
         0.000 0         0.000 0
 18  5 22 20  1  3.0000000  0 14G 1G11G17G18G19G28G30R 7R12R13R14R22
                                R23R24
 108129330.318 8  20576327.961 8     -1287.539 8  84256647.09049  20576334.70349
     -1003.24449         0.000 0
 110856204.365 7  21095234.934 7     -2194.338 7  86381469.62248  21095237.88348
     -1709.88748         0.000 0
 115612728.107 8  22000371.328 8      2019.631 8  90087855.74649  22000374.44949
      1573.72949         0.000 0
 114472048.614 7  21783307.320 7     -2831.428 7  89199013.02947  21783311.64547
     -2206.44947         0.000 0
 122983849.899 5  23403047.063 5      3144.533 5  95831580.07946  23403049.46946
      2450.39146         0.000 0
 107456211.467 6  20448237.797 6       119.316 6  83732123.22248  20448239.81648
        92.85048         0.000 0
 122212889.461 6  23256341.355 6     -3370.959 6  95230842.52146  23256347.33646
     -2626.62546         0.000 0
 122820823.673 5  22943961.703 5      2369.684 5  95527357.830 6         0.000 0
      1844.148 6  22943971.586 6
 122493593.191 5  22931058.797 5     -4496.352 5         0.000 0         0.000 0
         0.000 0         0.000 0
 104698395.629 4  19606647.051 4     -1341.004 4  81432112.601 5         0.000 0
     -1041.586 5  19606656.934 5
 112062248.481 6  21022592.398 6      2749.734 6  87159580.898 8         0.000 0
      2138.785 8  21022604.715 8
 114633531.644 7  21474723.477 7     -3201.049 7  89159443.697 7         0.000 0
     -2489.658 7  21474732.930 7
 103340687.579 8  19318450.508 8       283.557 8  80376117.778 6         0.000 0
       220.955 6  19318461.250 6
 116513529.059 4  21788616.117 4      3047.967 4         0.000 0         0.000 0
         0.000 0         0.000 0
 18  5 22 20  1  4.0000000  0 14G 1G11G17G18G19G28G30R 7R12R13R14R22
                                R23R24
 108130618.173 8  20576572.621 8     -1288.186 8  84257650.63149  20576579.54749
     -1003.73649         0.000 0
 110858398.336 7  21095652.734 7     -2195.002 7  86383179.21348  21095656.02348
     -1710.69148         0.000 0
 115610707.788 8  21999985.668 8      2020.686 8  90086281.47349  21999989.00049
      1574.48849         0.000 0
 114474879.536 7  21783846.035 7     -2831.645 7  89201218.95347  21783850.91447
     -2206.49247         0.000 0
 122980704.808 5  23402448.340 5      3145.197 5  95829129.32146  23402450.64146
      2450.99446         0.000 0
 107456091.752 6  20448215.160 6       119.590 6  83732029.92749  20448217.21949
        93.27549         0.000 0
 122216259.792 6  23256982.809 6     -3369.262 6  95233468.72547  23256989.80547
     -2625.30147         0.000 0
 122818453.545 5  22943518.801 5      2368.908 5  95525514.399 6         0.000 0
      1842.195 6  22943527.395 6
 122498088.242 4  22931898.824 4     -4495.314 4         0.000 0         0.000 0
         0.000 0         0.000 0
 104699735.258 4  19606894.527 4     -1339.803 4  81433154.558 5         0.000 0
     -1042.275 5  19606906.559 5
 112059499.000 6  21022078.313 6      2748.506 6  87157442.461 8         0.000 0
      2138.125 8  21022088.766 8
 114636733.165 7  21475323.016 7     -3202.967 7  89161933.780 7         0.000 0
     -2490.881 7  21475332.328 7
 103340403.744 8  19318396.910 8       283.811 8  80375897.048 6         0.000 0
       220.688 6  19318405.219 6
 116510480.943 5  21788045.453 5      3048.598 5         0.000 0         0.000 0
         0.000 0         0.000 0
 18  5 22 20  1  5.0000000  0 14G 1G11G17G18G19G28G30R 7R12R13R14R22
                                R23R24
 108131907.521 8  20576818.438 8     -1289.918 8  84258655.29349  20576824.78949
     -1005.20349         0.000 0
 110860593.845 7  21096070.832 7     -2195.328 7  86384889.98448  21096073.44948
     -1710.85048         0.000 0
 115608687.722 8  21999601.734 8      2020.184 8  90084707.38249  21999605.08249
      1574.15449         0.000 0
 114477712.262 7  21784385.188 7     -2833.006 7  89203426.27347  21784390.16847
     -2207.70547         0.000 0
 122977559.415 5  23401849.625 5      3145.984 5  95826678.37546  23401852.48846
      2451.38146         0.000 0
 107455972.801 6  20448192.105 6       118.385 6  83731937.22949  20448195.16849
        92.27749         0.000 0
 122219628.966 6  23257624.703 6     -3370.076 6  95236094.08747  23257630.51247
     -2626.27947         0.000 0
 122816085.160 5  22943076.344 5      2367.684 5  95523672.389 6         0.000 0
      1842.230 6  22943083.504 6
 122502582.071 3  22932744.594 3     -4494.684 3         0.000 0         0.000 0
         0.000 0         0.000 0
 104701075.526 4  19607148.176 4     -1341.027 4  81434196.974 6         0.000 0
     -1043.002 6  19607157.773 6
 112056751.160 6  21021561.227 6      2747.494 6  87155305.254 8         0.000 0
      2136.520 8  21021572.113 8
 114639936.328 7  21475922.570 7     -3203.783 7  89164425.151 7         0.000 0
     -2491.646 7  21475929.730 7
 103340121.034 8  19318344.328 8       282.701 8  80375677.161 6         0.000 0
       220.197 6  19318352.922 6
 116507432.462 4  21787477.234 4      3048.447 4         0.000 0         0.000 0
         0.000 0         0.000 0
 18  5 22 20  1  6.0000000  0 14G 1G11G17G18G19G28G30R 7R12R13R14R22
                                R23R24
 108133197.556 8  20577063.926 8     -1290.045 8  84259660.52849  20577070.37949
     -1005.31449         0.000 0
 110862789.933 7  21096487.602 7     -2196.607 7  86386601.21548  21096491.56648
     -1711.50848         0.000 0
 115606667.716 8  21999217.336 8      2020.193 8  90083133.35649  21999220.68449
      1574.31649         0.000 0
 114480545.260 7  21784923.875 7     -2832.547 7  89205633.80948  21784929.08248
     -2207.21148         0.000 0
 122974414.129 5  23401251.590 5      3145.801 5  95824227.52547  23401253.02047
      2451.31147         0.000 0
 107455854.499 6  20448170.016 6       118.668 6  83731845.04949  20448172.52049
        92.45949         0.000 0
 122222999.321 6  23258265.840 6     -3370.906 6  95238720.30947  23258272.09447
     -2626.82047         0.000 0
 122813717.627 5  22942634.418 5      2367.910 5  95521830.976 6         0.000 0
      1841.809 6  22942641.438 6
 122507077.384 3  22933583.164 3     -4495.805 3         0.000 0         0.000 0
         0.000 0         0.000 0
 104702417.008 4  19607398.348 4     -1342.109 4  81435240.403 6         0.000 0
     -1043.971 6  19607410.809 6
 112054003.276 6  21021044.680 6      2748.131 6  87153168.004 8         0.000 0
      2137.719 8  21021059.148 8
 114643139.376 7  21476521.656 7     -3202.658 7  89166916.412 7         0.000 0
     -2490.545 7  21476530.824 7
 103339838.767 8  19318291.566 8       281.404 8  80375457.589 6         0.000 0
       220.086 6  19318302.453 6
 116504384.492 4  21786907.406 4      3047.346 4         0.000 0         0.000 0
         0.000 0         0.000 0
 18  5 22 20  1  7.0000000  0 14G 1G11G17G18G19G28G30R 7R12R13R14R22
                                R23R24
 108134488.345 8  20577309.219 8     -1291.059 8  84260666.35849  20577315.85549
     -1006.08449         0.000 0
 110864986.686 7  21096906.035 7     -2197.328 7  86388313.01248  21096908.73848
     -1712.27748         0.000 0
 115604646.892 7  21998832.305 7      2020.742 7  90081558.72449  21998835.53949
      1574.60049         0.000 0
 114483379.205 7  21785463.363 7     -2834.594 7  89207842.08547  21785467.86747
     -2208.78147         0.000 0
 122971267.781 5  23400652.781 5      3146.816 5  95821775.87046  23400655.72746
      2452.16046         0.000 0
 107455736.169 6  20448147.723 6       118.514 6  83731752.86348  20448149.77048
        92.37348         0.000 0
 122226369.151 5  23258905.781 5     -3368.598 5  95241346.20347  23258912.69147
     -2624.79747         0.000 0
 122811351.613 5  22942191.859 5      2364.879 5  95519990.715 5         0.000 0
      1840.197 5  22942200.883 5
 122511572.744 4  22934426.539 4     -4494.633 4         0.000 0         0.000 0
         0.000 0         0.000 0
 104703758.614 4  19607649.316 4     -1341.277 4  81436283.838 5         0.000 0
     -1043.156 5  19607657.051 5
 112051255.264 6  21020528.500 6      2746.725 6  87151030.639 7         0.000 0
      2135.691 7  21020543.684 7
 114646343.104 7  21477121.539 7     -3204.408 7  89169408.223 7         0.000 0
     -2493.238 7  21477132.566 7
 103339556.367 7  19318240.027 7       281.486 7  80375237.975 5         0.000 0
       219.348 5  19318247.762 5
 116501335.674 4  21786333.215 4      3049.100 4         0.000 0         0.000 0
         0.000 0         0.000 0
 18  5 22 20  1  8.0000000  0 17G 1G 3G 8G17G18G19G22G24G28G30R 7R12
                                R13R14R22R23R24
 108135779.903 7  20577555.199 7     -1291.139 7  84261672.75849  20577561.66849
     -1006.17849         0.000 0
 122348721.616 3  23282184.270 3      2934.566 3  95336687.94246  23282191.18046
      2286.67646         0.000 0
 128534762.097 2  24459353.719 2     -3098.270 2 100156981.79944  24459360.85544
     -2414.30544         0.000 0
 115602627.405 6  21998448.113 6      2021.656 6  90079985.08949  21998451.77349
      1575.05549         0.000 0
 114486213.576 5  21786002.684 5     -2827.857 5  89210050.68847  21786006.69147
     -2203.63947         0.000 0
 122968122.709 2  23400054.520 2      3141.793 2  95819325.13846  23400056.42646
      2448.23846         0.000 0
 120271634.438 4  22886931.324 4      1400.777 4  93718167.35746  22886930.85246
      1091.42246         0.000 0
 132347119.636 1  25184820.891 1      2527.164 1         0.000 0         0.000 0
         0.000 0         0.000 0
 107455618.813 5  20448124.836 5       121.557 5  83731661.38948  20448128.12948
        94.70148         0.000 0
 122229738.991 2  23259547.410 2     -3372.762 2  95243972.01646  23259553.78146
     -2628.23046         0.000 0
 122808986.112 3  22941749.711 3      2364.293 3  95518150.914 4         0.000 0
      1836.553 4  22941759.020 4
 122516067.405 1  22935267.750 1     -4496.096 1         0.000 0         0.000 0
         0.000 0         0.000 0
 104705101.114 2  19607901.844 2     -1344.674 2  81437327.841 4         0.000 0
     -1044.730 4  19607915.164 4
 112048509.195 5  21020014.305 5      2747.508 5  87148894.908 6         0.000 0
      2135.758 6  21020023.473 6
 114649547.187 6  21477725.559 6     -3203.354 6  89171900.257 6         0.000 0
     -2490.596 6  21477732.434 6
 103339275.402 6  19318187.758 6       282.641 6  80375019.470 5         0.000 0
       210.840 5  19318195.922 5
 116498288.026 2  21785763.305 2      3042.559 2         0.000 0         0.000 0
         0.000 0         0.000 0
 18  5 22 20  1  9.0000000  0  5G17R 7R14R22R23
 115600607.109 6  21998063.871 6      2020.738 6  90078410.88747  21998065.67247
      1575.02147         0.000 0
 122806619.094 3  22941310.094 3      2366.813 3  95516309.995 4         0.000 0
      1840.143 4  22941316.684 4
 112045762.554 5  21019499.348 5      2746.756 5  87146758.620 6         0.000 0
      2135.561 6  21019511.094 6
 114652750.703 5  21478325.375 5     -3202.254 5  89174392.117 5         0.000 0
     -2491.041 5  21478337.262 5
 103338994.167 6  19318136.156 6       282.123 6         0.000 0         0.000 0
         0.000 0         0.000 0
 18  5 22 20  1 10.0000000  0  4R 7R14R22R23
 122804254.177 5  22940868.922 5      2366.027 5  95514470.632 5         0.000 0
      1839.770 5  22940874.652 5
 112043016.596 6  21018985.129 6      2744.840 6  87144622.786 7         0.000 0
      2135.482 7  21018996.301 7
 114655954.432 6  21478923.207 6     -3203.703 6  89176883.860 7         0.000 0
     -2491.219 7  21478934.523 7
 103338713.253 7  19318081.281 7       279.795 7         0.000 0         0.000 0
         0.000 0         0.000 0
 18  5 22 20  1 11.0000000  0  2R14R23
 112040272.615 6  21018471.176 6      2744.307 6  87142488.634 7         0.000 0
      2134.242 7  21018484.211 7
 103338433.984 7  19318030.254 7       278.832 7         0.000 0         0.000 0
         0.000 0         0.000 0
 18  5 22 20  1 12.0000000  0  2R14R23
 112037529.769 6  21017956.168 6      2743.859 6  87140355.319 7         0.000 0
      2132.900 7  21017969.348 7
 103338156.070 8  19317977.168 8       278.053 8         0.000 0         0.000 0
         0.000 0         0.000 0
 18  5 22 20  1 13.0000000  0  4R 7R14R22R23
 122797162.53514  22939539.852 4      2363.904 4  95508953.98115         0.000 0
      1838.18915  22939549.73815
 112034786.071 6  21017439.352 6      2742.953 6  87138221.289 8         0.000 0
      2133.512 8  21017451.523 8
 114665565.71717  21480722.895 7     -3203.715 7  89184359.33416         0.000 0
     -2492.31116  21480731.91816
 103337877.231 7  19317925.426 7       277.828 7         0.000 0         0.000 0
         0.000 0         0.000 0
 18  5 22 20  1 14.0000000  0 14G 1G17G18G19G22G28G30R 7R12R13R14R22
                                R23R24
 108143539.626 7  20579031.496 7     -1293.553 7  84267719.74649  20579037.97749
     -1008.08049         0.000 0
 115590516.624 6  21996142.629 6      2018.402 6  90070548.15748  21996146.98048
      1572.76248         0.000 0
 114503222.028 5  21789238.867 5     -2834.609 5  89223303.99146  21789241.93046
     -2208.90246         0.000 0
 122949247.450 2  23396463.934 2      3141.158 2         0.000 0         0.000 0
         0.000 0         0.000 0
 120263265.986 5  22885339.156 5      1393.422 5         0.000 0         0.000 0
         0.000 0         0.000 0
 107454923.646 4  20447993.066 4       113.947 4  83731119.71647  20447995.64147
        88.71947         0.000 0
 122249983.278 2  23263398.176 2     -3372.539 2         0.000 0         0.000 0
         0.000 0         0.000 0
 122794798.223 3  22939099.797 3      2363.592 3  95507115.051 5         0.000 0
      1839.168 5  22939107.242 5
 122543046.185 1  22940317.266 1     -4496.451 1         0.000 0         0.000 0
         0.000 0         0.000 0
 104713181.434 2  19609416.254 2     -1346.742 2  81443617.780 5         0.000 0
     -1046.025 5  19609420.980 5
 112032043.375 5  21016925.383 5      2741.896 5  87136088.070 7         0.000 0
      2133.201 7  21016939.277 7
 114668768.455 6  21481322.273 6     -3202.152 6  89186850.363 6         0.000 0
     -2490.861 6  21481335.164 6
 103337599.389 6  19317873.098 6       278.180 6  80373719.890 5         0.000 0
       215.514 5  19317881.547 5
 116480014.954 2  21782349.391 2      3043.457 2         0.000 0         0.000 0
         0.000 0         0.000 0
 18  5 22 20  1 15.0000000  0 13G 1G17G18G19G22G28G30R 7R13R14R22R23
                                R24
 108144834.259 8  20579277.613 8     -1294.619 8  84268728.55449  20579284.43849
     -1008.86149         0.000 0
 115588499.981 7  21995759.715 7      2016.303 7  90068976.71848  21995762.56348
      1571.06448         0.000 0
 114506057.184 6  21789778.180 6     -2834.875 6  89225513.20846  21789781.01246
     -2209.21346         0.000 0
 122946105.468 2  23395865.949 2      3140.328 2         0.000 0         0.000 0
         0.000 0         0.000 0
 120261873.198 6  22885074.148 6      1392.846 6  93710560.08143  22885075.79743
      1085.45743         0.000 0
 107454809.732 5  20447970.883 5       113.977 5  83731030.96847  20447973.50447
        89.10947         0.000 0
 122253357.436 4  23264040.371 4     -3374.113 4         0.000 0         0.000 0
         0.000 0         0.000 0
 122792434.380 5  22938658.496 5      2365.260 5  95505276.550 6         0.000 0
      1838.719 6  22938664.801 6
 104714531.432 2  19609669.773 2     -1350.619 2  81444667.711 5         0.000 0
     -1050.791 5  19609677.797 5
 112029301.584 6  21016411.324 6      2740.793 6  87133955.559 7         0.000 0
      2132.674 7  21016423.930 7
 114671971.356 7  21481923.129 7     -3202.750 7  89189341.494 7         0.000 0
     -2490.764 7  21481933.301 7
 103337322.419 7  19317820.531 7       276.803 7  80373504.461 5         0.000 0
       215.102 5  19317828.836 5
 116476972.389 2  21781780.188 2      3042.059 2         0.000 0         0.000 0
         0.000 0         0.000 0
 18  5 22 20  1 16.0000000  0 13G 1G17G18G19G22G28G30R 7R13R14R22R23
                                R24
 108146129.063 7  20579523.934 7     -1294.945 7  84269737.48649  20579529.89849
     -1009.13149         0.000 0
 115586483.019 7  21995375.859 7      2016.932 7  90067405.06448  21995378.89148
      1571.43848         0.000 0
 114508892.636 6  21790318.125 6     -2836.080 6  89227722.64446  21790321.78546
     -2209.85446         0.000 0
 122942963.213 3  23395267.883 3      3144.197 3  95799720.69943  23395270.17243
      2449.87543         0.000 0
 120260480.619 5  22884808.344 5      1392.301 5  93709474.92945  22884810.13345
      1084.83645         0.000 0
 107454695.638 5  20447949.195 5       114.313 5  83730942.08147  20447951.14147
        89.01647         0.000 0
 122256731.194 4  23264682.055 4     -3372.623 4         0.000 0         0.000 0
         0.000 0         0.000 0
 122790071.197 4  22938216.254 4      2362.914 4  95503438.543 5         0.000 0
      1837.824 5  22938226.852 5
 104715882.148 3  19609920.773 3     -1349.492 3  81445718.264 5         0.000 0
     -1049.533 5  19609930.082 5
 112026560.242 6  21015898.609 6      2741.498 6  87131823.425 7         0.000 0
      2132.438 7  21015909.926 7
 114675174.331 6  21482522.898 6     -3203.814 6  89191832.657 6         0.000 0
     -2490.613 6  21482535.789 6
 103337045.412 7  19317769.594 7       276.984 7  80373289.007 5         0.000 0
       216.408 5  19317779.766 5
 116473929.189 3  21781211.895 3      3043.699 3         0.000 0         0.000 0
         0.000 0         0.000 0
 18  5 22 20  1 17.0000000  0 13G 1G17G18G19G22G28R 7R12R13R14R22R23
                                R24
 108147425.507 6  20579770.441 6     -1296.352 6  84270747.73449  20579778.29749
     -1010.35949         0.000 0
 115584466.086 6  21994991.477 6      2018.203 6  90065833.42748  21994995.18448
      1572.59248         0.000 0
 114511729.703 5  21790857.973 5     -2837.582 5  89229933.35946  21790861.66446
     -2211.02546         0.000 0
 122939820.688 1  23394669.438 1      3143.596 1  95797271.99543  23394673.02743
      2449.50843         0.000 0
 120259089.698 3  22884544.730 3      1390.137 3  93708391.17244  22884545.41844
      1083.31444         0.000 0
 107454582.629 4  20447926.262 4       112.479 4  83730854.03847  20447929.43847
        87.59047         0.000 0
 122787709.928 4  22937773.629 4      2360.367 4  95501601.977 4         0.000 0
      1836.109 4  22937787.664 4
 122556539.10411  22942846.902 1     -4497.352 1         0.000 0         0.000 0
         0.000 0         0.000 0
 104717234.448 1  19610176.262 1     -1350.182 1  81446770.176 4         0.000 0
     -1048.910 4  19610180.273 4
 112023819.638 5  21015384.227 5      2741.680 5  87129691.932 6         0.000 0
      2129.908 6  21015395.828 6
 114678378.642 6  21483122.285 6     -3204.381 6  89194324.938 5         0.000 0
     -2492.750 5  21483132.457 5
 103336769.353 6  19317717.277 6       277.650 6  80373074.380 4         0.000 0
       214.230 4  19317727.879 4
 116470885.885 1  21780644.375 1      3043.689 1         0.000 0         0.000 0
         0.000 0         0.000 0
 18  5 22 20  1 18.0000000  0 12G 1G17G18G19G22G28R 7R13R14R22R23R24
 108148722.186 6  20580017.223 6     -1296.445 6  84271758.09948  20580024.28948
     -1010.12748         0.000 0
 115582449.853 5  21994608.078 5      2017.250 5  90064262.37647  21994611.82847
      1571.90647         0.000 0
 114514566.705 5  21791397.375 5     -2837.756 5  89232144.03345  21791401.71145
     -2211.16445         0.000 0
 122936678.800 1  23394071.973 1      3142.699 1  95794823.87043  23394075.56643
      2448.64643         0.000 0
 120257698.674 4  22884279.813 4      1391.506 4  93707307.21544  22884280.18844
      1084.34844         0.000 0
 107454469.995 3  20447905.457 3       112.639 3  83730766.29546  20447908.64846
        87.84246         0.000 0
 122785348.561 4  22937337.434 4      2361.152 4  95499765.388 5         0.000 0
      1835.521 5  22937345.027 5
 104718587.274 1  19610431.305 1     -1352.834 1  81447822.428 4         0.000 0
     -1052.701 4  19610434.598 4
 112021080.076 5  21014870.832 5      2737.855 5  87127561.135 7         0.000 0
      2130.551 7  21014880.570 7
 114681582.691 5  21483723.234 5     -3204.086 5  89196816.978 5         0.000 0
     -2491.561 5  21483733.547 5
 103336494.022 6  19317666.664 6       274.900 6  80372860.185 4         0.000 0
       214.443 4  19317673.539 4
 116467843.395 2  21780069.676 2      3043.459 2         0.000 0         0.000 0
         0.000 0         0.000 0
 18  5 22 20  1 19.0000000  0 10G17G18G19G28R 7R13R14R22R23R24
 115580433.113 6  21994224.758 6      2017.086 6  90062690.86847  21994228.02047
      1571.87547         0.000 0
 114517403.683 6  21791937.426 6     -2837.061 6  89234354.63545  21791941.71945
     -2210.51245         0.000 0
 122933536.300 2  23393473.871 2      3143.121 2  95792375.07043  23393476.98843
      2449.16043         0.000 0
 107454356.983 5  20447885.590 5       112.455 5  83730678.19346  20447886.86346
        87.63546         0.000 0
 122782988.348 4  22936895.445 4      2361.561 4  95497929.880 5         0.000 0
      1835.865 5  22936905.898 5
 104719939.537 3  19610683.273 3     -1354.557 3  81448874.962 5         0.000 0
     -1052.006 5  19610690.863 5
 112018341.256 6  21014357.223 6      2739.980 6  87125431.024 7         0.000 0
      2130.814 7  21014368.395 7
 114684787.030 6  21484325.262 6     -3203.482 6  89199309.328 6         0.000 0
     -2491.021 6  21484334.859 6
 103336218.490 7  19317614.551 7       275.328 7  80372645.860 5         0.000 0
       214.221 5  19317624.434 5
 116464800.829 2  21779502.500 2      3043.084 2         0.000 0         0.000 0
         0.000 0         0.000 0
 18  5 22 20  1 20.0000000  0  7G19R 7R13R14R22R23R24
 122930394.263 3  23392876.313 3      3140.514 3  95789926.73544  23392879.34844
      2447.18244         0.000 0
 122780629.188 4  22936454.426 4      2359.609 4  95496095.132 5         0.000 0
      1836.150 5  22936464.164 5
 104721292.955 3  19610936.641 3     -1354.986 3  81449927.600 5         0.000 0
     -1055.016 5  19610944.375 5
 112015602.569 6  21013843.301 6      2737.857 6  87123300.913 7         0.000 0
      2129.807 7  21013854.473 7
 114687991.695 6  21484926.398 6     -3205.070 6  89201802.011 6         0.000 0
     -2493.771 6  21484934.563 6
 103335943.750 7  19317561.832 7       273.678 7  80372432.186 5         0.000 0
       212.000 5  19317572.434 5
 116461758.436 3  21778935.438 3      3041.623 3         0.000 0         0.000 0
         0.000 0         0.000 0
 18  5 22 20  1 21.0000000  0  5G19R13R14R23R24
 122927252.932 3  23392279.090 3      3140.176 3  95787478.90844  23392280.96544
      2446.81444         0.000 0
 104722649.137 3  19611187.484 3     -1357.365 3  81450981.504 5         0.000 0
     -1055.348 5  19611196.508 5
 112012864.951 6  21013329.855 6      2736.311 6  87121170.771 7         0.000 0
      2130.773 7  21013338.164 7
 103335669.857 7  19317511.461 7       273.006 7  80372219.172 5         0.000 0
       212.285 5  19317520.055 5
 116458716.582 2  21778366.707 2      3040.510 2         0.000 0         0.000 0
         0.000 0         0.000 0
 18  5 22 20  1 22.0000000  0  5G19R13R14R23R24
 122924111.471 4  23391680.316 4      3140.752 4  95785031.04245  23391683.06645
      2447.31345         0.000 0
 104724005.282 4  19611442.934 4     -1357.982 4  81452036.228 5         0.000 0
     -1055.926 5  19611449.523 5
 112010126.944 6  21012815.867 6      2737.805 6  87119041.167 8         0.000 0
      2128.574 8  21012826.465 8
 103335395.892 7  19317460.535 7       273.094 7  80372006.027 6         0.000 0
       212.918 6  19317469.273 6
 116455675.455 4  21777797.426 4      3040.049 4         0.000 0         0.000 0
         0.000 0         0.000 0
 18  5 22 20  1 23.0000000  0  7G19R 7R13R14R22R23R24
 122920969.339 4  23391082.801 4      3141.934 4  95782582.56745  23391085.91845
      2448.36745         0.000 0
 122773552.48616  22935131.539 6      2357.482 6  95490591.04616         0.000 0
      1834.05516  22935139.98816
 104725362.588 4  19611696.059 4     -1358.205 4  81453091.942 5         0.000 0
     -1056.158 5  19611706.371 5
 112007388.622 6  21012301.840 6      2737.895 6  87116911.369 8         0.000 0
      2129.045 8  21012312.152 8
 114697603.81116  21486725.535 6     -3205.004 6  89209278.02718         0.000 0
     -2492.14818  21486734.70318
 103335122.566 8  19317410.297 8       272.676 8  80371793.452 6         0.000 0
       211.885 6  19317420.609 6
 116452633.982 4  21777228.973 4      3041.447 4         0.000 0         0.000 0
         0.000 0         0.000 0
 18  5 22 20  1 24.0000000  0  8G19R 7R12R13R14R22R23R24
 122917827.567 3  23390485.262 3      3141.416 3  95780134.44545  23390487.05145
      2447.93845         0.000 0
 122771195.073 5  22934688.961 5      2356.625 5  95488757.522 6         0.000 0
      1832.021 6  22934695.980 6
 122588030.153 5  22948738.582 5     -4501.871 5         0.000 0         0.000 0
         0.000 0         0.000 0
 104726720.697 4  19611947.727 4     -1358.359 4  81454148.276 5         0.000 0
     -1057.094 5  19611959.902 5
 112004650.627 6  21011785.785 6      2738.098 6  87114781.813 8         0.000 0
      2130.072 8  21011798.391 8
 114700807.772 7  21487327.266 7     -3204.344 7  89211770.031 7         0.000 0
     -2492.510 7  21487335.141 7
 103334849.451 7  19317359.602 7       272.803 7  80371581.016 5         0.000 0
       212.832 5  19317367.766 5
 116449593.221 3  21776659.637 3      3040.709 3         0.000 0         0.000 0
         0.000 0         0.000 0
