     2.10           OBSERVATION DATA    M (Mixed)           RINEX VERSION / TYPE
RINEXSLX2 2.9.3     HEMISPHERE          5-JUL-18 11:17      PGM / RUN BY / DATE 
OBSERVER            COMPANY                                 OBSERVER / AGENCY   
SITE                                                        MARKER NAME         
SITE#                                                       MARKER NUMBER       
                                                            REC # / TYPE / VERS 
        0.0000        0.0000        0.0000                  APPROX POSITION XYZ 
                                                            ANT # / TYPE        
0.000               0.000               0.000               ANTENNA: DELTA H/E/N
     1                                                      INTERVAL            
     1     1     0                                          WAVELENGTH FACT L1/2
     7    L1    C1    D1    L2    P2    D2    C2            # / TYPES OF OBSERV 
  2018     5    22    20    13    1.000000      GPS         TIME OF FIRST OBS   
  2018     5    22    20    14   34.000000      GPS         TIME OF LAST OBS    
 NO VALID POSITION RECORD FOUND IN THE INPUT FILE           COMMENT             
                                                            END OF HEADER       
 18  5 22 20 13  1.0000000  0 20G 1G 3G 8G11G17G18G19G22G24G28G30R 7
                                R 8R12R13R14R15R22R23R24
 109208511.336 8  20781688.621 8     -1703.365 8  85097568.42249  20781694.69149
     -1327.36749         0.000 0
 120351101.845 7  22902052.770 7      2673.863 7  93780104.22948  22902059.09448
      2083.41848         0.000 0
 130761022.615 4  24882995.871 4     -3129.537 4 101891740.84044  24883003.41444
     -2438.63744         0.000 0
 112544030.650 7  21416416.629 7     -2490.748 7  87696659.03048  21416419.91848
     -1940.92248         0.000 0
 114217227.440 8  21734814.758 8      1855.211 8  89000446.44749  21734817.93449
      1445.68249         0.000 0
 116610516.344 6  22190242.289 6     -3106.900 6  90865353.30347  22190246.66847
     -2420.86347         0.000 0
 120765762.721 6  22980960.953 6      3016.521 6  94103198.63747  22980961.80947
      2350.56647         0.000 0
 119420272.645 7  22724921.852 7      1003.121 7  93054762.73548  22724923.27048
       781.77548         0.000 0
 130650424.261 3  24861950.055 3      2214.254 3 101805543.70644  24861957.13744
      1725.38944         0.000 0
 107492750.218 7  20455189.633 7      -223.229 7  83760594.10549  20455191.93449
      -173.98649         0.000 0
 124686780.332 5  23727106.766 5     -3514.480 5  97158559.55146  23727112.50446
     -2738.46146         0.000 0
 121295985.661 6  22659108.762 6      1881.451 6  94341356.711 7         0.000 0
      1463.693 7  22659116.641 7
 128515292.656 6  23999326.098 6      3876.713 6  99956394.827 5         0.000 0
      3014.383 5  23999336.840 5
 125458645.693 4  23544398.418 4     -4614.279 4         0.000 0         0.000 0
         0.000 0         0.000 0
 105885150.474 4  19828886.148 4     -1965.377 4  82355150.847 6         0.000 0
     -1528.281 6  19828892.879 6
 110259080.602 8  20684323.688 8      2250.898 8  85757115.018 8         0.000 0
      1750.131 8  20684336.863 8
 127417985.238 2  23844546.234 2      4186.906 2  99102969.313 4         0.000 0
      3256.771 4  23844560.844 4
 116975506.684 6  21913452.199 6     -3305.951 6  90980988.146 8         0.000 0
     -2571.744 8  21913462.082 8
 103274856.982 8  19306144.160 8      -100.127 8  80324922.996 5         0.000 0
       -79.248 5  19306154.328 5
 114410027.736 4  21395250.375 4      2796.313 4  88985591.845 4         0.000 0
      2175.297 4  21395263.699 4
 18  5 22 20 13  2.0000000  0 21G 1G 3G 6G 8G11G17G18G19G22G24G28G30
                                R 7R 8R12R13R14R15R22R23R24
 109210215.910 8  20782013.023 8     -1704.822 8  85098896.66149  20782019.04749
     -1328.50449         0.000 0
 120348429.061 7  22901544.371 7      2673.012 7  93778021.56048  22901550.14148
      2082.74848         0.000 0
 129525215.475 4  24647828.887 4      3723.305 4 100928757.57245  24647838.05945
      2901.40045         0.000 0
 130764152.282 5  24883591.000 5     -3129.707 5 101894179.51344  24883599.45744
     -2438.54544         0.000 0
 112546522.434 7  21416891.703 7     -2491.973 7  87698600.64348  21416893.16448
     -1941.64848         0.000 0
 114215373.036 8  21734462.047 8      1854.770 8  88999001.45449  21734465.18049
      1445.20949         0.000 0
 116613623.829 6  22190833.555 6     -3107.852 6  90867774.72547  22190838.11747
     -2421.63147         0.000 0
 120762746.860 6  22980386.590 6      3016.078 6  94100848.60247  22980388.12147
      2350.28747         0.000 0
 119419270.464 6  22724730.980 6      1001.936 6  93053981.78248  22724732.58248
       780.59848         0.000 0
 130648209.930 3  24861528.660 3      2214.555 3 101803818.22544  24861534.85544
      1725.65844         0.000 0
 107492975.257 7  20455232.711 7      -225.545 7  83760769.44649  20455234.77349
      -175.61349         0.000 0
 124690295.104 5  23727775.590 5     -3515.449 5  97161298.32146  23727782.08646
     -2739.18946         0.000 0
 121294104.828 6  22658758.145 6      1880.523 6  94339893.856 7         0.000 0
      1462.732 7  22658765.449 7
 128511416.823 5  23998599.781 5      3875.531 5  99953380.313 5         0.000 0
      3013.891 5  23998611.527 5
 125463260.526 4  23545261.547 4     -4615.109 4         0.000 0         0.000 0
         0.000 0         0.000 0
 105887116.711 4  19829253.980 4     -1966.150 4  82356680.133 6         0.000 0
     -1529.301 6  19829264.004 6
 110256830.473 8  20683900.734 8      2249.834 8  85755364.919 8         0.000 0
      1750.264 8  20683916.922 8
 127413798.287 3  23843764.055 3      4187.170 3  99099712.795 4         0.000 0
      3257.217 4  23843778.523 4
 116978813.415 6  21914072.977 6     -3307.271 6  90983559.999 8         0.000 0
     -2571.104 8  21914082.859 8
 103274958.217 8  19306164.512 8      -101.602 8  80325001.670 6         0.000 0
       -78.920 6  19306172.391 6
 114407231.782 4  21394727.449 4      2796.283 4  88983417.265 4         0.000 0
      2175.510 4  21394737.762 4
 18  5 22 20 13  3.0000000  0 21G 1G 3G 6G 8G11G17G18G19G22G24G28G30
                                R 7R 8R12R13R14R15R22R23R24
 109211920.943 8  20782337.184 8     -1705.648 8  85100225.24849  20782343.36749
     -1329.05349         0.000 0
 120345756.984 7  22901036.023 7      2670.879 7  93775939.42348  22901042.40648
      2081.06648         0.000 0
 129521492.091 4  24647119.496 4      3723.713 4 100925856.23145  24647129.42645
      2901.51845         0.000 0
 130767282.047 5  24884186.035 5     -3130.846 5 101896618.28044  24884194.46544
     -2439.71944         0.000 0
 112549014.533 7  21417364.969 7     -2493.168 7  87700542.57548  21417367.64548
     -1942.76648         0.000 0
 114213518.701 8  21734109.383 8      1853.809 8  88997556.53249  21734111.62949
      1444.52349         0.000 0
 116616731.574 6  22191426.012 6     -3109.049 6  90870196.33647  22191429.50447
     -2422.64847         0.000 0
 120759731.016 6  22979812.563 6      3015.217 6  94098498.60447  22979814.05147
      2349.48647         0.000 0
 119418268.926 6  22724541.012 6      1000.625 6  93053201.38148  22724541.59848
       779.77748         0.000 0
 130645995.665 3  24861107.453 3      2213.047 3 101802092.84144  24861113.60944
      1724.56344         0.000 0
 107493200.770 7  20455276.414 7      -226.584 7  83760945.19349  20455277.35949
      -176.63149         0.000 0
 124693810.231 4  23728444.316 4     -3515.689 4  97164037.38846  23728450.77046
     -2739.48446         0.000 0
 121292224.705 6  22658405.281 6      1878.846 6  94338431.582 7         0.000 0
      1461.072 7  22658414.590 7
 128507541.385 6  23997876.234 6      3874.943 6  99950366.023 5         0.000 0
      3013.857 5  23997887.406 5
 125467875.768 3  23546126.441 3     -4615.385 3         0.000 0         0.000 0
         0.000 0         0.000 0
 105889083.854 4  19829623.434 4     -1968.195 4  82358210.158 6         0.000 0
     -1531.824 6  19829632.457 6
 110254580.818 8  20683478.547 8      2248.582 8  85753615.161 8         0.000 0
      1748.922 8  20683491.297 8
 127409611.140 3  23842978.777 3      4186.266 3  99096456.142 4         0.000 0
      3255.801 4  23842992.813 4
 116982120.109 6  21914692.660 6     -3307.064 6  90986131.933 8         0.000 0
     -2572.775 8  21914701.684 8
 103275059.785 8  19306183.621 8      -102.701 8  80325080.698 6         0.000 0
       -80.105 6  19306194.078 6
 114404436.178 4  21394204.141 4      2794.488 4  88981242.844 4         0.000 0
      2173.830 4  21394216.602 4
 18  5 22 20 13  4.0000000  0 21G 1G 3G 6G 8G11G17G18G19G22G24G28G30
                                R 7R 8R12R13R14R15R22R23R24
 109213626.839 8  20782662.750 8     -1707.256 8  85101554.51849  20782668.14549
     -1330.44949         0.000 0
 120343085.152 7  22900526.793 7      2671.223 7  93773857.45448  22900533.43448
      2081.48648         0.000 0
 129517768.796 4  24646412.227 4      3723.607 4 100922954.98145  24646420.00845
      2901.52545         0.000 0
 130770411.903 5  24884782.188 5     -3130.070 5 101899057.14545  24884790.47345
     -2439.06345         0.000 0
 112551507.316 7  21417839.637 7     -2493.840 7  87702484.99848  21417843.15648
     -1943.20348         0.000 0
 114211664.979 8  21733756.836 8      1853.410 8  88996112.07049  21733759.15649
      1444.24049         0.000 0
 116619839.986 6  22192016.301 6     -3108.918 6  90872618.48547  22192021.10947
     -2422.59847         0.000 0
 120756715.748 6  22979238.656 6      3015.266 6  94096149.05647  22979240.70347
      2349.55347         0.000 0
 119417268.055 6  22724350.016 6       999.836 6  93052421.47748  22724352.07848
       779.04548         0.000 0
 130643782.618 3  24860686.652 3      2212.629 3 101800368.38744  24860692.69144
      1724.31844         0.000 0
 107493426.954 7  20455319.090 7      -227.178 7  83761121.42149  20455320.67649
      -176.87549         0.000 0
 124697325.423 5  23729113.016 5     -3515.852 5  97166776.50346  23729119.52746
     -2739.76646         0.000 0
 121290345.524 6  22658056.828 6      1877.502 6  94336969.980 7         0.000 0
      1460.611 7  22658064.133 7
 128503665.949 6  23997154.520 6      3874.170 6  99947351.824 5         0.000 0
      3013.938 5  23997162.969 5
 125472490.921 4  23546989.586 4     -4615.219 4         0.000 0         0.000 0
         0.000 0         0.000 0
 105891051.945 3  19829988.703 3     -1968.486 3  82359740.896 6         0.000 0
     -1531.324 6  19830001.168 6
 110252332.448 7  20683056.902 7      2247.301 7  85751866.436 8         0.000 0
      1747.771 8  20683070.797 8
 127405425.005 3  23842196.902 3      4185.535 3  99093200.239 4         0.000 0
      3255.857 4  23842210.508 4
 116985427.320 6  21915309.445 6     -3307.889 6  90988704.206 8         0.000 0
     -2573.459 8  21915320.188 8
 103275162.275 8  19306202.988 8      -103.490 8  80325160.390 6         0.000 0
       -80.025 6  19306210.293 6
 114401641.180 3  21393683.664 3      2794.572 3  88979068.987 4         0.000 0
      2173.797 4  21393689.969 4
 18  5 22 20 13  5.0000000  0 21G 1G 3G 6G 8G11G17G18G19G22G24G28G30
                                R 7R 8R12R13R14R15R22R23R24
 109215333.134 7  20782987.398 7     -1703.551 7  85102884.08449  20782992.87949
     -1327.43649         0.000 0
 120340413.451 6  22900018.219 6      2668.758 6  93771775.63948  22900025.41448
      2079.60048         0.000 0
 129514044.943 3  24645703.605 3      3722.314 3 100920053.29145  24645711.39145
      2900.55945         0.000 0
 130773542.027 2  24885377.852 2     -3132.283 2 101901496.24344  24885385.71144
     -2440.93244         0.000 0
 112554000.492 6  21418314.246 6     -2492.066 6  87704427.70948  21418316.77748
     -1941.81148         0.000 0
 114209811.462 7  21733403.801 7      1850.535 7  88994667.78249  21733406.32049
      1442.02149         0.000 0
 116622949.113 5  22192608.672 5     -3110.779 5  90875041.20247  22192612.46547
     -2424.07647         0.000 0
 120753700.622 5  22978665.117 5      3012.801 5  94093799.62247  22978666.66047
      2347.80347         0.000 0
 119416267.645 5  22724160.535 5       998.814 5  93051641.89848  22724160.87948
       778.34848         0.000 0
 130641570.476 1  24860265.078 1      2210.926 1 101798644.65943  24860273.09043
      1722.70543         0.000 0
 107493653.208 6  20455361.559 6      -228.490 6  83761297.74649  20455363.64849
      -178.09849         0.000 0
 124700840.315 4  23729781.656 4     -3517.322 4  97169515.41646  23729788.32446
     -2740.79546         0.000 0
 121288467.405 4  22657704.164 4      1875.518 4  94335508.604 6         0.000 0
      1464.275 6  22657711.754 6
 128499790.431 4  23996428.879 4      3873.705 4  99944337.475 4         0.000 0
      3013.879 4  23996441.484 4
 125477105.473 3  23547856.113 3     -4615.021 3         0.000 0         0.000 0
         0.000 0         0.000 0
 105893020.016 2  19830360.367 2     -1967.383 2  82361272.052 5         0.000 0
     -1533.543 5  19830372.109 5
 110250084.953 6  20682636.777 6      2245.252 6  85750118.228 7         0.000 0
      1750.230 7  20682649.098 7
 127401239.490 1  23841412.254 1      4184.383 1  99089944.867 3         0.000 0
      3254.102 3  23841429.441 3
 116988735.078 5  21915930.043 5     -3309.416 5  90991276.414 7         0.000 0
     -2571.213 7  21915940.070 7
 103275265.245 7  19306219.719 7      -105.092 7  80325240.424 5         0.000 0
       -79.148 5  19306230.176 5
 114398845.534 2  21393160.699 2      2799.813 2  88976894.653 4         0.000 0
      2177.795 4  21393166.141 4
 18  5 22 20 13  6.0000000  0 14G 1G11G17G28G30R 7R 8R12R13R14R15R22
                                R23R24
 109217039.013 8  20783311.262 8     -1705.926 8  85104213.38349  20783317.38749
     -1329.43449         0.000 0
 112556492.803 7  21418788.500 7     -2493.074 7  87706369.78948  21418791.34848
     -1942.75448         0.000 0
 114207957.559 8  21733050.410 8      1853.785 8  88993223.17549  21733054.17649
      1444.55349         0.000 0
 107493879.622 6  20455404.820 6      -226.588 6  83761474.16748  20455407.52348
      -176.54148         0.000 0
 124704354.986 3  23730450.805 3     -3514.580 3  97172254.11345  23730456.64145
     -2738.53745         0.000 0
 121286589.162 6  22657352.723 6      1877.523 6  94334046.563 7         0.000 0
      1460.658 7  22657362.605 7
 128495914.292 6  23995706.039 6      3876.510 6  99941322.895 5         0.000 0
      3014.285 5  23995717.781 5
 125481720.008 3  23548718.848 3     -4614.756 3         0.000 0         0.000 0
         0.000 0         0.000 0
 105894989.092 4  19830730.813 4     -1969.734 4  82362804.010 6         0.000 0
     -1531.633 6  19830739.266 6
 110247837.358 7  20682214.578 7      2247.139 7  85748370.274 8         0.000 0
      1748.137 8  20682226.754 8
 127397053.546 2  23840630.113 2      4185.059 2  99086689.225 4         0.000 0
      3255.777 4  23840643.574 4
 116992041.516 6  21916549.426 6     -3307.822 6  90993848.648 8         0.000 0
     -2572.174 8  21916560.027 8
 103275367.935 8  19306240.680 8      -102.951 8  80325320.381 5         0.000 0
       -80.363 5  19306249.133 5
 114396050.451 3  21392640.531 3      2795.313 3  88974720.438 4         0.000 0
      2173.242 4  21392648.266 4
 18  5 22 20 13  7.0000000  0 12G 1G11G17G28G30R 8R12R13R14R15R22R23
 109218746.322 8  20783636.398 8     -1708.912 8  85105543.73649  20783642.70749
     -1331.55949         0.000 0
 112558986.456 7  21419262.449 7     -2495.104 7  87708312.90748  21419266.32448
     -1944.05948         0.000 0
 114206104.667 8  21732698.148 8      1852.557 8  88991779.38649  21732701.42649
      1443.50249         0.000 0
 107494107.007 6  20455447.777 6      -228.852 6  83761651.36549  20455450.58249
      -178.33449         0.000 0
 124707870.258 3  23731119.070 3     -3515.729 3  97174993.28345  23731126.16845
     -2739.62545         0.000 0
 128492039.086 6  23994981.309 6      3873.887 6  99938307.952 5         0.000 0
      3012.869 5  23994992.340 5
 125486334.859 3  23549582.992 3     -4615.934 3         0.000 0         0.000 0
         0.000 0         0.000 0
 105896960.035 4  19831098.660 4     -1971.369 4  82364336.036 6         0.000 0
     -1533.623 6  19831104.387 6
 110245591.493 7  20681792.070 7      2245.023 7  85746623.450 8         0.000 0
      1746.332 8  20681804.820 8
 127392867.927 2  23839845.656 2      4185.055 2  99083434.721 4         0.000 0
      3254.594 4  23839859.406 4
 116995348.381 6  21917169.219 6     -3308.311 6  90996421.556 8         0.000 0
     -2573.297 8  21917181.391 8
 103275471.994 8  19306260.188 8      -105.199 8  80325401.347 5         0.000 0
       -82.871 5  19306269.211 5
 18  5 22 20 13  8.0000000  0 19G 1G 3G 6G 8G11G17G18G19G22G24G28G30
                                R 8R12R13R14R15R22R23
 109220454.607 8  20783961.402 8     -1708.449 8  85106874.86749  20783967.31349
     -1331.27049         0.000 0
 120332399.436 7  22898493.980 7      2669.797 7  93765530.94448  22898500.20748
      2080.31648         0.000 0
 129502874.893 4  24643578.238 4      3722.941 4 100911349.36245  24643585.22345
      2901.11745         0.000 0
 130782931.124 4  24887164.047 4     -3129.682 4 101908812.69244  24887172.56344
     -2438.92644         0.000 0
 112561481.055 7  21419737.559 7     -2494.701 7  87710256.75848  21419740.89148
     -1944.08248         0.000 0
 114204251.854 8  21732346.043 8      1851.982 8  88990335.61649  21732348.16049
      1443.20749         0.000 0
 116632277.294 6  22194383.133 6     -3110.346 6  90882310.12247  22194387.25447
     -2423.59447         0.000 0
 120744655.979 6  22976943.984 6      3014.152 6  94086751.83447  22976945.12947
      2348.63747         0.000 0
 119413268.267 6  22723587.859 6       998.857 6  93049304.77448  22723590.50848
       778.22548         0.000 0
 130634935.748 3  24859003.270 3      2209.914 3 101793474.73644  24859010.52744
      1722.15244         0.000 0
 107494335.061 6  20455491.609 6      -228.586 6  83761829.06049  20455493.72749
      -178.20149         0.000 0
 124711385.433 4  23731788.645 4     -3515.814 4  97177732.35445  23731794.48045
     -2739.51445         0.000 0
 128488164.073 6  23994260.613 6      3875.131 6  99935294.038 5         0.000 0
      3014.924 5  23994267.344 5
 125490949.853 4  23550446.012 4     -4615.178 4         0.000 0         0.000 0
         0.000 0         0.000 0
 105898931.210 4  19831468.672 4     -1971.250 4  82365869.194 6         0.000 0
     -1533.785 6  19831473.973 6
 110243346.349 8  20681371.590 8      2244.570 8  85744877.240 8         0.000 0
      1745.477 8  20681383.477 8
 127388683.212 3  23839061.508 3      4183.953 3  99080179.825 4         0.000 0
      3255.266 4  23839075.688 4
 116998656.528 6  21917789.316 6     -3308.264 6  90998994.558 8         0.000 0
     -2572.861 8  21917798.910 8
 103275576.691 8  19306279.426 8      -104.992 8  80325482.712 6         0.000 0
       -80.758 6  19306286.730 6
 18  5 22 20 13  9.0000000  0 21G 1G 3G 6G 8G11G17G18G19G22G24G28G30
                                R 7R 8R12R13R14R15R22R23R24
 109222162.723 8  20784286.551 8     -1709.516 8  85108205.85649  20784292.43449
     -1332.16849         0.000 0
 120329728.701 7  22897985.332 7      2670.254 7  93763449.85448  22897991.85548
      2080.53148         0.000 0
 129499151.987 4  24642870.121 4      3722.637 4 100908448.36045  24642877.13345
      2900.96145         0.000 0
 130786060.429 5  24887759.496 5     -3128.639 5 101911251.02544  24887767.59444
     -2437.73644         0.000 0
 112563975.209 7  21420212.094 7     -2495.240 7  87712200.23648  21420215.37148
     -1944.25848         0.000 0
 114202399.384 8  21731993.078 8      1851.660 8  88988892.14549  21731996.82849
      1442.52149         0.000 0
 116635386.952 6  22194975.434 6     -3110.279 6  90884733.20547  22194979.84047
     -2423.51847         0.000 0
 120741641.859 6  22976370.227 6      3014.160 6  94084403.18747  22976372.51647
      2348.46147         0.000 0
 119412269.456 6  22723398.020 6       998.006 6  93048526.47248  22723400.99648
       777.85448         0.000 0
 130632725.389 4  24858582.051 4      2210.508 4 101791752.37944  24858589.93844
      1722.65844         0.000 0
 107494563.256 7  20455535.438 7      -229.320 7  83762006.83849  20455537.56649
      -178.61349         0.000 0
 124714900.986 4  23732457.211 4     -3515.396 4  97180471.73245  23732463.49245
     -2739.22145         0.000 0
 121280959.83916  22656303.094 6      1875.525 6  94329668.21017         0.000 0
      1459.32417  22656311.11317
 128484288.380 6  23993534.613 6      3875.412 6  99932279.618 6         0.000 0
      3014.689 6  23993543.637 6
 125495564.825 3  23551309.742 3     -4615.229 3         0.000 0         0.000 0
         0.000 0         0.000 0
 105900903.305 4  19831836.395 4     -1974.016 4  82367403.033 6         0.000 0
     -1534.900 6  19831844.414 6
 110241101.911 8  20680950.531 8      2243.230 8  85743131.558 8         0.000 0
      1745.201 8  20680963.996 8
 127384498.504 4  23838278.789 4      4184.684 4  99076925.135 4         0.000 0
      3254.426 4  23838290.105 4
 117001963.851 6  21918408.980 6     -3307.924 6  91001566.912 8         0.000 0
     -2572.549 8  21918417.863 8
 103275681.610 8  19306297.230 8      -106.041 8  80325564.334 6         0.000 0
       -81.754 6  19306306.684 6
 114387669.59114  21391072.543 4      2792.887 4  88968202.02114         0.000 0
      2173.00214  21391081.13714
 18  5 22 20 13 10.0000000  0 21G 1G 3G 6G 8G11G17G18G19G22G24G28G30
                                R 7R 8R12R13R14R15R22R23R24
 109223871.450 8  20784611.707 8     -1708.695 8  85109537.32249  20784617.51649
     -1331.35049         0.000 0
 120327058.607 7  22897476.836 7      2670.057 7  93761369.26448  22897484.20348
      2080.70348         0.000 0
 129495429.301 4  24642160.438 4      3722.207 4 100905547.55845  24642168.86345
      2900.52745         0.000 0
 130789190.079 4  24888355.383 4     -3129.400 4 101913689.73844  24888362.63744
     -2438.55744         0.000 0
 112566469.869 7  21420687.496 7     -2494.967 7  87714144.12648  21420689.61348
     -1943.98648         0.000 0
 114200547.156 8  21731640.695 8      1851.951 8  88987448.85049  21731643.69949
      1442.93049         0.000 0
 116638497.174 6  22195567.742 6     -3110.670 6  90887156.77047  22195571.86347
     -2423.96747         0.000 0
 120738628.014 6  22975796.625 6      3013.377 6  94082054.72048  22975798.16848
      2348.06648         0.000 0
 119411271.347 6  22723208.332 6       997.576 6  93047748.74248  22723210.54748
       777.28548         0.000 0
 130630515.683 3  24858161.840 3      2209.061 3 101790030.55744  24858169.49644
      1721.25044         0.000 0
 107494791.984 7  20455578.703 7      -228.266 7  83762185.09849  20455580.87549
      -177.85449         0.000 0
 124718416.897 4  23733127.219 4     -3516.686 4  97183211.41345  23733133.17245
     -2740.25645         0.000 0
 121279084.586 6  22655950.934 6      1875.164 6  94328209.696 7         0.000 0
      1458.518 7  22655960.242 7
 128480413.130 6  23992808.762 6      3876.070 6  99929265.533 6         0.000 0
      3014.520 6  23992822.941 6
 125500180.187 3  23552173.195 3     -4615.840 3         0.000 0         0.000 0
         0.000 0         0.000 0
 105902876.208 4  19832204.836 4     -1973.580 4  82368937.522 6         0.000 0
     -1535.604 6  19832216.148 6
 110238858.189 8  20680531.195 8      2243.479 8  85741386.465 8         0.000 0
      1744.625 8  20680543.516 8
 127380314.178 3  23837493.066 3      4183.568 3  99073670.635 4         0.000 0
      3254.879 4  23837507.105 4
 117005271.446 6  21919026.930 6     -3306.986 6  91004139.517 8         0.000 0
     -2572.641 8  21919038.820 8
 103275787.036 8  19306319.336 8      -105.613 8  80325646.359 6         0.000 0
       -81.924 6  19306326.355 6
 114384876.863 4  21390549.367 4      2792.525 4  88966029.916 4         0.000 0
      2171.178 4  21390554.664 4
 18  5 22 20 13 11.0000000  0 21G 1G 3G 6G 8G11G17G18G19G22G24G28G30
                                R 7R 8R12R13R14R15R22R23R24
 109225581.134 8  20784936.699 8     -1708.734 8  85110869.54349  20784943.16849
     -1331.38749         0.000 0
 120324389.050 7  22896969.746 7      2670.781 7  93759289.09248  22896976.32848
      2081.11748         0.000 0
 129491706.337 4  24641451.875 4      3723.537 4 100902646.57745  24641459.87545
      2901.44945         0.000 0
 130792319.907 4  24888950.816 4     -3129.205 4 101916128.51644  24888959.03144
     -2438.28344         0.000 0
 112568965.304 7  21421162.734 7     -2495.182 7  87716088.61048  21421163.69148
     -1944.33648         0.000 0
 114198695.176 8  21731288.289 8      1852.969 8  88986005.72149  21731291.52349
      1443.86949         0.000 0
 116641608.101 6  22196159.746 6     -3109.967 6  90889580.86947  22196162.94947
     -2423.34247         0.000 0
 120735614.120 6  22975223.715 6      3014.727 6  94079706.22947  22975224.64547
      2349.24247         0.000 0
 119410274.116 6  22723019.051 6       997.791 6  93046971.65748  22723020.52348
       777.46348         0.000 0
 130628306.396 3  24857741.039 3      2209.277 3 101788309.00744  24857749.08244
      1721.48844         0.000 0
 107495021.448 7  20455621.945 7      -227.951 7  83762363.89549  20455625.13749
      -177.57649         0.000 0
 124721932.570 5  23733795.488 5     -3515.123 5  97185950.85845  23733802.61345
     -2738.88945         0.000 0
 121277210.401 6  22655603.629 6      1874.510 6  94326751.941 7         0.000 0
      1458.914 7  22655611.793 7
 128476538.079 6  23992089.199 6      3876.174 6  99926251.595 5         0.000 0
      3015.158 5  23992097.219 5
 125504795.328 4  23553036.629 4     -4614.271 4         0.000 0         0.000 0
         0.000 0         0.000 0
 105904849.980 4  19832572.398 4     -1972.863 4  82370472.676 6         0.000 0
     -1534.607 6  19832584.289 6
 110236615.361 8  20680109.266 8      2243.133 8  85739642.048 8         0.000 0
      1745.006 8  20680121.441 8
 127376130.115 3  23836714.492 3      4183.902 3  99070416.420 4         0.000 0
      3254.055 4  23836724.230 4
 117008579.616 6  21919648.305 6     -3308.002 6  91006712.500 8         0.000 0
     -2572.529 8  21919658.043 8
 103275893.265 8  19306338.992 8      -105.475 8  80325728.966 6         0.000 0
       -82.027 6  19306347.586 6
 114382084.351 3  21390025.887 3      2793.824 3  88963857.890 4         0.000 0
      2172.299 4  21390032.617 4
 18  5 22 20 13 12.0000000  0 20G 1G 3G 8G11G17G18G19G22G24G28G30R 7
                                R 8R12R13R14R15R22R23R24
 109227291.326 8  20785261.594 8     -1709.625 8  85112202.19349  20785268.54749
     -1332.13749         0.000 0
 120321719.771 6  22896461.133 6      2669.383 6  93757209.15048  22896468.57048
      2080.21148         0.000 0
 130795449.652 4  24889546.730 4     -3129.080 4 101918567.31844  24889555.17244
     -2438.21144         0.000 0
 112571461.057 7  21421637.305 7     -2495.367 7  87718033.40048  21421639.48048
     -1944.57848         0.000 0
 114196843.581 8  21730936.215 8      1852.000 8  88984562.95049  21730938.76249
      1443.00449         0.000 0
 116644719.332 6  22196751.508 6     -3111.482 6  90892005.22047  22196754.03947
     -2424.57847         0.000 0
 120732600.580 6  22974649.848 6      3013.914 6  94077358.03847  22974651.75047
      2348.57047         0.000 0
 119409277.341 6  22722829.816 6       996.744 6  93046194.99447  22722831.30547
       776.61747         0.000 0
 130626097.770 3  24857321.141 3      2209.148 3 101786588.02844  24857329.01244
      1721.48044         0.000 0
 107495251.426 6  20455665.379 6      -229.682 6  83762543.12048  20455668.91448
      -179.10748         0.000 0
 124725448.408 3  23734465.379 3     -3514.998 3  97188690.53345  23734471.80545
     -2738.97345         0.000 0
 121275336.874 6  22655251.930 6      1873.754 6  94325294.813 7         0.000 0
      1457.129 7  22655258.086 7
 128472662.991 5  23991362.375 5      3875.320 5  99923237.646 5         0.000 0
      3014.174 5  23991372.688 5
 125509410.007 2  23553898.531 2     -4614.383 2         0.000 0         0.000 0
         0.000 0         0.000 0
 105906824.708 3  19832942.445 3     -1974.498 3  82372008.594 5         0.000 0
     -1535.729 5  19832952.043 5
 110234373.404 7  20679686.953 7      2241.908 7  85737898.329 8         0.000 0
      1744.529 8  20679699.129 8
 127371946.433 2  23835931.090 2      4184.162 2  99067162.371 4         0.000 0
      3254.104 4  23835940.543 4
 117011887.791 6  21920266.285 6     -3307.527 6  91009285.545 7         0.000 0
     -2572.654 7  21920277.602 7
 103276000.059 7  19306357.832 7      -105.879 7  80325812.058 5         0.000 0
       -82.291 5  19306366.141 5
 114379292.272 3  21389506.316 3      2792.814 3  88961686.289 4         0.000 0
      2172.486 4  21389513.910 4
 18  5 22 20 13 13.0000000  0 20G 1G 3G 8G11G17G18G19G22G24G28G30R 7
                                R 8R12R13R14R15R22R23R24
 109229002.124 8  20785587.707 8     -1710.408 8  85113535.28349  20785594.28949
     -1332.79749         0.000 0
 120319051.253 6  22895953.445 6      2668.930 6  93755129.78348  22895960.50048
      2079.62748         0.000 0
 130798579.927 4  24890141.852 4     -3129.805 4 101921006.52344  24890150.95344
     -2438.75444         0.000 0
 112573957.309 7  21422111.656 7     -2495.742 7  87719978.49948  21422114.39148
     -1944.78948         0.000 0
 114194991.846 8  21730583.500 8      1851.996 8  88983120.03249  21730586.49249
      1443.22149         0.000 0
 116647831.043 6  22197342.625 6     -3111.523 6  90894429.93347  22197347.84847
     -2424.57447         0.000 0
 120729586.868 6  22974076.199 6      3014.359 6  94075009.67147  22974079.03147
      2348.88547         0.000 0
 119408281.421 6  22722640.082 6       995.764 6  93045418.91748  22722641.82848
       775.87748         0.000 0
 130623889.293 3  24856901.027 3      2208.891 3 101784867.14744  24856908.77044
      1721.18944         0.000 0
 107495481.738 6  20455709.742 6      -229.744 6  83762722.56849  20455712.68849
      -179.20349         0.000 0
 124728964.451 4  23735134.051 4     -3514.961 4  97191430.30645  23735140.66445
     -2738.91245         0.000 0
 121273464.379 6  22654904.164 6      1873.277 6  94323838.467 7         0.000 0
      1455.627 7  22654909.750 7
 128468788.577 6  23990639.770 6      3874.281 6  99920224.257 5         0.000 0
      3013.152 5  23990650.656 5
 125514026.113 4  23554765.805 4     -4614.992 4         0.000 0         0.000 0
         0.000 0         0.000 0
 105908800.030 4  19833312.559 4     -1974.490 4  82373544.978 6         0.000 0
     -1536.563 6  19833322.871 6
 110232131.896 7  20679266.570 7      2241.104 7  85736154.868 8         0.000 0
      1744.215 8  20679280.035 8
 127367762.646 2  23835147.898 2      4183.613 2  99063908.364 4         0.000 0
      3254.371 4  23835159.359 4
 117015196.295 6  21920886.625 6     -3307.857 6  91011858.793 8         0.000 0
     -2572.525 8  21920897.223 8
 103276107.160 8  19306377.172 8      -106.914 8  80325895.302 6         0.000 0
       -83.174 6  19306385.910 6
 114376500.255 3  21388982.375 3      2792.064 3  88959514.748 4         0.000 0
      2170.826 4  21388991.543 4
 18  5 22 20 13 14.0000000  0 21G 1G 3G 6G 8G11G17G18G19G22G24G28G30
                                R 7R 8R12R13R14R15R22R23R24
 109230713.239 8  20785913.504 8     -1711.125 8  85114868.60949  20785919.84449
     -1333.31449         0.000 0
 120316382.600 7  22895445.734 7      2668.625 7  93753050.29548  22895452.80548
      2079.40248         0.000 0
 129480537.908 4  24639327.449 4      3722.553 4 100893943.90845  24639335.77745
      2900.86945         0.000 0
 130801709.819 4  24890738.098 4     -3129.525 4 101923445.33444  24890746.49644
     -2438.55144         0.000 0
 112576453.760 7  21422587.133 7     -2496.281 7  87721923.75948  21422590.06648
     -1945.07448         0.000 0
 114193140.328 8  21730230.758 8      1852.121 8  88981677.27949  21730234.13349
      1443.23049         0.000 0
 116650942.939 6  22197934.719 6     -3112.006 6  90896854.78947  22197939.43847
     -2424.87947         0.000 0
 120726573.401 6  22973503.809 6      3014.016 6  94072661.51547  22973505.45347
      2348.85747         0.000 0
 119407285.687 6  22722450.465 6       995.186 6  93044643.01748  22722452.50848
       775.45748         0.000 0
 130621681.541 4  24856480.746 4      2208.117 4 101783146.81344  24856489.44544
      1720.45744         0.000 0
 107495712.359 7  20455752.648 7      -230.283 7  83762902.26349  20455756.09849
      -179.48649         0.000 0
 124732480.358 5  23735803.844 5     -3516.049 5  97194169.95445  23735809.51245
     -2739.87945         0.000 0
 121271592.349 6  22654551.648 6      1871.771 6  94322382.396 7         0.000 0
      1455.875 7  22654560.531 7
 128464913.741 6  23989917.289 6      3874.725 6  99917210.505 5         0.000 0
      3013.408 5  23989925.883 5
 125518641.301 3  23555628.898 3     -4615.076 3         0.000 0         0.000 0
         0.000 0         0.000 0
 105910776.097 4  19833682.508 4     -1976.324 4  82375081.881 6         0.000 0
     -1536.982 6  19833694.109 6
 110229891.160 8  20678847.598 8      2240.961 8  85734412.119 8         0.000 0
      1742.943 8  20678858.770 8
 127363579.336 3  23834364.547 3      4184.758 3  99060654.685 4         0.000 0
      3254.199 4  23834377.867 4
 117018504.719 6  21921507.660 6     -3308.182 6  91014432.032 8         0.000 0
     -2572.580 8  21921517.973 8
 103276214.687 8  19306397.777 8      -106.885 8  80325978.966 5         0.000 0
       -83.523 5  19306404.797 5
 114373708.559 4  21388460.707 4      2792.043 4  88957343.469 4         0.000 0
      2170.510 4  21388466.008 4
 18  5 22 20 13 15.0000000  0 21G 1G 3G 6G 8G11G17G18G19G22G24G28G30
                                R 7R 8R12R13R14R15R22R23R24
 109232425.038 8  20786239.418 8     -1711.854 8  85116202.45049  20786245.18449
     -1333.71749         0.000 0
 120313714.940 7  22894938.137 7      2667.406 7  93750971.60848  22894944.69148
      2078.55348         0.000 0
 129476815.211 4  24638619.094 4      3722.271 4 100891043.13845  24638626.56345
      2900.56445         0.000 0
 130804840.188 5  24891333.734 5     -3129.783 5 101925884.57644  24891341.20744
     -2438.71744         0.000 0
 112578950.717 7  21423061.574 7     -2496.854 7  87723869.45948  21423064.83648
     -1945.63148         0.000 0
 114191288.789 8  21729878.984 8      1851.332 8  88980234.52849  21729882.06349
      1442.45749         0.000 0
 116654055.281 6  22198527.926 6     -3111.893 6  90899279.95147  22198532.04747
     -2424.83047         0.000 0
 120723559.726 6  22972929.816 6      3013.326 6  94070313.19847  22972931.21947
      2347.96747         0.000 0
 119406290.916 6  22722261.102 6       995.258 6  93043867.87248  22722262.90248
       775.64148         0.000 0
 130619473.712 3  24856060.148 3      2207.445 3 101781426.39544  24856068.37544
      1720.09444         0.000 0
 107495943.535 7  20455797.098 7      -230.777 7  83763082.39449  20455800.56349
      -179.82849         0.000 0
 124735996.567 4  23736472.031 4     -3516.719 4  97196909.85946  23736478.51646
     -2740.35746         0.000 0
 121269721.280 6  22654204.113 6      1871.467 6  94320927.103 7         0.000 0
      1455.980 7  22654210.418 7
 128461039.671 6  23989194.918 6      3874.365 6  99914197.322 5         0.000 0
      3013.547 5  23989201.793 5
 125523257.090 4  23556493.824 4     -4615.338 4         0.000 0         0.000 0
         0.000 0         0.000 0
 105912752.939 4  19834054.570 4     -1977.199 4  82376619.396 6         0.000 0
     -1537.322 6  19834063.309 6
 110227650.767 8  20678429.020 8      2239.975 8  85732669.586 8         0.000 0
      1742.574 8  20678438.617 8
 127359395.756 2  23833581.012 2      4183.521 2  99057400.749 4         0.000 0
      3254.178 4  23833594.477 4
 117021813.378 6  21922125.363 6     -3308.672 6  91017005.433 8         0.000 0
     -2572.953 8  21922137.969 8
 103276322.586 8  19306419.926 8      -107.689 8  80326062.870 6         0.000 0
       -83.875 6  19306424.938 6
 114370916.919 4  21387938.715 4      2791.133 4  88955172.157 4         0.000 0
      2170.887 4  21387947.309 4
 18  5 22 20 13 16.0000000  0 21G 1G 3G 6G 8G11G17G18G19G22G24G28G30
                                R 7R 8R12R13R14R15R22R23R24
 109234137.371 8  20786565.813 8     -1712.393 8  85117536.75449  20786571.20749
     -1334.19749         0.000 0
 120311047.723 7  22894430.309 7      2667.375 7  93748893.25248  22894437.48848
      2078.32448         0.000 0
 129473092.755 4  24637910.934 4      3722.258 4 100888142.50945  24637918.04745
      2900.63145         0.000 0
 130807970.400 5  24891928.574 5     -3129.895 5 101928323.72944  24891937.05944
     -2438.96344         0.000 0
 112581448.026 7  21423537.785 7     -2496.379 7  87725815.39749  21423539.53149
     -1944.99849         0.000 0
 114189437.543 8  21729527.270 8      1851.691 8  88978791.97249  21729529.48849
      1442.87549         0.000 0
 116657167.855 6  22199119.898 6     -3112.102 6  90901705.35447  22199123.71947
     -2424.95947         0.000 0
 120720546.325 6  22972355.879 6      3013.605 6  94067965.08748  22972358.09848
      2348.40248         0.000 0
 119405296.731 6  22722071.938 6       994.658 6  93043093.18848  22722074.02748
       775.02348         0.000 0
 130617266.102 3  24855641.035 3      2207.746 3 101779706.15944  24855648.97744
      1720.29744         0.000 0
 107496175.350 7  20455841.746 7      -231.377 7  83763263.04949  20455843.50849
      -180.44549         0.000 0
 124739513.127 5  23737141.563 5     -3516.887 5  97199650.02946  23737148.27346
     -2740.48646         0.000 0
 121267850.756 6  22653855.637 6      1871.021 6  94319472.284 7         0.000 0
      1454.658 7  22653859.789 7
 128457165.735 6  23988469.164 6      3873.414 6  99911184.233 5         0.000 0
      3013.221 5  23988479.906 5
 125527873.117 4  23557357.660 4     -4616.328 4         0.000 0         0.000 0
         0.000 0         0.000 0
 105914730.835 4  19834428.555 4     -1977.818 4  82378157.784 6         0.000 0
     -1537.725 6  19834432.996 6
 110225411.080 8  20678007.492 8      2240.039 8  85730927.620 8         0.000 0
      1741.938 8  20678019.953 8
 127355212.119 2  23832797.109 2      4183.586 2  99054146.805 4         0.000 0
      3253.813 4  23832812.578 4
 117025122.009 6  21922746.852 6     -3307.748 6  91019578.803 8         0.000 0
     -2573.141 8  21922755.875 8
 103276431.078 8  19306439.695 8      -108.467 8  80326147.260 6         0.000 0
       -84.240 6  19306446.285 6
 114368125.771 4  21387417.215 4      2790.650 4  88953001.232 4         0.000 0
      2170.697 4  21387425.664 4
 18  5 22 20 13 17.0000000  0 21G 1G 3G 6G 8G11G17G18G19G22G24G28G30
                                R 7R 8R12R13R14R15R22R23R24
 109235850.668 8  20786891.238 8     -1714.561 8  85118871.78449  20786897.21949
     -1336.01049         0.000 0
 120308381.662 7  22893924.227 7      2664.859 7  93746815.80748  22893930.18048
      2076.43448         0.000 0
 129469370.894 4  24637201.949 4      3721.637 4 100885242.33545  24637210.46545
      2899.91245         0.000 0
 130811101.286 5  24892525.016 5     -3131.670 5 101930763.37745  24892532.65645
     -2440.03545         0.000 0
 112583946.160 7  21424012.887 7     -2499.424 7  87727761.99048  21424015.70748
     -1947.59448         0.000 0
 114187586.677 8  21729174.582 8      1850.697 8  88977349.74849  21729177.05949
      1441.90249         0.000 0
 116660281.097 6  22199712.621 6     -3114.189 6  90904131.22947  22199716.48447
     -2426.67647         0.000 0
 120717533.214 6  22971782.113 6      3013.082 6  94065617.22448  22971784.52048
      2347.88148         0.000 0
 119404303.710 7  22721882.520 7       991.830 7  93042319.38948  22721884.37948
       772.74248         0.000 0
 130615058.837 3  24855219.805 3      2206.693 3 101777986.23644  24855229.07844
      1719.59844         0.000 0
 107496408.093 7  20455886.426 7      -233.699 7  83763444.40149  20455887.97349
      -182.12349         0.000 0
 124743030.386 5  23737809.980 5     -3517.297 5  97202390.72546  23737816.99246
     -2740.66046         0.000 0
 121265981.438 6  22653504.039 6      1867.613 6  94318018.382 7         0.000 0
      1452.145 7  22653511.629 7
 128453292.647 6  23987746.168 6      3872.305 6  99908171.872 5         0.000 0
      3011.592 5  23987755.621 5
 125532489.992 4  23558222.246 4     -4617.047 4         0.000 0         0.000 0
         0.000 0         0.000 0
 105916710.010 4  19834794.836 4     -1979.564 4  82379697.153 6         0.000 0
     -1539.971 6  19834805.004 6
 110223172.212 8  20677587.000 8      2237.914 8  85729186.255 8         0.000 0
      1740.990 8  20677598.891 8
 127351028.584 3  23832015.242 3      4183.119 3  99050892.988 4         0.000 0
      3252.713 4  23832029.711 4
 117028431.055 6  21923366.223 6     -3310.230 6  91022152.528 8         0.000 0
     -2575.121 8  21923375.105 8
 103276540.321 8  19306458.641 8      -109.813 8  80326232.211 6         0.000 0
       -85.947 6  19306467.375 6
 114365335.184 4  21386895.742 4      2790.639 4  88950830.787 4         0.000 0
      2170.527 4  21386904.766 4
 18  5 22 20 13 18.0000000  0 21G 1G 3G 6G 8G11G17G18G19G22G24G28G30
                                R 7R 8R12R13R14R15R22R23R24
 109237563.801 8  20787216.891 8     -1714.291 8  85120206.67549  20787223.41449
     -1335.99249         0.000 0
 120305715.679 7  22893415.793 7      2665.809 7  93744738.42348  22893422.78948
      2077.19348         0.000 0
 129465648.627 4  24636493.047 4      3723.096 4 100882341.87945  24636501.44545
      2901.10045         0.000 0
 130814232.090 5  24893120.680 5     -3130.758 5 101933202.93945  24893128.05145
     -2439.44945         0.000 0
 112586444.072 7  21424488.355 7     -2499.254 7  87729708.40748  21424490.85948
     -1947.65248         0.000 0
 114185735.063 9  21728822.551 9      1851.082 9  88975906.94649  21728825.15649
      1442.36949         0.000 0
 116663394.206 6  22200305.137 6     -3114.117 6  90906557.04847  22200308.47347
     -2426.93047         0.000 0
 120714519.398 6  22971209.004 6      3013.699 6  94063268.79848  22971210.75048
      2348.18948         0.000 0
 119403310.880 7  22721693.754 7       992.098 7  93041545.74348  22721695.50048
       773.11148         0.000 0
 130612851.360 3  24854799.660 3      2208.094 3 101776266.14144  24854808.33244
      1720.47544         0.000 0
 107496640.404 7  20455930.613 7      -233.100 7  83763625.39949  20455931.50449
      -181.69549         0.000 0
 124746547.345 4  23738479.195 4     -3516.539 4  97205131.20546  23738487.12146
     -2740.05546         0.000 0
 121264112.573 6  22653152.660 6      1867.541 6  94316564.765 7         0.000 0
      1453.234 7  22653161.398 7
 128449419.693 5  23987024.105 5      3872.746 5  99905159.616 5         0.000 0
      3011.619 5  23987034.848 5
 125537106.741 3  23559085.902 3     -4616.742 3         0.000 0         0.000 0
         0.000 0         0.000 0
 105918689.111 3  19835167.496 3     -1979.541 3  82381236.438 6         0.000 0
     -1539.814 6  19835174.656 6
 110220933.044 7  20677167.016 7      2238.668 7  85727444.697 8         0.000 0
      1740.746 8  20677180.766 8
 127346844.597 2  23831232.738 2      4184.227 2  99047638.795 4         0.000 0
      3253.795 4  23831248.348 4
 117031739.773 6  21923987.246 6     -3309.354 6  91024725.960 8         0.000 0
     -2574.039 8  21923995.555 8
 103276649.077 8  19306479.379 8      -109.896 8  80326316.815 6         0.000 0
       -84.980 6  19306489.832 6
 114362544.061 4  21386373.773 4      2791.115 4  88948659.933 4         0.000 0
      2170.855 4  21386384.805 4
 18  5 22 20 13 19.0000000  0 21G 1G 3G 6G 8G11G17G18G19G22G24G28G30
                                R 7R 8R12R13R14R15R22R23R24
 109239278.549 8  20787544.055 8     -1714.932 8  85121542.87649  20787549.26249
     -1336.30749         0.000 0
 120303051.158 7  22892908.586 7      2664.643 7  93742662.17648  22892915.31348
      2076.31448         0.000 0
 129461926.646 4  24635784.652 4      3722.047 4 100879441.64445  24635793.13745
      2900.24045         0.000 0
 130817363.799 5  24893716.285 5     -3131.477 5 101935643.19845  24893724.46945
     -2440.01845         0.000 0
 112588943.433 7  21424963.902 7     -2499.541 7  87731655.95948  21424966.23848
     -1947.73248         0.000 0
 114183884.147 8  21728470.313 8      1851.049 8  88974464.64449  21728472.33249
      1442.42849         0.000 0
 116666508.632 6  22200897.309 6     -3114.543 6  90908983.86647  22200901.11347
     -2426.89347         0.000 0
 120711505.913 6  22970635.547 6      3013.217 6  94060920.62948  22970638.09448
      2348.22948         0.000 0
 119402319.706 7  22721505.641 7       990.949 7  93040773.38648  22721507.35948
       772.27048         0.000 0
 130610644.411 3  24854379.313 3      2207.045 3 101774546.44244  24854388.38344
      1719.75244         0.000 0
 107496874.201 7  20455974.887 7      -233.445 7  83763807.57449  20455976.63349
      -181.77349         0.000 0
 124750064.836 5  23739148.488 5     -3517.844 5  97207872.11646  23739156.59046
     -2741.25046         0.000 0
 121262245.309 6  22652804.090 6      1866.811 6  94315112.478 7         0.000 0
      1451.711 7  22652814.262 7
 128445547.772 5  23986299.695 5      3871.910 5  99902148.092 5         0.000 0
      3012.018 5  23986311.582 5
 125541724.181 4  23559951.797 4     -4618.357 4         0.000 0         0.000 0
         0.000 0         0.000 0
 105920669.808 4  19835538.094 4     -1980.621 4  82382777.006 6         0.000 0
     -1540.893 6  19835547.688 6
 110218695.102 7  20676746.828 7      2238.029 7  85725704.057 8         0.000 0
      1741.494 8  20676760.008 8
 127342660.952 3  23830449.746 3      4183.957 3  99044384.817 4         0.000 0
      3253.666 4  23830466.789 4
 117035049.552 6  21924605.777 6     -3309.063 6  91027300.209 8         0.000 0
     -2574.344 8  21924617.094 8
 103276759.212 8  19306499.773 8      -110.049 8  80326402.466 5         0.000 0
       -85.814 5  19306510.230 5
 114359753.602 4  21385853.898 4      2790.617 4  88946489.527 4         0.000 0
      2170.309 4  21385860.488 4
 18  5 22 20 13 20.0000000  0 21G 1G 3G 6G 8G11G17G18G19G22G24G28G30
                                R 7R 8R12R13R14R15R22R23R24
 109240993.383 8  20787870.316 8     -1714.410 8  85122879.08649  20787875.56649
     -1336.07049         0.000 0
 120300387.001 7  22892401.770 7      2664.695 7  93740586.21148  22892408.58248
      2076.31648         0.000 0
 129458204.683 5  24635076.648 5      3720.811 5 100876541.40546  24635084.94546
      2899.38346         0.000 0
 130820495.541 5  24894312.418 5     -3130.408 5 101938083.54445  24894321.16045
     -2439.23445         0.000 0
 112591442.762 7  21425438.984 7     -2498.863 7  87733603.49648  21425442.09048
     -1947.37948         0.000 0
 114182032.802 8  21728117.605 8      1850.984 8  88973022.04949  21728120.21149
      1442.35249         0.000 0
 116669622.977 6  22201490.152 6     -3113.221 6  90911410.60647  22201494.19947
     -2425.71947         0.000 0
 120708492.085 6  22970062.191 6      3013.895 6  94058572.15848  22970064.05148
      2348.58248         0.000 0
 119401328.899 7  22721316.918 7       991.041 7  93040001.33748  22721318.37948
       772.21348         0.000 0
 130608437.300 2  24853960.066 2      2208.875 2 101772826.59744  24853968.45344
      1721.16044         0.000 0
 107497107.959 7  20456019.402 7      -233.686 7  83763989.72949  20456021.60549
      -182.10449         0.000 0
 124753582.417 4  23739818.891 4     -3518.436 4  97210613.08946  23739825.78546
     -2741.67846         0.000 0
 121260378.584 6  22652456.625 6      1868.074 6  94313660.580 7         0.000 0
      1452.221 7  22652466.797 7
 128441676.112 5  23985574.527 5      3872.141 5  99899136.831 5         0.000 0
      3011.805 5  23985590.141 5
 125546341.785 3  23560814.785 3     -4617.484 3         0.000 0         0.000 0
         0.000 0         0.000 0
 105922650.918 4  19835908.078 4     -1982.229 4  82384317.832 6         0.000 0
     -1541.809 6  19835917.961 6
 110216457.203 7  20676328.035 7      2238.123 7  85723963.464 8         0.000 0
      1740.988 8  20676341.641 8
 127338476.934 2  23829666.711 2      4185.201 2  99041130.585 4         0.000 0
      3255.660 4  23829682.754 4
 117038359.015 6  21925224.988 6     -3307.738 6  91029874.276 8         0.000 0
     -2573.012 8  21925237.449 8
 103276869.152 8  19306520.559 8      -109.293 8  80326487.993 6         0.000 0
       -85.498 6  19306529.152 6
 114356962.914 3  21385334.270 3      2790.611 3  88944319.008 4         0.000 0
      2169.922 4  21385337.137 4
 18  5 22 20 13 21.0000000  0 21G 1G 3G 6G 8G11G17G18G19G22G24G28G30
                                R 7R 8R12R13R14R15R22R23R24
 109242709.474 8  20788196.152 8     -1715.617 8  85124216.31249  20788202.79349
     -1336.77949         0.000 0
 120297724.118 6  22891894.813 6      2662.590 6  93738511.25648  22891901.55148
      2074.92248         0.000 0
 129454482.960 4  24634368.934 4      3721.535 4 100873641.38346  24634377.59046
      2899.88346         0.000 0
 130823627.934 6  24894908.559 6     -3132.648 6 101940524.38845  24894916.12545
     -2441.02045         0.000 0
 112593943.189 7  21425914.926 7     -2499.895 7  87735551.86948  21425917.67248
     -1947.95148         0.000 0
 114180181.920 8  21727765.332 8      1852.063 8  88971579.79649  21727767.79349
      1443.24249         0.000 0
 116672738.248 6  22202083.285 6     -3114.543 6  90913838.09647  22202087.57847
     -2426.99647         0.000 0
 120705478.422 6  22969488.410 6      3014.348 6  94056223.84648  22969490.45748
      2348.86748         0.000 0
 119400339.492 7  22721128.770 7       989.697 7  93039230.38348  22721129.78548
       771.28748         0.000 0
 130606230.438 2  24853541.254 2      2207.375 2 101771106.96943  24853548.06643
      1720.21543         0.000 0
 107497342.931 7  20456063.777 7      -234.229 7  83764172.83049  20456066.34049
      -182.48249         0.000 0
 124757100.518 5  23740488.434 5     -3517.688 5  97213354.47946  23740494.71546
     -2741.19546         0.000 0
 121258513.202 6  22652110.305 6      1865.336 6  94312209.695 7         0.000 0
      1450.805 7  22652115.176 7
 128437805.319 4  23984852.078 4      3870.559 4  99896126.262 5         0.000 0
      3009.521 5  23984866.977 5
 125550960.141 4  23561680.922 4     -4618.344 4         0.000 0         0.000 0
         0.000 0         0.000 0
 105924633.396 4  19836280.352 4     -1981.670 4  82385859.788 6         0.000 0
     -1542.283 6  19836292.668 6
 110214220.122 7  20675908.094 7      2238.084 7  85722223.529 8         0.000 0
      1740.875 8  20675921.414 8
 127334292.872 2  23828884.820 2      4184.678 2  99037876.282 4         0.000 0
      3255.955 4  23828899.289 4
 117041669.193 6  21925846.914 6     -3309.783 6  91032448.816 8         0.000 0
     -2574.203 8  21925856.941 8
 103276980.155 8  19306540.625 8      -109.797 8  80326574.298 6         0.000 0
       -85.477 6  19306549.793 6
 114354172.739 4  21384808.195 4      2791.193 4  88942148.860 4         0.000 0
      2170.848 4  21384815.641 4
 18  5 22 20 13 22.0000000  0 21G 1G 3G 6G 8G11G17G18G19G22G24G28G30
                                R 7R 8R12R13R14R15R22R23R24
 109244425.761 8  20788523.121 8     -1717.088 8  85125553.64649  20788529.03149
     -1338.13549         0.000 0
 120295062.094 7  22891388.699 7      2660.904 7  93736436.94248  22891394.43848
      2073.27348         0.000 0
 129450761.247 5  24633660.914 5      3721.490 5 100870741.33446  24633669.74246
      2900.01446         0.000 0
 130826760.923 6  24895504.395 6     -3133.711 6 101942965.66045  24895512.85245
     -2441.86745         0.000 0
 112596443.835 7  21426390.852 7     -2501.563 7  87737500.43248  21426393.96948
     -1949.09448         0.000 0
 114178330.230 8  21727412.754 8      1851.295 8  88970136.93849  21727416.20349
      1442.60949         0.000 0
 116675853.738 6  22202675.832 6     -3116.680 6  90916265.76447  22202679.82447
     -2428.37147         0.000 0
 120702463.971 6  22968914.613 6      3013.951 6  94053874.92648  22968916.66048
      2348.39148         0.000 0
 119399350.907 7  22720941.035 7       987.563 7  93038460.04948  22720941.36348
       769.54348         0.000 0
 130604023.028 2  24853120.996 2      2207.154 2 101769386.90543  24853128.60943
      1719.79743         0.000 0
 107497577.783 7  20456108.711 7      -235.154 7  83764355.80649  20456110.71549
      -183.21349         0.000 0
 124760618.766 5  23741157.820 5     -3518.574 5  97216095.96646  23741163.75846
     -2741.71146         0.000 0
 121256648.761 6  22651760.824 6      1863.719 6  94310759.561 7         0.000 0
      1449.707 7  22651768.559 7
 128433935.427 4  23984133.633 4      3869.248 4  99893116.306 4         0.000 0
      3009.135 4  23984146.379 4
 125555579.040 4  23562545.617 4     -4619.596 4         0.000 0         0.000 0
         0.000 0         0.000 0
 105926616.076 4  19836652.758 4     -1982.895 4  82387401.867 6         0.000 0
     -1542.604 6  19836661.063 6
 110211982.659 7  20675487.566 7      2236.773 7  85720483.291 8         0.000 0
      1739.549 8  20675500.027 8
 127330108.130 3  23828099.055 3      4185.023 3  99034621.478 4         0.000 0
      3254.709 4  23828112.234 4
 117044979.321 6  21926467.543 6     -3310.592 6  91035023.391 8         0.000 0
     -2575.371 8  21926478.570 8
 103277090.768 8  19306562.973 8      -111.930 8  80326660.319 6         0.000 0
       -87.057 6  19306569.848 6
 114351381.963 4  21384283.824 4      2790.084 4  88939978.298 4         0.000 0
      2170.023 4  21384293.996 4
 18  5 22 20 13 23.0000000  0 21G 1G 3G 6G 8G11G17G18G19G22G24G28G30
                                R 7R 8R12R13R14R15R22R23R24
 109246143.015 8  20788849.184 8     -1717.701 8  85126891.78549  20788855.68049
     -1338.23449         0.000 0
 120292401.175 6  22890882.254 6      2660.623 6  93734363.50048  22890888.30548
      2073.19548         0.000 0
 129447039.319 5  24632952.855 5      3721.953 5 100867841.11946  24632960.69546
      2900.16846         0.000 0
 130829894.541 6  24896100.473 6     -3133.719 6 101945407.43845  24896109.27345
     -2441.71345         0.000 0
 112598945.313 7  21426866.875 7     -2501.688 7  87739449.60648  21426870.26648
     -1949.28948         0.000 0
 114176478.374 8  21727060.703 8      1852.166 8  88968693.91349  21727063.52349
      1443.44749         0.000 0
 116678969.929 6  22203268.902 6     -3116.785 6  90918693.94847  22203272.42647
     -2428.76447         0.000 0
 120699449.066 6  22968341.344 6      3014.354 6  94051525.66148  22968343.47748
      2348.85948         0.000 0
 119398363.553 7  22720752.969 7       987.047 7  93037690.67848  22720753.87148
       769.20948         0.000 0
 130601815.382 3  24852700.262 3      2207.400 3 101767666.65543  24852708.49243
      1720.10743         0.000 0
 107497813.386 7  20456153.313 7      -236.332 7  83764539.41449  20456155.68849
      -184.13349         0.000 0
 124764137.127 5  23741827.160 5     -3518.230 5  97218837.51846  23741834.30146
     -2741.53746         0.000 0
 121254785.553 6  22651413.590 6      1862.482 6  94309310.394 7         0.000 0
      1449.023 7  22651421.754 7
 128430066.441 5  23983408.121 5      3868.951 5  99890107.035 4         0.000 0
      3009.857 4  23983421.730 4
 125560198.342 4  23563408.980 4     -4619.053 4         0.000 0         0.000 0
         0.000 0         0.000 0
 105928599.646 4  19837024.117 4     -1984.520 4  82388944.604 6         0.000 0
     -1542.604 6  19837033.141 6
 110209745.473 7  20675068.145 7      2236.396 7  85718743.246 8         0.000 0
      1739.842 8  20675082.180 8
 127325922.889 3  23827318.402 3      4185.820 3  99031366.290 4         0.000 0
      3255.861 4  23827329.000 4
 117048289.965 6  21927086.980 6     -3311.242 6  91037598.301 8         0.000 0
     -2575.020 8  21927097.434 8
 103277201.861 8  19306584.848 8      -111.428 8  80326746.725 6         0.000 0
       -86.684 6  19306590.004 6
 114348591.076 5  21383764.141 5      2790.371 5  88937807.605 4         0.000 0
      2169.947 4  21383770.586 4
 18  5 22 20 13 24.0000000  0 21G 1G 3G 6G 8G11G17G18G19G22G24G28G30
                                R 7R 8R12R13R14R15R22R23R24
 109247860.729 8  20789176.824 8     -1718.355 8  85128230.24149  20789182.71949
     -1338.96949         0.000 0
 120289741.104 7  22890375.523 7      2659.363 7  93732290.70648  22890381.71948
      2072.22748         0.000 0
 129443317.581 5  24632244.793 5      3723.230 5 100864941.10746  24632252.52046
      2901.32846         0.000 0
 130833028.498 5  24896697.840 5     -3134.957 5 101947849.47345  24896705.50845
     -2442.69945         0.000 0
 112601447.169 7  21427342.613 7     -2502.418 7  87741399.08948  21427345.30148
     -1949.96548         0.000 0
 114174626.324 8  21726708.082 8      1852.232 8  88967250.79949  21726711.31649
      1443.39649         0.000 0
 116682086.351 6  22203861.547 6     -3116.891 6  90921122.32047  22203866.27047
     -2428.79347         0.000 0
 120696433.907 6  22967767.648 6      3015.945 6  94049176.13448  22967770.13748
      2349.94148         0.000 0
 119397377.004 6  22720565.047 6       985.846 6  93036921.96748  22720566.30548
       768.14348         0.000 0
 130599607.541 3  24852279.242 3      2207.488 3 101765946.24444  24852287.71544
      1719.97944         0.000 0
 107498049.380 7  20456198.059 7      -236.693 7  83764723.28949  20456201.33249
      -184.61149         0.000 0
 124767655.862 5  23742496.789 5     -3518.492 5  97221579.41046  23742504.41446
     -2741.72346         0.000 0
 121252923.139 6  22651064.199 6      1861.078 6  94307861.884 7         0.000 0
      1447.311 7  22651074.941 7
 128426198.083 6  23982688.047 6      3867.707 6  99887098.326 5         0.000 0
      3008.334 5  23982700.652 5
 125564818.238 4  23564276.777 4     -4620.043 4         0.000 0         0.000 0
         0.000 0         0.000 0
 105930583.946 5  19837396.043 5     -1984.248 5  82390487.956 6         0.000 0
     -1543.277 6  19837405.355 6
 110207508.509 7  20674649.000 7      2236.988 7  85717003.363 8         0.000 0
      1739.373 8  20674660.316 8
 127321737.265 3  23826536.164 3      4185.303 3  99028110.784 4         0.000 0
      3255.918 4  23826544.902 4
 117051600.620 6  21927709.133 6     -3311.971 6  91040173.229 8         0.000 0
     -2575.822 8  21927717.441 8
 103277313.110 8  19306603.277 8      -111.906 8  80326833.243 6         0.000 0
       -87.076 6  19306612.875 6
 114345800.169 5  21383243.301 5      2791.662 5  88935636.965 4         0.000 0
      2170.869 4  21383250.035 4
 18  5 22 20 13 25.0000000  0 21G 1G 3G 6G 8G11G17G18G19G22G24G28G30
                                R 7R 8R12R13R14R15R22R23R24
 109249579.503 8  20789503.645 8     -1718.852 8  85129569.55349  20789510.10949
     -1339.33849         0.000 0
 120287082.580 7  22889869.977 7      2658.164 7  93730219.10548  22889876.55948
      2071.29148         0.000 0
 129439596.085 5  24631535.914 5      3720.920 5 100862041.23246  24631544.02746
      2899.55346         0.000 0
 130836163.572 5  24897293.387 5     -3135.943 5 101950292.42745  24897301.88745
     -2443.57645         0.000 0
 112603950.027 7  21427819.250 7     -2503.148 7  87743349.34548  21427821.38348
     -1950.58848         0.000 0
 114172774.047 8  21726355.219 8      1852.441 8  88965807.46749  21726359.03949
      1443.42049         0.000 0
 116685203.711 6  22204455.379 6     -3117.467 6  90923551.40647  22204458.18447
     -2429.29947         0.000 0
 120693418.294 6  22967193.418 6      3015.820 6  94046826.34248  22967195.23448
      2349.88548         0.000 0
 119396392.060 6  22720377.309 6       984.588 6  93036154.43848  22720379.31348
       767.52048         0.000 0
 130597399.469 3  24851859.840 3      2208.281 3 101764225.65444  24851867.85244
      1720.90044         0.000 0
 107498286.098 7  20456243.273 7      -236.896 7  83764907.74549  20456245.07449
      -184.62949         0.000 0
 124771175.029 5  23743167.031 5     -3519.146 5  97224321.60846  23743173.36746
     -2742.13346         0.000 0
 121251062.312 6  22650718.152 6      1860.551 6  94306414.550 7         0.000 0
      1447.412 7  22650725.172 7
 128422331.185 5  23981966.734 5      3866.414 5  99884090.751 5         0.000 0
      3007.406 5  23981977.047 5
 125569439.072 3  23565139.031 3     -4620.809 3         0.000 0         0.000 0
         0.000 0         0.000 0
 105932569.168 4  19837768.590 4     -1985.105 4  82392032.013 6         0.000 0
     -1544.059 6  19837775.895 6
 110205271.684 7  20674228.188 7      2237.023 7  85715263.602 8         0.000 0
      1740.203 8  20674242.797 8
 127317551.194 3  23825753.402 3      4186.037 3  99024854.942 4         0.000 0
      3255.617 4  23825759.992 4
 117054911.920 6  21928327.750 6     -3311.611 6  91042748.694 8         0.000 0
     -2575.164 8  21928337.777 8
 103277424.762 8  19306625.477 8      -111.855 8  80326920.103 6         0.000 0
       -86.244 6  19306632.641 6
 114343009.188 5  21382719.219 5      2791.506 5  88933466.177 4         0.000 0
      2170.426 4  21382728.527 4
 18  5 22 20 13 26.0000000  0 21G 1G 3G 6G 8G11G17G18G19G22G24G28G30
                                R 7R 8R12R13R14R15R22R23R24
 109251298.889 8  20789830.965 8     -1718.988 8  85130909.34649  20789837.00049
     -1339.58249         0.000 0
 120284424.120 7  22889363.930 7      2659.082 7  93728147.63248  22889371.39848
      2071.76848         0.000 0
 129435874.218 5  24630828.105 5      3721.055 5 100859141.09646  24630835.83246
      2899.48446         0.000 0
 130839298.455 5  24897890.434 5     -3134.242 5 101952735.19245  24897898.56345
     -2442.21945         0.000 0
 112606453.299 7  21428295.816 7     -2502.309 7  87745299.94648  21428297.43448
     -1949.81648         0.000 0
 114170922.088 8  21726003.422 8      1852.303 8  88964364.37649  21726006.43049
      1443.44749         0.000 0
 116688321.466 6  22205048.418 6     -3116.957 6  90925980.83947  22205052.48447
     -2428.82047         0.000 0
 120690402.862 6  22966619.402 6      3014.766 6  94044476.65148  22966621.19148
      2349.26848         0.000 0
 119395407.500 6  22720190.215 6       985.428 6  93035387.27248  22720191.88748
       767.99848         0.000 0
 130595191.963 3  24851440.219 3      2206.932 3 101762505.54844  24851447.98844
      1719.52144         0.000 0
 107498523.349 7  20456288.414 7      -236.779 7  83765092.60949  20456290.87549
      -184.38749         0.000 0
 124774693.989 5  23743835.340 5     -3518.754 5  97227063.66046  23743843.16446
     -2741.69146         0.000 0
 121249202.115 6  22650368.590 6      1861.404 6  94304967.760 7         0.000 0
      1447.441 7  22650377.324 7
 128418464.010 5  23981242.332 5      3867.525 5  99881082.953 5         0.000 0
      3007.936 5  23981252.070 5
 125574059.510 3  23566004.363 3     -4620.068 3         0.000 0         0.000 0
         0.000 0         0.000 0
 105934555.183 5  19838138.195 5     -1986.383 5  82393576.646 6         0.000 0
     -1545.061 6  19838146.215 6
 110203035.812 7  20673809.727 7      2235.400 7  85713524.606 8         0.000 0
      1738.938 8  20673821.043 8
 127313365.444 3  23824968.129 3      4185.490 3  99021599.347 4         0.000 0
      3256.066 4  23824976.293 4
 117058223.433 6  21928947.867 6     -3310.961 6  91045324.322 8         0.000 0
     -2575.107 8  21928958.324 8
 103277537.123 8  19306644.738 8      -112.088 8  80327007.512 6         0.000 0
       -87.338 6  19306654.191 6
 114340218.528 5  21382197.773 5      2790.465 5  88931295.627 4         0.000 0
      2170.080 4  21382206.082 4
 18  5 22 20 13 27.0000000  0 21G 1G 3G 6G 8G11G17G18G19G22G24G28G30
                                R 7R 8R12R13R14R15R22R23R24
 109253019.019 8  20790158.371 8     -1721.342 8  85132249.70549  20790164.18049
     -1341.43449         0.000 0
 120281766.104 7  22888857.969 7      2656.414 7  93726076.44948  22888865.59848
      2069.79948         0.000 0
 129432152.400 5  24630119.098 5      3720.322 5 100856240.91446  24630128.01646
      2898.97946         0.000 0
 130842433.555 6  24898487.285 6     -3135.873 6 101955178.10845  24898494.60945
     -2443.52545         0.000 0
 112608957.199 7  21428771.750 7     -2504.896 7  87747251.06749  21428774.71549
     -1951.70949         0.000 0
 114169070.529 8  21725650.859 8      1850.789 8  88962921.60049  21725653.93449
      1442.24049         0.000 0
 116691439.919 6  22205641.551 6     -3119.936 6  90928410.77947  22205646.48447
     -2430.90847         0.000 0
 120687387.757 6  22966045.902 6      3014.814 6  94042127.16548  22966047.84848
      2349.23248         0.000 0
 119394423.654 6  22720003.492 6       982.332 6  93034620.64148  22720004.18048
       765.53948         0.000 0
 130592985.349 3  24851020.543 3      2206.141 3 101760786.09944  24851026.98444
      1718.99844         0.000 0
 107498761.162 7  20456334.219 7      -238.508 7  83765277.92949  20456335.62149
      -185.96549         0.000 0
 124778212.999 5  23744505.449 5     -3520.406 5  97229805.72846  23744513.09446
     -2743.13546         0.000 0
 121247342.947 7  22650022.410 7      1857.543 7  94303521.715 7         0.000 0
      1445.039 7  22650029.285 7
 128414597.023 6  23980519.313 6      3865.072 6  99878075.274 5         0.000 0
      3006.158 5  23980530.629 5
 125578679.849 3  23566870.789 3     -4621.215 3         0.000 0         0.000 0
         0.000 0         0.000 0
 105936541.962 5  19838508.465 5     -1987.215 5  82395121.964 6         0.000 0
     -1546.467 6  19838518.063 6
 110200800.934 7  20673390.789 7      2233.377 7  85711786.370 8         0.000 0
      1737.238 8  20673403.539 8
 127309180.438 3  23824184.809 3      4184.307 3  99018344.368 4         0.000 0
      3254.584 4  23824197.984 4
 117061535.435 6  21929569.512 6     -3313.982 6  91047900.305 8         0.000 0
     -2577.469 8  21929579.105 8
 103277650.226 8  19306666.238 8      -114.445 8  80327095.413 5         0.000 0
       -88.645 5  19306674.258 5
 114337428.351 4  21381677.570 4      2789.418 4  88929125.470 4         0.000 0
      2169.691 4  21381684.445 4
 18  5 22 20 13 28.0000000  0 21G 1G 3G 6G 8G11G17G18G19G22G24G28G30
                                R 7R 8R12R13R14R15R22R23R24
 109254739.732 8  20790485.996 8     -1721.785 8  85133590.53249  20790491.97749
     -1341.67649         0.000 0
 120279108.801 7  22888352.801 7      2656.756 7  93724005.80848  22888359.68448
      2070.14548         0.000 0
 129428430.557 5  24629411.457 5      3721.092 5 100853340.80746  24629420.22746
      2899.71746         0.000 0
 130845569.192 5  24899084.066 5     -3136.141 5 101957621.45545  24899091.56345
     -2443.96145         0.000 0
 112611461.600 7  21429249.051 7     -2505.359 7  87749202.55348  21429250.58248
     -1952.18448         0.000 0
 114167218.808 8  21725298.656 8      1850.797 8  88961478.71049  21725301.51649
      1442.07849         0.000 0
 116694558.822 6  22206235.039 6     -3119.871 6  90930841.10147  22206238.71947
     -2431.05147         0.000 0
 120684372.430 6  22965472.477 6      3014.412 6  94039777.61848  22965474.23848
      2348.75848         0.000 0
 119393440.655 6  22719816.129 6       982.086 6  93033854.68248  22719817.17648
       765.34048         0.000 0
 130590779.001 3  24850600.660 3      2204.957 3 101759066.90044  24850606.71144
      1718.15244         0.000 0
 107498999.343 7  20456379.523 7      -239.537 7  83765463.53849  20456381.61349
      -186.57649         0.000 0
 124781732.030 5  23745174.637 5     -3519.893 5  97232547.83447  23745182.19147
     -2742.90647         0.000 0
 121245484.801 6  22649676.023 6      1857.172 6  94302076.505 7         0.000 0
      1444.021 7  22649684.188 7
 128410730.640 5  23979800.094 5      3866.275 5  99875068.128 5         0.000 0
      3007.355 5  23979807.828 5
 125583300.582 3  23567735.426 3     -4620.713 3         0.000 0         0.000 0
         0.000 0         0.000 0
 105938529.446 4  19838882.246 4     -1989.148 4  82396667.748 6         0.000 0
     -1546.492 6  19838890.125 6
 110198566.448 6  20672970.781 6      2233.369 6  85710048.420 8         0.000 0
      1737.613 8  20672983.672 8
 127304995.454 3  23823402.707 3      4183.711 3  99015089.380 4         0.000 0
      3253.498 4  23823414.023 4
 117064847.713 6  21930188.648 6     -3313.096 6  91050476.523 8         0.000 0
     -2576.973 8  21930200.109 8
 103277763.553 8  19306688.387 8      -114.629 8  80327183.593 6         0.000 0
       -89.400 6  19306695.691 6
 114334638.073 4  21381155.008 4      2789.492 4  88926955.245 4         0.000 0
      2169.672 4  21381164.176 4
 18  5 22 20 13 29.0000000  0 21G 1G 3G 6G 8G11G17G18G19G22G24G28G30
                                R 7R 8R12R13R14R15R22R23R24
 109256460.681 8  20790812.945 8     -1721.498 8  85134931.51749  20790819.18449
     -1341.43949         0.000 0
 120276451.225 7  22887846.523 7      2657.725 7  93721934.96648  22887854.35248
      2071.00448         0.000 0
 129424708.868 4  24628703.418 4      3721.494 4 100850440.78946  24628712.14846
      2899.89146         0.000 0
 130848704.067 6  24899680.883 6     -3133.979 6 101960064.22045  24899688.46945
     -2441.98845         0.000 0
 112613965.987 7  21429725.242 7     -2504.213 7  87751154.00348  21429727.90648
     -1951.36148         0.000 0
 114165367.619 9  21724946.918 9      1851.160 9  88960036.19449  21724949.19149
      1442.58649         0.000 0
 116697677.652 6  22206828.281 6     -3118.725 6  90933271.36747  22206832.23047
     -2430.13347         0.000 0
 120681357.671 6  22964898.375 6      3014.189 6  94037428.45348  22964900.62148
      2348.71948         0.000 0
 119392457.642 7  22719629.520 7       983.055 7  93033088.68448  22719629.70748
       766.06148         0.000 0
 130588573.407 4  24850181.383 4      2204.795 4 101757348.26044  24850187.53544
      1717.93844         0.000 0
 107499237.853 7  20456424.152 7      -238.625 7  83765649.36049  20456427.58649
      -185.81449         0.000 0
 124785251.144 5  23745844.148 5     -3519.467 5  97235290.00046  23745851.64546
     -2742.49646         0.000 0
 121243626.821 6  22649328.234 6      1858.471 6  94300631.409 7         0.000 0
      1444.961 7  22649337.688 7
 128406863.652 5  23979077.465 5      3867.932 5  99872060.467 5         0.000 0
      3008.777 5  23979088.496 5
 125587920.968 3  23568599.809 3     -4620.367 3         0.000 0         0.000 0
         0.000 0         0.000 0
 105940517.708 4  19839254.629 4     -1988.926 4  82398214.223 6         0.000 0
     -1547.365 6  19839265.086 6
 110196333.072 7  20672551.379 7      2232.309 7  85708311.398 8         0.000 0
      1735.988 8  20672564.699 8
 127300810.958 3  23822617.777 3      4184.490 3  99011834.828 4         0.000 0
      3253.881 4  23822630.523 4
 117068159.730 6  21930808.965 6     -3312.588 6  91053052.523 8         0.000 0
     -2575.438 8  21930820.996 8
 103277877.476 8  19306708.418 8      -114.709 8  80327272.168 6         0.000 0
       -88.332 6  19306718.301 6
 114331848.494 4  21380632.191 4      2789.191 4  88924785.646 4         0.000 0
      2168.773 4  21380642.074 4
 18  5 22 20 13 30.0000000  0 21G 1G 3G 6G 8G11G17G18G19G22G24G28G30
                                R 7R 8R12R13R14R15R22R23R24
 109258181.692 8  20791140.750 8     -1721.449 8  85136272.56449  20791146.27349
     -1341.21749         0.000 0
 120273792.775 7  22887340.820 7      2659.436 7  93719863.45048  22887348.55948
      2072.20348         0.000 0
 129420987.754 4  24627995.094 4      3720.900 4 100847541.22246  24628003.26646
      2899.43246         0.000 0
 130851837.681 6  24900277.129 6     -3132.836 6 101962505.99145  24900284.34045
     -2441.19945         0.000 0
 112616470.068 7  21430202.438 7     -2503.754 7  87753105.27448  21430204.23848
     -1950.82848         0.000 0
 114163517.720 8  21724594.605 8      1849.160 8  88958594.71849  21724596.93849
      1440.91449         0.000 0
 116700796.207 6  22207422.379 6     -3118.695 6  90935701.45847  22207426.96147
     -2430.10547         0.000 0
 120678344.444 6  22964324.844 6      3012.229 6  94035080.50648  22964327.07848
      2347.14648         0.000 0
 119391473.968 7  22719441.621 7       984.453 7  93032322.16748  22719442.95348
       767.10548         0.000 0
 130586369.565 3  24849761.531 3      2201.543 3 101755631.00444  24849767.58644
      1715.36744         0.000 0
 107499476.861 7  20456469.492 7      -238.869 7  83765835.63349  20456472.32449
      -186.15849         0.000 0
 124788770.443 4  23746514.086 4     -3519.320 4  97238032.30846  23746520.71146
     -2742.41046         0.000 0
 121241768.532 6  22648980.023 6      1858.416 6  94299186.096 7         0.000 0
      1445.189 7  22648990.621 7
 128402995.240 5  23978356.563 5      3869.238 5  99869051.701 5         0.000 0
      3009.793 5  23978366.305 5
 125592540.675 3  23569463.625 3     -4618.063 3         0.000 0         0.000 0
         0.000 0         0.000 0
 105942507.140 3  19839627.160 3     -1990.250 3  82399761.584 6         0.000 0
     -1548.002 6  19839634.895 6
 110194101.499 7  20672134.125 7      2230.373 7  85706575.733 8         0.000 0
      1734.307 8  20672144.582 8
 127296627.811 2  23821835.141 2      4182.572 2  99008581.281 4         0.000 0
      3253.355 4  23821849.035 4
 117071471.181 6  21931429.000 6     -3311.150 6  91055628.150 8         0.000 0
     -2575.553 8  21931441.461 8
 103277992.361 8  19306731.461 8      -115.809 8  80327361.566 6         0.000 0
       -90.227 6  19306741.629 6
 114329060.366 4  21380113.246 4      2788.119 4  88922617.059 4         0.000 0
      2168.592 4  21380120.551 4
 18  5 22 20 13 31.0000000  0 21G 1G 3G 6G 8G11G17G18G19G22G24G28G30
                                R 7R 8R12R13R14R15R22R23R24
 109259902.896 8  20791467.723 8     -1721.695 8  85137613.75749  20791473.98849
     -1341.42249         0.000 0
 120271132.965 7  22886834.566 7      2660.381 7  93717790.85748  22886842.16448
      2073.11348         0.000 0
 129417266.023 4  24627287.086 4      3721.826 4 100844641.17446  24627295.28546
      2900.28146         0.000 0
 130854970.355 5  24900872.973 5     -3132.398 5 101964947.00445  24900881.57045
     -2440.81845         0.000 0
 112618974.114 7  21430678.797 7     -2503.688 7  87755056.49949  21430681.18849
     -1950.81649         0.000 0
 114161668.627 8  21724242.320 8      1848.348 8  88957153.85849  21724245.69949
      1440.22149         0.000 0
 116703915.058 6  22208015.934 6     -3119.059 6  90938131.74347  22208019.66847
     -2430.38947         0.000 0
 120675332.184 6  22963752.484 6      3010.986 6  94032733.29448  22963754.54748
      2346.21948         0.000 0
 119390489.674 7  22719254.609 7       985.066 7  93031555.23948  22719255.18448
       767.27148         0.000 0
 130584168.134 3  24849341.566 3      2200.008 3 101753915.60644  24849349.20744
      1714.32444         0.000 0
 107499715.789 7  20456516.004 7      -238.822 7  83766021.78549  20456517.52349
      -185.95149         0.000 0
 124792288.712 4  23747184.051 4     -3518.631 4  97240773.82146  23747191.24646
     -2741.83446         0.000 0
 121239910.471 6  22648633.844 6      1858.287 6  94297740.968 7         0.000 0
      1445.395 7  22648642.293 7
 128399125.205 6  23977631.965 6      3870.730 6  99866041.686 5         0.000 0
      3009.920 5  23977640.988 5
 125597158.782 4  23570326.750 4     -4618.545 4         0.000 0         0.000 0
         0.000 0         0.000 0
 105944496.872 4  19839997.422 4     -1990.086 4  82401309.127 6         0.000 0
     -1547.855 6  19840010.316 6
 110191871.879 8  20671715.184 8      2228.174 8  85704841.557 8         0.000 0
      1733.203 8  20671728.359 8
 127292446.901 3  23821052.676 3      4180.080 3  99005329.512 4         0.000 0
      3250.865 4  23821067.285 4
 117074782.778 6  21932048.488 6     -3311.943 6  91058203.842 8         0.000 0
     -2575.953 8  21932060.090 8
 103278108.042 8  19306752.813 8      -116.270 8  80327451.566 6         0.000 0
       -90.568 6  19306758.973 6
 114326273.025 3  21379589.602 3      2786.271 3  88920449.094 4         0.000 0
      2168.623 4  21379600.629 4
 18  5 22 20 13 32.0000000  0 21G 1G 3G 6G 8G11G17G18G19G22G24G28G30
                                R 7R 8R12R13R14R15R22R23R24
 109261625.212 8  20791795.688 8     -1722.320 8  85138955.82749  20791802.48449
     -1341.96349         0.000 0
 120268473.595 7  22886329.023 7      2659.695 7  93715718.59648  22886336.25048
      2072.53148         0.000 0
 129413544.484 4  24626579.066 4      3722.156 4 100841741.27045  24626587.50845
      2900.48045         0.000 0
 130858102.896 5  24901468.949 5     -3132.086 5 101967387.99145  24901476.93445
     -2440.57845         0.000 0
 112621479.032 7  21431155.152 7     -2505.055 7  87757008.37449  21431157.51249
     -1952.08249         0.000 0
 114159820.602 8  21723890.602 8      1847.820 8  88955713.87049  21723893.73449
      1439.85449         0.000 0
 116707034.646 6  22208609.766 6     -3120.152 6  90940562.57647  22208613.87147
     -2431.30147         0.000 0
 120672320.707 6  22963179.117 6      3011.746 6  94030386.68848  22963181.50448
      2346.78948         0.000 0
 119389506.225 6  22719067.160 6       983.365 6  93030788.90348  22719068.76248
       766.31848         0.000 0
 130581967.575 4  24848923.020 4      2199.773 4 101752200.87744  24848931.53544
      1714.21144         0.000 0
 107499955.961 7  20456561.078 7      -239.760 7  83766208.95649  20456563.34049
      -186.80749         0.000 0
 124795807.231 5  23747853.434 5     -3517.301 5  97243515.54646  23747859.65646
     -2740.79346         0.000 0
 121238053.234 6  22648286.500 6      1857.203 6  94296296.490 7         0.000 0
      1443.463 7  22648295.094 7
 128395255.011 6  23976908.637 6      3869.887 6  99863031.503 6         0.000 0
      3010.365 6  23976918.809 6
 125601776.719 3  23571191.727 3     -4617.201 3         0.000 0         0.000 0
         0.000 0         0.000 0
 105946488.125 3  19840371.254 3     -1990.586 3  82402857.911 6         0.000 0
     -1549.547 6  19840383.145 6
 110189643.831 8  20671297.086 8      2227.818 8  85703108.649 8         0.000 0
      1732.418 8  20671310.121 8
 127288266.643 3  23820270.480 3      4180.742 3  99002078.175 4         0.000 0
      3251.385 4  23820284.090 4
 117078094.836 6  21932669.254 6     -3311.824 6  91060779.883 8         0.000 0
     -2576.115 8  21932680.996 8
 103278225.156 8  19306775.012 8      -117.443 8  80327542.629 6         0.000 0
       -91.100 6  19306782.027 6
 114323486.592 3  21379068.805 3      2786.928 3  88918281.937 4         0.000 0
      2167.393 4  21379080.121 4
 18  5 22 20 13 33.0000000  0 21G 1G 3G 6G 8G11G17G18G19G22G24G28G30
                                R 7R 8R12R13R14R15R22R23R24
 109263347.335 8  20792123.563 8     -1725.068 8  85140297.77249  20792130.47349
     -1344.18449         0.000 0
 120265812.796 7  22885822.238 7      2659.352 7  93713645.29548  22885829.98048
      2072.22548         0.000 0
 129409822.830 4  24625870.094 4      3721.715 4 100838841.32945  24625878.44945
      2900.05945         0.000 0
 130861234.371 3  24902064.977 3     -3133.506 3 101969828.09945  24902073.60545
     -2441.76445         0.000 0
 112623983.539 7  21431632.125 7     -2506.865 7  87758959.95449  21431634.51649
     -1953.44349         0.000 0
 114157973.316 8  21723539.504 8      1845.268 8  88954274.46349  21723542.35249
      1437.90849         0.000 0
 116710154.076 6  22209203.359 6     -3121.865 6  90942993.29347  22209206.89547
     -2432.58447         0.000 0
 120669310.362 5  22962606.367 5      3010.016 5  94028041.00447  22962608.50047
      2345.56647         0.000 0
 119388521.864 6  22718879.613 6       982.006 6  93030021.91448  22718881.16048
       765.19348         0.000 0
 130579769.387 4  24848504.523 4      2197.865 4 101750487.98344  24848513.05544
      1712.65444         0.000 0
 107500195.865 7  20456607.348 7      -242.371 7  83766395.89049  20456608.59049
      -188.71549         0.000 0
 124799325.108 5  23748522.578 5     -3518.682 5  97246256.74046  23748529.26246
     -2741.64646         0.000 0
 121236196.026 6  22647938.926 6      1855.223 6  94294851.988 7         0.000 0
      1443.002 7  22647948.809 7
 128391383.257 6  23976186.371 6      3870.910 6  99860020.148 6         0.000 0
      3011.004 6  23976195.395 6
 125606393.372 3  23572054.605 3     -4617.389 3         0.000 0         0.000 0
         0.000 0         0.000 0
 105948479.674 3  19840745.570 3     -1993.324 3  82404406.859 6         0.000 0
     -1550.482 6  19840756.742 6
 110187417.536 7  20670879.328 7      2224.271 7  85701377.061 8         0.000 0
      1729.482 8  20670893.363 8
 127284088.494 4  23819486.336 4      4177.174 4  98998828.477 5         0.000 0
      3248.883 5  23819500.086 5
 117081406.623 6  21933292.504 6     -3314.049 6  91063355.723 8         0.000 0
     -2577.760 8  21933301.098 8
 103278342.754 8  19306796.832 8      -120.230 8  80327634.120 6         0.000 0
       -92.941 6  19306803.992 6
 114320701.114 3  21378551.359 3      2784.400 3  88916115.416 4         0.000 0
      2166.602 4  21378559.809 4
 18  5 22 20 13 34.0000000  0 21G 1G 3G 6G 8G11G17G18G19G22G24G28G30
                                R 7R 8R12R13R14R15R22R23R24
 109265069.785 9  20792451.270 9     -1723.826 9  85141639.94049  20792457.32449
     -1343.29949         0.000 0
 120263151.489 7  22885315.723 7      2661.178 7  93711571.55048  22885323.10548
      2073.57848         0.000 0
 129406100.329 4  24625162.102 4      3722.936 4 100835940.70045  24625169.80145
      2900.76845         0.000 0
 130864365.596 3  24902660.980 3     -3131.775 3 101972268.05744  24902669.65244
     -2440.27144         0.000 0
 112626488.300 7  21432108.219 7     -2506.443 7  87760911.73349  21432111.85549
     -1953.22149         0.000 0
 114156126.064 8  21723187.668 8      1846.156 8  88952835.02849  21723190.71549
      1438.67649         0.000 0
 116713273.981 6  22209796.789 6     -3120.623 6  90945424.38447  22209800.23847
     -2431.65847         0.000 0
 120666300.065 5  22962033.598 5      3009.381 5  94025695.28147  22962035.12947
      2344.88747         0.000 0
 119387537.574 6  22718692.477 6       983.500 6  93029254.95948  22718693.53548
       766.25448         0.000 0
 130577572.440 3  24848086.867 3      2195.650 3 101748776.05844  24848094.58244
      1710.86344         0.000 0
 107500435.601 7  20456652.879 7      -240.953 7  83766582.70949  20456654.20749
      -187.86749         0.000 0
 124802842.000 4  23749191.563 4     -3516.795 4  97248997.17746  23749198.37546
     -2740.19346         0.000 0
 121234339.512 6  22647591.758 6      1855.752 6  94293408.023 7         0.000 0
      1443.650 7  22647601.211 7
 128387510.916 6  23975461.641 6      3872.186 6  99857008.338 6         0.000 0
      3012.094 6  23975472.098 6
 125611008.800 4  23572919.320 4     -4614.980 4         0.000 0         0.000 0
         0.000 0         0.000 0
 105950471.233 3  19841119.145 3     -1993.500 3  82405955.828 6         0.000 0
     -1549.652 6  19841128.023 6
 110185192.238 7  20670460.688 7      2223.535 7  85699646.259 7         0.000 0
      1730.105 7  20670475.727 7
 127279911.373 3  23818706.320 3      4176.518 3  98995579.606 5         0.000 0
      3247.881 5  23818721.504 5
 117084718.713 6  21933914.012 6     -3313.080 6  91065931.791 8         0.000 0
     -2576.848 8  21933921.746 8
 103278460.729 8  19306818.199 8      -119.811 8  80327725.873 6         0.000 0
       -92.865 6  19306828.512 6
 114317915.510 3  21378029.160 3      2785.145 3  88913948.842 4         0.000 0
      2167.246 4  21378034.031 4
 18  5 22 20 13 35.0000000  0 21G 1G 3G 6G 8G11G17G18G19G22G24G28G30
                                R 7R 8R12R13R14R15R22R23R24
 109266793.554 8  20792779.578 8     -1724.910 8  85142983.14349  20792785.39149
     -1344.14149         0.000 0
 120260490.044 7  22884809.234 7      2661.246 7  93709497.70549  22884816.52049
      2073.73249         0.000 0
 129402377.790 4  24624453.711 4      3722.984 4 100833040.03945  24624461.28145
      2900.84245         0.000 0
 130867496.461 2  24903257.730 2     -3130.164 2 101974707.68743  24903263.09843
     -2439.16243         0.000 0
 112628994.025 7  21432584.773 7     -2506.141 7  87762864.24849  21432588.23449
     -1952.81349         0.000 0
 114154280.425 8  21722836.578 8      1844.840 8  88951396.86949  21722839.23849
      1437.50249         0.000 0
 116716394.957 6  22210390.105 6     -3122.234 6  90947856.31147  22210393.95347
     -2432.95147         0.000 0
 120663291.100 5  22961460.570 5      3008.863 5  94023350.65647  22961462.26247
      2344.68947         0.000 0
 119386553.819 6  22718505.086 6       983.393 6  93028488.38448  22718507.04348
       766.36748         0.000 0
 130575377.589 4  24847669.668 4      2194.391 4 101747065.80844  24847676.76644
      1709.78744         0.000 0
 107500676.642 7  20456698.867 7      -242.018 7  83766770.53849  20456700.52749
      -188.49649         0.000 0
 124806358.762 5  23749861.004 5     -3516.824 5  97251737.56046  23749867.51246
     -2740.51046         0.000 0
 121232483.960 6  22647246.199 6      1854.902 6  94291964.813 7         0.000 0
      1442.318 7  22647254.648 7
 128383637.792 5  23974738.094 5      3873.035 5  99853995.934 5         0.000 0
      3013.146 5  23974751.270 5
 125615623.382 4  23573784.070 4     -4613.545 4         0.000 0         0.000 0
         0.000 0         0.000 0
 105952464.286 3  19841490.316 3     -1993.256 3  82407506.002 6         0.000 0
     -1550.691 6  19841501.633 6
 110182969.407 7  20670044.656 7      2221.064 7  85697917.420 7         0.000 0
      1727.662 7  20670056.832 7
 127275736.194 3  23817925.191 3      4173.813 3  98992332.205 5         0.000 0
      3247.994 5  23817939.375 5
 117088031.573 6  21934533.262 6     -3313.520 6  91068508.465 8         0.000 0
     -2576.654 8  21934543.145 8
 103278580.571 8  19306840.887 8      -121.227 8  80327819.113 6         0.000 0
       -94.959 6  19306849.770 6
 114315131.397 3  21377508.141 3      2783.846 3  88911783.421 4         0.000 0
      2166.053 4  21377513.727 4
 18  5 22 20 13 36.0000000  0 21G 1G 3G 6G 8G11G17G18G19G22G24G28G30
                                R 7R 8R12R13R14R15R22R23R24
 109268517.464 8  20793107.438 8     -1724.521 8  85144326.46749  20793113.54749
     -1343.89849         0.000 0
 120257827.854 7  22884302.438 7      2662.203 7  93707423.26648  22884309.86348
      2074.54348         0.000 0
 129398654.480 4  24623744.727 4      3723.688 4 100830138.79445  24623752.86745
      2901.47745         0.000 0
 130870627.129 4  24903852.887 4     -3130.654 4 101977147.11343  24903858.45343
     -2439.52343         0.000 0
 112631499.900 7  21433061.875 7     -2506.650 7  87764816.86148  21433065.16848
     -1953.19548         0.000 0
 114152434.866 8  21722485.176 8      1845.131 8  88949958.76549  21722488.18449
      1437.84449         0.000 0
 116719516.295 6  22210984.258 6     -3121.592 6  90950288.51347  22210988.40647
     -2432.19947         0.000 0
 120660282.326 5  22960888.098 5      3008.297 5  94021006.15747  22960889.52747
      2343.95747         0.000 0
 119385569.931 6  22718317.668 6       983.197 6  93027721.70948  22718319.04348
       766.04548         0.000 0
 130573184.268 3  24847252.305 3      2192.631 3 101745356.77145  24847258.77345
      1708.43045         0.000 0
 107500917.386 7  20456744.691 7      -241.395 7  83766958.13949  20456746.57849
      -188.13549         0.000 0
 124809874.423 5  23750529.848 5     -3515.635 5  97254477.02446  23750536.76246
     -2739.50446         0.000 0
 121230629.039 6  22646898.898 6      1854.559 6  94290522.110 7         0.000 0
      1442.193 7  22646909.066 7
 128379763.886 4  23974014.949 4      3873.527 4  99850982.865 6         0.000 0
      3013.613 6  23974026.840 6
 125620236.750 5  23574645.359 5     -4612.662 5         0.000 0         0.000 0
         0.000 0         0.000 0
 105954457.276 4  19841864.332 4     -1994.047 4  82409056.128 6         0.000 0
     -1551.426 6  19841872.641 6
 110180747.624 7  20669630.035 7      2220.775 7  85696189.370 7         0.000 0
      1727.014 7  20669640.348 7
 127271562.264 2  23817146.336 2      4173.617 2  98989085.895 4         0.000 0
      3245.496 4  23817158.797 4
 117091344.720 6  21935152.492 6     -3313.406 6  91071085.365 8         0.000 0
     -2577.592 8  21935164.953 8
 103278700.702 8  19306862.410 8      -121.109 8  80327912.536 6         0.000 0
       -94.393 6  19306872.148 6
 114312347.241 3  21376984.523 3      2783.600 3  88909617.962 4         0.000 0
      2165.363 4  21376993.547 4
 18  5 22 20 13 37.0000000  0 21G 1G 3G 6G 8G11G17G18G19G22G24G28G30
                                R 7R 8R12R13R14R15R22R23R24
 109270242.752 8  20793435.473 8     -1725.900 8  85145670.83149  20793442.09849
     -1344.87749         0.000 0
 120255165.691 6  22883796.391 6      2661.564 6  93705348.89048  22883803.63348
      2073.85548         0.000 0
 129394930.397 3  24623036.488 3      3724.338 3 100827236.88645  24623044.83245
      2901.92445         0.000 0
 130873757.913 5  24904448.789 5     -3130.959 5 101979586.68844  24904454.09844
     -2439.70144         0.000 0
 112634006.931 7  21433538.297 7     -2507.307 7  87766770.38848  21433541.17648
     -1953.54948         0.000 0
 114150590.214 8  21722134.527 8      1844.807 8  88948521.39749  21722137.14849
      1437.66449         0.000 0
 116722638.975 6  22211578.301 6     -3123.732 6  90952721.80047  22211582.59447
     -2434.15447         0.000 0
 120657274.108 5  22960315.367 5      3008.381 5  94018662.07447  22960317.15647
      2344.28547         0.000 0
 119384586.846 6  22718130.715 6       982.090 6  93026955.70948  22718132.59048
       765.28148         0.000 0
 130570992.684 4  24846835.547 4      2190.822 4 101743649.04745  24846841.91445
      1706.96145         0.000 0
 107501159.032 7  20456790.121 7      -242.402 7  83767146.41849  20456791.92249
      -188.92049         0.000 0
 124813389.374 5  23751199.160 5     -3515.451 5  97257215.95046  23751206.19946
     -2739.36946         0.000 0
 121228775.515 6  22646549.906 6      1852.465 6  94289080.461 7         0.000 0
      1440.879 7  22646561.078 7
 128375889.655 3  23973291.695 3      3874.055 3  99847969.661 5         0.000 0
      3012.252 5  23973303.441 5
 125624849.007 3  23575513.414 3     -4612.543 3         0.000 0         0.000 0
         0.000 0         0.000 0
 105956451.129 5  19842238.379 5     -1993.623 5  82410606.930 6         0.000 0
     -1551.408 6  19842246.398 6
 110178527.706 7  20669212.297 7      2219.859 7  85694462.812 8         0.000 0
      1726.633 8  20669224.613 8
 127267389.944 3  23816365.930 3      4171.531 3  98985840.801 5         0.000 0
      3243.352 5  23816377.676 5
 117094659.031 6  21935775.188 6     -3315.193 6  91073663.139 8         0.000 0
     -2578.367 8  21935783.637 8
 103278822.306 8  19306885.391 8      -121.984 8  80328007.130 6         0.000 0
       -94.914 6  19306895.277 6
 114309563.631 3  21376467.090 3      2783.068 3  88907452.952 4         0.000 0
      2164.906 4  21376474.395 4
 18  5 22 20 13 38.0000000  0 21G 1G 3G 6G 8G11G17G18G19G22G24G28G30
                                R 7R 8R12R13R14R15R22R23R24
 109271968.079 8  20793763.934 8     -1726.572 8  85147015.25649  20793770.39849
     -1345.35749         0.000 0
 120252503.253 6  22883289.766 6      2661.420 6  93703274.26648  22883296.50448
      2073.72948         0.000 0
 129391206.120 4  24622328.391 4      3724.234 4 100824334.85845  24622335.78945
      2902.04945         0.000 0
 130876888.495 5  24905044.832 5     -3131.574 5 101982026.10144  24905050.16844
     -2440.18244         0.000 0
 112636513.938 7  21434016.289 7     -2508.037 7  87768723.90148  21434019.02048
     -1954.38148         0.000 0
 114148745.500 8  21721782.871 8      1843.939 8  88947083.94749  21721786.23449
      1436.73649         0.000 0
 116725761.723 6  22212173.340 6     -3123.547 6  90955155.12047  22212176.59047
     -2433.89347         0.000 0
 120654265.948 5  22959742.777 5      3007.494 5  94016318.08447  22959745.76647
      2343.47547         0.000 0
 119383603.782 6  22717943.328 6       981.418 6  93026189.64448  22717945.59048
       764.66448         0.000 0
 130568802.005 4  24846417.207 4      2190.229 4 101741942.03145  24846425.26645
      1706.75645         0.000 0
 107501400.517 7  20456835.973 7      -242.840 7  83767334.61149  20456837.67649
      -189.37949         0.000 0
 124816903.963 6  23751867.605 6     -3515.480 6  97259954.57846  23751874.57446
     -2739.22746         0.000 0
 121226922.451 6  22646205.785 6      1852.035 6  94287639.218 7         0.000 0
      1440.031 7  22646214.953 7
 128372014.975 1  23972570.301 1      3874.637 1  99844956.220 4         0.000 0
      3012.426 4  23972580.184 4
 125629460.803 4  23576375.590 4     -4611.961 4         0.000 0         0.000 0
         0.000 0         0.000 0
 105958445.224 5  19842611.703 5     -1995.066 5  82412157.866 6         0.000 0
     -1551.813 6  19842621.156 6
 110176308.461 7  20668795.699 7      2218.566 7  85692736.741 7         0.000 0
      1725.066 7  20668807.586 7
 127263218.252 3  23815584.234 3      4170.842 3  98982596.140 5         0.000 0
      3244.330 5  23815597.555 5
 117097973.195 6  21936394.441 6     -3314.600 6  91076240.821 7         0.000 0
     -2578.057 7  21936404.758 7
 103278943.991 8  19306908.805 8      -122.402 8  80328101.771 6         0.000 0
       -95.229 6  19306916.680 6
 114306780.046 3  21375945.648 3      2783.010 3  88905287.916 4         0.000 0
      2165.348 4  21375957.105 4
 18  5 22 20 13 39.0000000  0 21G 1G 3G 6G 8G11G17G18G19G22G24G28G30
                                R 7R 8R12R13R14R15R22R23R24
 109273694.679 8  20794092.652 8     -1726.541 8  85148360.67749  20794098.87549
     -1345.48249         0.000 0
 120249841.003 6  22882782.969 6      2662.486 6  93701199.79748  22882790.32448
      2074.75648         0.000 0
 129387481.101 3  24621619.836 3      3725.184 3 100821432.22845  24621627.00445
      2902.82245         0.000 0
 130880019.336 6  24905640.129 6     -3130.332 6 101984465.71345  24905646.57045
     -2439.35245         0.000 0
 112639022.066 7  21434493.105 7     -2507.715 7  87770678.30548  21434495.95348
     -1953.90048         0.000 0
 114146901.388 8  21721432.617 8      1844.947 8  88945646.97949  21721435.86749
      1437.56649         0.000 0
 116728885.746 6  22212767.207 6     -3124.316 6  90957589.41247  22212770.34047
     -2434.52747         0.000 0
 120651258.101 5  22959170.445 5      3008.463 5  94013974.29347  22959172.76647
      2344.13147         0.000 0
 119382621.581 7  22717756.918 7       982.426 7  93025424.30248  22717758.28948
       765.43848         0.000 0
 130566612.769 4  24846000.848 4      2189.576 4 101740236.17045  24846008.91845
      1706.18045         0.000 0
 107501642.783 6  20456881.797 6      -241.480 6  83767523.39649  20456884.43049
      -188.15849         0.000 0
 124820417.736 6  23752536.309 6     -3513.262 6  97262692.55046  23752544.78146
     -2737.63346         0.000 0
 121225070.829 6  22645860.777 6      1851.678 6  94286199.057 7         0.000 0
      1440.219 7  22645869.945 7
 128368140.330 1  23971847.590 1      3874.865 1  99841942.408 4         0.000 0
      3013.514 4  23971855.613 4
 125634071.640 4  23577241.895 4     -4610.250 4         0.000 0         0.000 0
         0.000 0         0.000 0
 105960440.030 5  19842985.723 5     -1994.799 5  82413709.396 6         0.000 0
     -1551.605 6  19842994.887 6
 110174090.818 7  20668378.934 7      2217.738 7  85691011.878 8         0.000 0
      1725.215 8  20668390.535 8
 127259047.877 3  23814803.230 3      4170.814 3  98979352.539 5         0.000 0
      3243.502 5  23814817.266 5
 117101288.467 6  21937014.961 6     -3314.742 6  91078819.352 7         0.000 0
     -2577.867 7  21937026.422 7
 103279066.971 8  19306931.902 8      -122.838 8  80328197.420 6         0.000 0
       -95.529 6  19306939.922 6
 114303996.819 3  21375426.613 3      2784.313 3  88903123.279 4         0.000 0
      2165.086 4  21375432.199 4
 18  5 22 20 13 40.0000000  0 21G 1G 3G 6G 8G11G17G18G19G22G24G28G30
                                R 7R 8R12R13R14R15R22R23R24
 109275421.604 8  20794421.246 8     -1728.619 8  85149706.32549  20794428.17249
     -1346.84249         0.000 0
 120247178.575 7  22882276.480 7      2661.871 7  93699125.18648  22882282.94548
      2074.33248         0.000 0
 129383755.003 4  24620910.582 4      3727.244 4 100818528.76045  24620918.05545
      2904.31345         0.000 0
 130883150.591 6  24906234.875 6     -3131.414 6 101986905.65745  24906242.77345
     -2440.04745         0.000 0
 112641530.580 7  21434970.086 7     -2509.791 7  87772633.01548  21434973.30548
     -1955.90448         0.000 0
 114145056.833 8  21721081.098 8      1843.395 8  88944209.66049  21721084.25849
      1436.38349         0.000 0
 116732010.409 6  22213362.238 6     -3126.199 6  90960024.24647  22213365.54347
     -2435.96547         0.000 0
 120648249.771 5  22958598.133 5      3008.102 5  94011630.14447  22958600.57847
      2343.94147         0.000 0
 119381639.781 7  22717570.094 7       980.504 7  93024659.25848  22717571.38348
       764.13548         0.000 0
 130564424.568 4  24845585.793 4      2187.574 4 101738531.08145  24845592.70345
      1704.70345         0.000 0
 107501884.650 7  20456928.500 7      -243.033 7  83767711.85249  20456930.11749
      -189.36149         0.000 0
 124823930.427 6  23753205.031 6     -3512.449 6  97265429.72646  23753212.30146
     -2737.05946         0.000 0
 121223220.295 6  22645517.074 6      1849.316 6  94284759.746 7         0.000 0
      1438.719 7  22645523.230 7
 128364265.438 3  23971122.602 3      3874.051 3  99838928.572 5         0.000 0
      3013.861 5  23971131.055 5
 125638681.493 5  23578101.195 5     -4609.346 5         0.000 0         0.000 0
         0.000 0         0.000 0
 105962434.479 5  19843358.750 5     -1995.697 5  82415260.653 5         0.000 0
     -1552.182 5  19843367.914 5
 110171873.677 7  20667964.184 7      2215.869 7  85689287.484 8         0.000 0
      1722.615 8  20667974.641 8
 127254878.394 3  23814022.809 3      4168.070 3  98976109.601 5         0.000 0
      3242.871 5  23814036.563 5
 117104604.286 6  21937637.500 6     -3317.348 6  91081398.383 8         0.000 0
     -2580.217 8  21937646.953 8
 103279189.874 8  19306953.867 8      -124.488 8  80328293.039 6         0.000 0
       -96.686 6  19306962.461 6
 114301213.074 3  21374904.441 3      2783.514 3  88900958.097 4         0.000 0
      2164.502 4  21374915.328 4
 18  5 22 20 13 41.0000000  0 21G 1G 3G 6G 8G11G17G18G19G22G24G28G30
                                R 7R 8R12R13R14R15R22R23R24
 109277149.975 8  20794749.738 8     -1727.643 8  85151053.13749  20794756.43449
     -1346.24649         0.000 0
 120244516.150 7  22881769.457 7      2662.324 7  93697050.57848  22881777.38748
      2074.48048         0.000 0
 129380027.920 5  24620200.801 5      3727.656 5 100815624.53145  24620209.58645
      2904.55945         0.000 0
 130886281.905 6  24906830.664 6     -3131.412 6 101989345.68345  24906839.04745
     -2440.09445         0.000 0
 112644040.391 7  21435447.539 7     -2509.186 7  87774588.72448  21435451.43048
     -1955.19148         0.000 0
 114143213.118 8  21720730.617 8      1845.115 8  88942773.00949  21720733.26649
      1437.66449         0.000 0
 116735136.483 6  22213957.598 6     -3125.162 6  90962460.14547  22213960.57447
     -2435.17247         0.000 0
 120645241.862 5  22958025.289 5      3008.184 5  94009286.33547  22958028.22347
      2344.10947         0.000 0
 119380658.782 6  22717382.883 6       981.795 6  93023894.82848  22717384.47348
       765.14348         0.000 0
 130562237.890 3  24845169.207 3      2187.127 3 101736827.14445  24845177.27745
      1704.24645         0.000 0
 107502127.521 7  20456974.672 7      -241.527 7  83767901.11849  20456976.33249
      -188.10049         0.000 0
 124827442.178 6  23753873.082 6     -3511.336 6  97268166.13046  23753879.79346
     -2736.13146         0.000 0
 121221371.147 6  22645170.980 6      1849.129 6  94283321.537 6         0.000 0
      1438.184 6  22645180.719 6
 128360390.081 5  23970399.523 5      3874.521 5  99835914.399 5         0.000 0
      3013.471 5  23970409.551 5
 125643290.064 5  23578964.125 5     -4608.521 5         0.000 0         0.000 0
         0.000 0         0.000 0
 105964429.845 5  19843732.969 5     -1994.691 5  82416812.564 6         0.000 0
     -1550.633 6  19843743.141 6
 110169658.427 7  20667548.766 7      2216.361 7  85687564.512 8         0.000 0
      1723.766 8  20667560.512 8
 127250710.262 3  23813239.859 3      4169.125 3  98972867.766 4         0.000 0
      3242.033 4  23813259.055 4
 117107921.242 6  21938258.797 6     -3316.395 6  91083978.211 8         0.000 0
     -2579.023 8  21938267.391 8
 103279314.380 8  19306977.746 8      -123.104 8  80328389.863 6         0.000 0
       -95.846 6  19306989.348 6
 114298429.770 3  21374383.895 3      2783.676 3  88898793.251 4         0.000 0
      2166.098 4  21374395.637 4
 18  5 22 20 13 42.0000000  0 21G 1G 3G 6G 8G11G17G18G19G22G24G28G30
                                R 7R 8R12R13R14R15R22R23R24
 109278879.383 9  20795079.133 9     -1731.576 9  85152400.71949  20795085.21149
     -1349.31849         0.000 0
 120241854.576 6  22881262.910 6      2660.418 6  93694976.63948  22881270.30548
      2073.16448         0.000 0
 129376300.115 4  24619491.203 4      3727.783 4 100812719.76645  24619500.49245
      2904.78545         0.000 0
 130889414.629 6  24907427.066 6     -3133.395 6 101991786.72945  24907435.46545
     -2441.37145         0.000 0
 112646551.289 7  21435925.891 7     -2512.652 7  87776545.29148  21435928.48048
     -1957.97148         0.000 0
 114141368.911 8  21720379.754 8      1842.840 8  88941335.93449  21720382.51649
      1436.13349         0.000 0
 116738263.897 6  22214552.426 6     -3128.883 6  90964897.13247  22214555.87547
     -2438.05147         0.000 0
 120642233.234 5  22957453.633 5      3008.270 5  94006941.94647  22957455.32047
      2343.86747         0.000 0
 119379679.178 6  22717196.715 6       978.465 6  93023131.53048  22717198.17648
       762.63548         0.000 0
 130560052.114 4  24844753.805 4      2184.578 4 101735123.97745  24844760.05945
      1702.26645         0.000 0
 107502370.471 7  20457020.172 7      -244.428 7  83768090.43849  20457022.40649
      -190.45149         0.000 0
 124830953.235 6  23754541.605 6     -3510.465 6  97270902.01246  23754547.55946
     -2735.51246         0.000 0
 121219524.021 6  22644825.355 6      1845.805 6  94281884.896 7         0.000 0
      1435.320 7  22644834.234 7
 128356515.926 5  23969676.910 5      3873.725 5  99832901.205 6         0.000 0
      3013.373 6  23969687.652 6
 125647898.445 4  23579825.801 4     -4607.893 4         0.000 0         0.000 0
         0.000 0         0.000 0
 105966425.131 5  19844107.941 5     -1996.160 5  82418364.550 5         0.000 0
     -1553.510 5  19844114.391 5
 110167443.617 6  20667131.813 6      2213.357 6  85685841.867 8         0.000 0
      1720.918 8  20667145.563 8
 127246542.969 3  23812459.813 3      4165.615 3  98969626.492 5         0.000 0
      3240.332 5  23812475.281 5
 117111239.472 6  21938879.844 6     -3319.938 6  91086559.076 8         0.000 0
     -2582.246 8  21938890.156 8
 103279439.147 8  19307000.941 8      -126.396 8  80328486.941 6         0.000 0
       -98.873 6  19307011.539 6
 114295645.858 3  21373864.383 3      2783.832 3  88896628.015 4         0.000 0
      2163.838 4  21373874.980 4
 18  5 22 20 13 43.0000000  0 21G 1G 3G 6G 8G11G17G18G19G22G24G28G30
                                R 7R 8R12R13R14R15R22R23R24
 109280609.758 8  20795408.059 8     -1730.691 8  85153749.09149  20795415.12949
     -1348.67849         0.000 0
 120239192.657 6  22880756.465 6      2661.303 6  93692902.42348  22880763.59448
      2073.80548         0.000 0
 129372571.114 4  24618781.430 4      3729.977 4 100809814.07944  24618790.31344
      2906.32444         0.000 0
 130892547.116 5  24908023.574 5     -3133.623 5 101994227.69045  24908030.62945
     -2441.82445         0.000 0
 112649063.075 7  21436404.348 7     -2512.137 7  87778502.49848  21436406.84048
     -1957.56448         0.000 0
 114139525.253 8  21720028.996 8      1844.193 8  88939899.33149  21720031.59849
      1436.89149         0.000 0
 116741392.312 6  22215147.648 6     -3129.521 6  90967334.85447  22215151.52747
     -2438.56347         0.000 0
 120639224.833 5  22956880.938 5      3009.096 5  94004597.72347  22956883.44547
      2344.68447         0.000 0
 119378699.985 6  22717010.512 6       979.291 6  93022368.51948  22717011.87148
       762.98248         0.000 0
 130557867.729 3  24844337.652 3      2184.057 3 101733421.81945  24844344.18045
      1701.87145         0.000 0
 107502614.014 7  20457067.211 7      -243.484 7  83768280.22149  20457069.51249
      -189.75249         0.000 0
 124834463.165 6  23755209.660 6     -3509.268 6  97273637.04846  23755216.55946
     -2734.63746         0.000 0
 121217677.933 6  22644478.410 6      1844.641 6  94280449.064 6         0.000 0
      1434.711 6  22644489.293 6
 128352640.948 5  23968952.121 5      3874.512 5  99829887.300 5         0.000 0
      3014.229 5  23968960.426 5
 125652505.341 4  23580689.449 4     -4607.438 4         0.000 0         0.000 0
         0.000 0         0.000 0
 105968420.995 4  19844479.594 4     -1995.061 4  82419916.849 6         0.000 0
     -1552.186 6  19844491.625 6
 110165230.390 6  20666716.973 6      2213.559 6  85684120.481 8         0.000 0
      1721.031 8  20666729.148 8
 127242376.875 3  23811683.598 3      4165.719 3  98966386.221 4         0.000 0
      3239.781 4  23811698.637 4
 117114558.497 6  21939500.855 6     -3320.264 6  91089140.564 8         0.000 0
     -2582.270 8  21939511.172 8
 103279565.040 8  19307024.680 8      -125.551 8  80328584.836 6         0.000 0
       -98.055 6  19307031.984 6
 114292862.135 4  21373342.406 4      2784.736 4  88894462.897 4         0.000 0
      2165.809 4  21373352.148 4
 18  5 22 20 13 44.0000000  0 21G 1G 3G 6G 8G11G17G18G19G22G24G28G30
                                R 7R 8R12R13R14R15R22R23R24
 109282340.955 8  20795737.625 8     -1731.799 8  85155098.06949  20795744.12149
     -1349.57249         0.000 0
 120236531.475 6  22880250.230 6      2661.135 6  93690828.76848  22880256.88748
      2073.45948         0.000 0
 129368841.097 4  24618071.145 4      3730.570 4 100806907.63444  24618079.70344
      2907.07244         0.000 0
 130895680.892 5  24908620.152 5     -3134.359 5 101996669.60345  24908627.39145
     -2442.27045         0.000 0
 112651575.798 7  21436881.871 7     -2512.893 7  87780460.48048  21436884.49248
     -1958.16848         0.000 0
 114137680.721 8  21719677.586 8      1844.807 8  88938462.03649  21719680.59049
      1437.52049         0.000 0
 116744521.920 6  22215743.223 6     -3130.199 6  90969773.51447  22215746.75847
     -2439.02747         0.000 0
 120636215.398 6  22956308.883 6      3009.611 6  94002252.73447  22956310.47347
      2345.23647         0.000 0
 119377722.051 6  22716825.379 6       977.168 6  93021606.52148  22716825.37948
       761.44548         0.000 0
 130555683.831 3  24843921.566 3      2183.674 3 101731720.08845  24843929.78145
      1701.66045         0.000 0
 107502857.355 7  20457113.738 7      -243.262 7  83768469.81749  20457115.59849
      -189.53349         0.000 0
 124837972.135 6  23755877.496 6     -3508.363 6  97276371.31946  23755883.54746
     -2733.81346         0.000 0
 121215833.750 6  22644136.254 6      1843.500 6  94279014.689 6         0.000 0
      1433.465 6  22644143.414 6
 128348766.947 5  23968225.816 5      3874.578 5  99826874.259 5         0.000 0
      3012.775 5  23968235.699 5
 125657111.795 3  23581553.164 3     -4605.789 3         0.000 0         0.000 0
         0.000 0         0.000 0
 105970416.546 4  19844852.453 4     -1995.670 4  82421468.920 5         0.000 0
     -1551.717 5  19844863.766 5
 110163017.260 6  20666301.629 6      2213.117 6  85682399.145 8         0.000 0
      1721.451 8  20666315.090 8
 127238211.203 3  23810905.305 3      4165.002 3  98963146.242 4         0.000 0
      3238.918 4  23810918.480 4
 117117878.585 6  21940120.934 6     -3319.656 6  91091722.884 8         0.000 0
     -2582.451 8  21940132.965 8
 103279690.883 8  19307048.480 8      -125.742 8  80328682.698 6         0.000 0
       -97.281 6  19307054.926 6
 114290077.433 4  21372824.223 4      2785.021 4  88892297.000 4         0.000 0
      2166.010 4  21372831.238 4
 18  5 22 20 13 45.0000000  0 21G 1G 3G 6G 8G11G17G18G19G22G24G28G30
                                R 7R 8R12R13R14R15R22R23R24
 109284073.984 9  20796067.461 9     -1733.676 9  85156448.47649  20796073.93049
     -1350.86949         0.000 0
 120233871.174 7  22879744.270 7      2659.570 7  93688755.80348  22879751.29348
      2072.31648         0.000 0
 129365110.307 4  24617361.848 4      3730.703 4 100804000.50144  24617370.26244
      2907.18044         0.000 0
 130898815.561 5  24909216.711 5     -3134.867 5 101999112.23145  24909224.69545
     -2442.76445         0.000 0
 112654090.229 7  21437360.668 7     -2514.711 7  87782419.80448  21437363.75848
     -1959.60048         0.000 0
 114135836.857 8  21719326.449 8      1844.061 8  88937025.27049  21719330.03949
      1436.92649         0.000 0
 116747653.278 6  22216338.496 6     -3131.566 6  90972213.53547  22216343.40247
     -2440.18647         0.000 0
 120633206.091 6  22955735.953 6      3009.629 6  93999907.80647  22955737.41047
      2345.10947         0.000 0
 119376745.671 6  22716639.223 6       976.111 6  93020845.68147  22716640.21147
       760.75447         0.000 0
 130553501.086 4  24843506.324 4      2182.342 4 101730019.22745  24843513.30945
      1700.61745         0.000 0
 107503101.934 7  20457159.824 7      -244.787 7  83768660.43049  20457162.04349
      -190.67449         0.000 0
 124841480.548 6  23756545.027 6     -3507.797 6  97279105.12346  23756550.99646
     -2733.36946         0.000 0
 121213991.559 6  22643791.645 6      1841.320 6  94277581.854 7         0.000 0
      1432.693 7  22643799.523 7
 128344893.438 6  23967502.500 6      3872.910 6  99823861.511 5         0.000 0
      3012.484 5  23967513.531 5
 125661717.780 2  23582414.281 2     -4606.598 2         0.000 0         0.000 0
         0.000 0         0.000 0
 105972413.138 4  19845226.578 4     -1996.719 4  82423021.820 6         0.000 0
     -1553.012 6  19845236.320 6
 110160805.687 6  20665887.262 6      2211.354 6  85680678.989 8         0.000 0
      1720.361 8  20665901.586 8
 127234046.551 3  23810124.840 3      4164.822 3  98959907.050 5         0.000 0
      3239.287 5  23810141.883 5
 117121200.267 6  21940745.863 6     -3322.041 6  91094306.408 8         0.000 0
     -2583.662 8  21940755.887 8
 103279818.270 8  19307071.977 8      -127.348 8  80328781.795 6         0.000 0
       -99.232 6  19307081.000 6
 114287292.993 4  21372303.867 4      2784.445 4  88890131.305 4         0.000 0
      2166.445 4  21372308.594 4
 18  5 22 20 13 46.0000000  0 21G 1G 3G 6G 8G11G17G18G19G22G24G28G30
                                R 7R 8R12R13R14R15R22R23R24
 109285806.782 8  20796397.227 8     -1733.637 8  85157798.72949  20796403.48049
     -1350.86149         0.000 0
 120231210.524 6  22879237.660 6      2660.156 6  93686682.57348  22879244.55948
      2072.81348         0.000 0
 129361379.076 5  24616651.762 5      3732.344 5 100801093.02644  24616660.20744
      2908.32244         0.000 0
 130901949.951 4  24909813.344 4     -3134.066 4 102001554.62445  24909820.16845
     -2442.13145         0.000 0
 112656604.429 7  21437838.676 7     -2514.477 7  87784378.89848  21437841.92248
     -1959.12348         0.000 0
 114133992.534 8  21718975.809 8      1844.764 8  88935588.16749  21718978.77349
      1437.36349         0.000 0
 116750784.622 6  22216934.410 6     -3132.504 6  90974653.53647  22216938.50447
     -2440.72547         0.000 0
 120630196.441 6  22955163.523 6      3010.625 6  93997562.62047  22955164.49647
      2345.88147         0.000 0
 119375769.183 6  22716453.430 6       975.955 6  93020084.81647  22716454.32847
       760.54747         0.000 0
 130551318.902 3  24843091.152 3      2182.205 3 101728318.84345  24843098.09445
      1700.44945         0.000 0
 107503346.024 7  20457206.840 7      -243.947 7  83768850.63549  20457208.51649
      -190.13749         0.000 0
 124844988.441 6  23757212.777 6     -3507.152 6  97281838.53146  23757218.69946
     -2732.89346         0.000 0
 121212149.723 6  22643447.109 6      1840.418 6  94276149.333 6         0.000 0
      1431.018 6  22643456.133 6
 128341019.623 6  23966780.840 6      3874.156 6  99820848.563 5         0.000 0
      3012.354 5  23966790.004 5
 125666323.162 3  23583276.906 3     -4604.746 3         0.000 0         0.000 0
         0.000 0         0.000 0
 105974409.615 5  19845601.785 5     -1996.723 5  82424574.629 6         0.000 0
     -1552.967 6  19845609.520 6
 110158594.300 7  20665473.121 7      2210.959 7  85678959.098 8         0.000 0
      1719.645 8  20665485.867 8
 127229882.274 2  23809344.738 2      4163.607 2  98956668.139 4         0.000 0
      3239.059 4  23809359.348 4
 117124521.693 6  21941366.426 6     -3322.492 6  91096889.717 8         0.000 0
     -2583.988 8  21941378.887 8
 103279945.337 8  19307095.406 8      -127.078 8  80328880.651 6         0.000 0
       -99.463 6  19307103.715 6
 114284508.229 5  21371779.863 5      2784.773 5  88887965.438 4         0.000 0
      2165.006 4  21371788.313 4
 18  5 22 20 13 47.0000000  0 21G 1G 3G 6G 8G11G17G18G19G22G24G28G30
                                R 7R 8R12R13R14R15R22R23R24
 109287541.643 9  20796727.688 9     -1734.898 9  85159150.55649  20796733.80149
     -1351.98449         0.000 0
 120228551.768 6  22878731.180 6      2659.070 6  93684610.81348  22878738.60548
      2071.98448         0.000 0
 129357646.697 4  24615941.375 4      3733.311 4 100798184.70645  24615949.00445
      2909.07445         0.000 0
 130905086.624 5  24910409.383 5     -3136.600 5 102003998.74545  24910417.18445
     -2444.05545         0.000 0
 112659120.813 8  21438317.668 8     -2516.539 8  87786339.72348  21438320.14548
     -1960.83248         0.000 0
 114132147.781 8  21718624.871 8      1844.559 8  88934150.67449  21718627.87549
      1437.23849         0.000 0
 116753918.149 7  22217531.313 7     -3133.221 7  90977095.26347  22217535.23047
     -2441.53547         0.000 0
 120627185.756 6  22954589.789 6      3010.457 6  93995216.66547  22954592.07847
      2345.71547         0.000 0
 119374795.212 6  22716268.047 6       973.775 6  93019325.89047  22716268.57447
       758.76047         0.000 0
 130549137.008 3  24842675.676 3      2181.043 3 101726618.69245  24842682.41845
      1699.64145         0.000 0
 107503591.054 7  20457252.980 7      -245.229 7  83769041.57249  20457255.14149
      -191.00649         0.000 0
 124848495.620 5  23757879.074 5     -3506.189 5  97284571.40346  23757886.83246
     -2732.12146         0.000 0
 121210310.823 6  22643102.418 6      1838.150 6  94274719.093 7         0.000 0
      1430.191 7  22643111.156 7
 128337147.737 6  23966057.871 6      3871.766 6  99817837.099 5         0.000 0
      3012.197 5  23966068.754 5
 125670928.565 1  23584138.512 1     -4604.361 1         0.000 0         0.000 0
         0.000 0         0.000 0
 105976406.527 4  19845977.406 4     -1997.330 4  82426127.829 6         0.000 0
     -1554.131 6  19845982.418 6
 110156383.443 6  20665057.383 6      2210.424 6  85677239.454 8         0.000 0
      1719.271 8  20665070.703 8
 127225718.240 3  23808566.051 3      4163.051 3  98953429.445 5         0.000 0
      3238.572 5  23808574.359 5
 117127845.213 6  21941991.125 6     -3323.563 6  91099474.694 8         0.000 0
     -2584.533 8  21942001.438 8
 103280073.328 8  19307120.109 8      -127.752 8  80328980.180 5         0.000 0
       -99.834 5  19307129.992 5
 114281722.601 4  21371260.141 4      2785.688 4  88885798.847 4         0.000 0
      2167.619 4  21371266.012 4
 18  5 22 20 13 48.0000000  0 21G 1G 3G 6G 8G11G17G18G19G22G24G28G30
                                R 7R 8R12R13R14R15R22R23R24
 109289277.126 9  20797057.219 9     -1736.250 9  85160502.89849  20797064.24249
     -1352.97949         0.000 0
 120225893.134 7  22878225.766 7      2658.244 7  93682539.16948  22878232.41848
      2071.43848         0.000 0
 129353913.950 5  24615230.914 5      3734.008 5 100795276.04345  24615239.25445
      2909.42845         0.000 0
 130908222.993 6  24911006.066 6     -3137.229 6 102006442.67845  24911013.66445
     -2444.61945         0.000 0
 112661637.614 8  21438796.586 8     -2517.402 8  87788300.87148  21438799.77348
     -1961.70948         0.000 0
 114130303.321 8  21718273.852 8      1844.846 8  88932713.48849  21718277.11349
      1437.62949         0.000 0
 116757052.139 6  22218127.133 6     -3134.650 6  90979537.36047  22218131.14147
     -2442.72547         0.000 0
 120624175.155 6  22954016.977 6      3011.252 6  93992870.74447  22954019.56647
      2346.28147         0.000 0
 119373821.615 6  22716082.441 6       973.439 6  93018567.24847  22716083.14547
       758.46947         0.000 0
 130546955.549 3  24842260.699 3      2180.588 3 101724918.84645  24842267.99645
      1699.05545         0.000 0
 107503836.649 7  20457299.473 7      -246.387 7  83769232.93849  20457301.94549
      -191.98049         0.000 0
 124852002.547 5  23758546.445 5     -3506.311 5  97287304.10046  23758553.88746
     -2732.08046         0.000 0
 121208472.518 6  22642761.652 6      1837.201 6  94273289.327 7         0.000 0
      1428.941 7  22642768.242 7
 128333275.531 5  23965333.672 5      3871.428 5  99814825.393 5         0.000 0
      3011.156 5  23965345.418 5
 125675533.603 1  23585003.047 1     -4604.857 1         0.000 0         0.000 0
         0.000 0         0.000 0
 105978404.252 4  19846350.652 4     -1997.869 4  82427681.585 6         0.000 0
     -1553.617 6  19846357.957 6
 110154173.458 6  20664641.852 6      2209.480 6  85675520.592 7         0.000 0
      1718.057 7  20664654.887 7
 127221554.427 2  23807785.996 2      4162.988 2  98950190.931 4         0.000 0
      3237.920 4  23807797.309 4
 117131168.878 6  21942612.594 6     -3324.166 6  91102059.794 8         0.000 0
     -2585.361 8  21942624.051 8
 103280202.016 8  19307144.871 8      -128.576 8  80329080.266 6         0.000 0
      -100.289 6  19307150.746 6
 114278937.280 4  21370741.340 4      2785.580 4  88883632.491 4         0.000 0
      2165.859 4  21370744.633 4
 18  5 22 20 13 49.0000000  0 21G 1G 3G 6G 8G11G17G18G19G22G24G28G30
                                R 7R 8R12R13R14R15R22R23R24
 109291013.640 9  20797388.223 9     -1737.063 9  85161856.02149  20797394.31649
     -1353.72949         0.000 0
 120223235.438 7  22877720.398 7      2657.395 7  93680468.21948  22877726.78148
      2070.72748         0.000 0
 129350180.440 5  24614521.207 5      3733.666 5 100792366.78945  24614528.40645
      2909.45945         0.000 0
 130911360.654 5  24911602.934 5     -3138.393 5 102008887.58845  24911611.04745
     -2445.41045         0.000 0
 112664155.545 8  21439275.973 8     -2518.293 8  87790262.87048  21439279.06648
     -1962.34448         0.000 0
 114128458.347 8  21717923.023 8      1845.598 8  88931275.84449  21717925.21549
      1438.01249         0.000 0
 116760187.377 6  22218724.289 6     -3135.580 6  90981980.37047  22218727.70747
     -2443.18447         0.000 0
 120621163.809 6  22953444.215 6      3011.889 6  93990524.22047  22953446.44547
      2346.95747         0.000 0
 119372849.499 6  22715897.742 6       971.613 6  93017809.78047  22715898.07447
       757.05547         0.000 0
 130544774.654 3  24841846.195 3      2180.539 3 101723219.46844  24841853.26244
      1699.24244         0.000 0
 107504082.384 7  20457346.297 7      -245.811 7  83769424.43349  20457349.01649
      -191.75649         0.000 0
 124855508.795 5  23759214.430 5     -3505.854 5  97290036.24446  23759221.22746
     -2731.77746         0.000 0
 121206636.205 6  22642419.219 6      1835.852 6  94271861.070 7         0.000 0
      1427.783 7  22642426.523 7
 128329404.385 6  23964613.395 6      3870.172 6  99811814.545 6         0.000 0
      3009.809 6  23964621.559 6
 125680138.387 2  23585865.621 2     -4604.863 2         0.000 0         0.000 0
         0.000 0         0.000 0
 105980402.068 4  19846724.238 4     -1997.693 4  82429235.458 6         0.000 0
     -1554.039 6  19846733.977 6
 110151963.815 6  20664228.230 6      2209.885 6  85673801.974 8         0.000 0
      1718.641 8  20664241.840 8
 127217391.076 2  23807006.848 2      4162.686 2  98946952.776 4         0.000 0
      3238.664 4  23807021.172 4
 117134493.729 6  21943234.113 6     -3325.078 6  91104645.760 8         0.000 0
     -2585.906 8  21943246.285 8
 103280330.961 8  19307168.398 8      -128.781 8  80329180.545 6         0.000 0
      -100.150 6  19307177.133 6
 114276151.339 4  21370218.289 4      2786.650 4  88881465.584 4         0.000 0
      2167.789 4  21370225.164 4
 18  5 22 20 13 50.0000000  0 21G 1G 3G 6G 8G11G17G18G19G22G24G28G30
                                R 7R 8R12R13R14R15R22R23R24
 109292751.142 9  20797719.102 9     -1737.535 9  85163209.88649  20797725.02349
     -1354.03349         0.000 0
 120220578.891 7  22877214.477 7      2656.707 7  93678398.19948  22877221.65648
      2070.09248         0.000 0
 129346445.734 4  24613810.379 4      3736.182 4 100789456.63345  24613817.90645
      2911.20745         0.000 0
 130914499.646 5  24912200.250 5     -3138.865 5 102011333.55845  24912209.23445
     -2445.75245         0.000 0
 112666674.605 8  21439755.098 8     -2519.236 8  87792225.78849  21439757.55949
     -1963.01849         0.000 0
 114126612.357 8  21717571.496 8      1847.098 8  88929837.40449  21717574.37149
      1439.19349         0.000 0
 116763323.796 6  22219321.176 6     -3136.482 6  90984424.34247  22219324.46547
     -2444.07247         0.000 0
 120618151.024 6  22952870.750 6      3013.641 6  93988176.58247  22952873.02747
      2348.19747         0.000 0
 119371878.821 6  22715712.348 6       970.768 6  93017053.42047  22715714.16447
       756.32047         0.000 0
 130542593.359 3  24841430.563 3      2182.449 3 101721519.76944  24841437.38744
      1700.75644         0.000 0
 107504328.271 7  20457393.277 7      -245.326 7  83769616.03749  20457395.78149
      -191.21949         0.000 0
 124859014.270 5  23759882.004 5     -3505.408 5  97292767.79046  23759888.05546
     -2731.72946         0.000 0
 121204801.742 6  22642072.793 6      1834.322 6  94270434.321 7         0.000 0
      1426.660 7  22642084.684 7
 128325534.461 5  23963889.551 5      3869.600 5  99808804.597 5         0.000 0
      3009.719 5  23963900.152 5
 125684743.092 3  23586722.629 3     -4604.518 3         0.000 0         0.000 0
         0.000 0         0.000 0
 105982399.789 4  19847098.125 4     -1997.348 4  82430789.210 6         0.000 0
     -1552.682 6  19847106.574 6
 110149753.871 6  20663814.199 6      2210.348 6  85672083.173 8         0.000 0
      1718.533 8  20663826.230 8
 127213227.192 1  23806228.434 1      4164.594 1  98943714.221 4         0.000 0
      3239.123 4  23806242.328 4
 117137819.593 6  21943859.516 6     -3326.803 6  91107232.579 7         0.000 0
     -2586.895 7  21943869.828 7
 103280459.868 8  19307191.367 8      -127.986 8  80329280.839 6         0.000 0
      -100.006 6  19307203.109 6
 114273364.193 4  21369695.832 4      2788.422 4  88879297.865 4         0.000 0
      2168.695 4  21369704.281 4
 18  5 22 20 13 51.0000000  0 21G 1G 3G 6G 8G11G17G18G19G22G24G28G30
                                R 7R 8R12R13R14R15R22R23R24
 109294490.328 9  20798049.980 9     -1739.498 9  85164565.08549  20798056.05949
     -1355.51649         0.000 0
 120217924.184 7  22876708.980 7      2654.568 7  93676329.60848  22876716.69548
      2068.59048         0.000 0
 129342710.839 3  24613099.117 3      3735.525 3 100786546.32445  24613107.80545
      2910.66045         0.000 0
 130917640.269 6  24912798.281 6     -3140.787 6 102013780.77045  24912806.50845
     -2447.23445         0.000 0
 112669195.346 8  21440235.078 8     -2520.865 8  87794189.97049  21440237.53949
     -1964.42249         0.000 0
 114124766.395 8  21717220.113 8      1845.992 8  88928398.97949  21717223.75049
      1438.52949         0.000 0
 116766461.876 6  22219918.063 6     -3137.955 6  90986869.60047  22219921.59847
     -2445.16447         0.000 0
 120615137.822 6  22952297.719 6      3013.475 6  93985828.64647  22952299.52347
      2348.04347         0.000 0
 119370910.333 6  22715527.953 6       967.867 6  93016298.75947  22715529.88347
       753.95947         0.000 0
 130540412.146 4  24841016.504 4      2181.229 4 101719820.14244  24841022.85944
      1699.52544         0.000 0
 107504575.334 7  20457439.691 7      -247.563 7  83769808.54449  20457443.18449
      -192.85749         0.000 0
 124862519.938 4  23760548.578 4     -3506.100 4  97295499.49746  23760554.88746
     -2731.98046         0.000 0
 121202969.510 6  22641729.227 6      1831.725 6  94269009.278 7         0.000 0
      1424.686 7  22641741.117 7
 128321666.245 5  23963166.707 5      3867.984 5  99805796.022 5         0.000 0
      3007.953 5  23963174.586 5
 125689348.500 4  23587584.504 4     -4605.508 4         0.000 0         0.000 0
         0.000 0         0.000 0
 105984398.586 4  19847470.430 4     -1998.971 4  82432343.861 6         0.000 0
     -1554.574 6  19847480.742 6
 110147544.527 7  20663398.730 7      2208.908 7  85670364.755 8         0.000 0
      1718.486 8  20663410.762 8
 127209063.282 2  23805449.012 2      4164.426 2  98940475.624 4         0.000 0
      3240.244 4  23805462.477 4
 117141146.844 6  21944481.617 6     -3327.475 6  91109820.427 7         0.000 0
     -2587.568 7  21944491.500 7
 103280589.730 7  19307214.473 7      -129.617 7  80329381.829 6         0.000 0
      -100.736 6  19307225.645 6
 114270576.977 4  21369175.086 4      2787.604 4  88877129.991 4         0.000 0
      2168.068 4  21369180.961 4
 18  5 22 20 13 52.0000000  0 21G 1G 3G 6G 8G11G17G18G19G22G24G28G30
                                R 7R 8R12R13R14R15R22R23R24
 109296230.099 9  20798380.965 9     -1739.328 9  85165920.77249  20798386.64849
     -1355.44749         0.000 0
 120215269.845 6  22876203.883 6      2655.188 6  93674261.30548  22876211.02348
      2068.96948         0.000 0
 129338975.255 2  24612388.539 2      3736.947 2 100783635.52444  24612395.76644
      2911.86144         0.000 0
 130920781.201 6  24913396.277 6     -3140.521 6 102016228.23946  24913404.71946
     -2447.14846         0.000 0
 112671716.621 8  21440714.738 8     -2521.008 8  87796154.62148  21440717.45748
     -1964.59048         0.000 0
 114122920.049 8  21716868.551 8      1846.711 8  88926960.26249  21716871.58649
      1439.14549         0.000 0
 116769600.554 7  22220515.484 7     -3138.646 7  90989315.30247  22220519.79347
     -2445.91847         0.000 0
 120612124.058 6  22951724.078 6      3013.842 6  93983480.24247  22951725.30947
      2348.40247         0.000 0
 119369942.564 6  22715344.668 6       967.922 6  93015544.66347  22715345.79747
       754.12547         0.000 0
 130538231.229 4  24840600.551 4      2180.461 4 101718120.75644  24840607.50844
      1698.91044         0.000 0
 107504822.497 7  20457486.926 7      -246.729 7  83770001.15849  20457489.17649
      -192.24449         0.000 0
 124866025.003 4  23761215.113 4     -3504.525 4  97298230.73246  23761221.84046
     -2730.82046         0.000 0
 121201138.329 6  22641390.070 6      1831.594 6  94267585.014 7         0.000 0
      1424.229 7  22641399.953 7
 128317798.358 5  23962442.832 5      3868.590 5  99802787.655 5         0.000 0
      3008.715 5  23962453.145 5
 125693953.467 3  23588447.352 3     -4603.867 3         0.000 0         0.000 0
         0.000 0         0.000 0
 105986397.576 5  19847846.719 5     -1998.123 5  82433898.626 6         0.000 0
     -1554.410 6  19847857.316 6
 110145335.525 6  20662984.809 6      2208.615 6  85668646.671 8         0.000 0
      1717.527 8  20663000.277 8
 127204899.480 3  23804671.855 3      4163.857 3  98937237.161 4         0.000 0
      3238.410 4  23804683.742 4
 117144474.505 6  21945104.836 6     -3326.934 6  91112408.657 7         0.000 0
     -2588.426 7  21945118.445 7
 103280719.823 7  19307240.844 7      -130.012 7  80329482.988 6         0.000 0
      -100.912 6  19307248.582 6
 114267789.277 4  21368655.316 4      2787.920 4  88874961.833 4         0.000 0
      2167.594 4  21368659.328 4
 18  5 22 20 13 53.0000000  0 21G 1G 3G 6G 8G11G17G18G19G22G24G28G30
                                R 7R 8R12R13R14R15R22R23R24
 109297970.991 9  20798712.273 9     -1740.447 9  85167277.29549  20798718.61349
     -1356.16249         0.000 0
 120212616.413 7  22875699.676 7      2653.443 7  93672193.68848  22875706.10248
      2067.51448         0.000 0
 129335239.294 2  24611677.281 2      3736.883 2 100780724.37144  24611685.09444
      2912.00644         0.000 0
 130923922.878 6  24913994.594 6     -3141.621 6 102018676.31746  24914001.85246
     -2447.74646         0.000 0
 112674238.927 8  21441194.289 8     -2521.990 8  87798120.03348  21441197.92248
     -1965.10948         0.000 0
 114121073.764 8  21716517.168 8      1846.939 8  88925521.61449  21716519.85949
      1439.28949         0.000 0
 116772740.269 7  22221112.516 7     -3139.941 7  90991761.84347  22221117.45347
     -2446.75047         0.000 0
 120609110.090 6  22951150.043 6      3014.969 6  93981131.68047  22951151.86347
      2349.35047         0.000 0
 119368975.992 6  22715160.559 6       966.920 6  93014791.46747  22715162.16047
       753.56647         0.000 0
 130536050.730 3  24840185.063 3      2180.865 3 101716421.61744  24840192.50444
      1699.32844         0.000 0
 107505070.346 7  20457534.055 7      -247.301 7  83770194.27149  20457536.54749
      -192.74449         0.000 0
 124869529.864 5  23761882.258 5     -3503.770 5  97300961.76446  23761888.62546
     -2730.01246         0.000 0
 121199308.604 5  22641048.945 5      1829.418 5  94266161.887 7         0.000 0
      1423.357 7  22641056.250 7
 128313931.106 6  23961721.137 6      3867.684 6  99799779.808 5         0.000 0
      3007.668 5  23961730.734 5
 125698558.438 4  23589309.516 4     -4605.301 4         0.000 0         0.000 0
         0.000 0         0.000 0
 105988397.306 5  19848220.176 5     -1999.596 5  82435453.971 6         0.000 0
     -1554.578 6  19848232.352 6
 110143127.281 7  20662570.203 7      2209.115 7  85666929.148 8         0.000 0
      1717.652 8  20662582.664 8
 127200736.015 3  23803891.293 3      4163.752 3  98933998.913 4         0.000 0
      3238.672 4  23803906.617 4
 117147803.030 6  21945729.094 6     -3328.270 6  91114997.509 7         0.000 0
     -2588.926 7  21945739.691 7
 103280850.596 7  19307264.961 7      -130.156 7  80329584.731 6         0.000 0
      -101.395 6  19307275.848 6
 114265001.586 5  21368131.570 5      2788.402 5  88872793.565 4         0.000 0
      2168.754 4  21368139.590 4
 18  5 22 20 13 54.0000000  0 21G 1G 3G 6G 8G11G17G18G19G22G24G28G30
                                R 7R 8R12R13R14R15R22R23R24
 109299712.402 9  20799043.543 9     -1741.617 9  85168634.25449  20799049.99649
     -1356.95549         0.000 0
 120209963.677 7  22875194.004 7      2652.547 7  93670126.63148  22875201.85948
      2066.85548         0.000 0
 129331503.202 3  24610967.270 3      3735.809 3 100777813.17444  24610974.32444
      2910.86144         0.000 0
 130927065.087 5  24914592.160 5     -3142.438 5 102021124.82645  24914599.85545
     -2448.51845         0.000 0
 112676761.748 7  21441674.945 7     -2523.023 7  87800085.87348  21441677.89548
     -1966.01848         0.000 0
 114119227.188 8  21716166.176 8      1846.021 8  88924082.73149  21716169.02349
      1438.45749         0.000 0
 116775880.501 7  22221709.508 7     -3140.367 7  90994208.82147  22221714.15647
     -2447.03347         0.000 0
 120606095.762 6  22950576.828 6      3014.109 6  93978782.88548  22950578.77748
      2348.51648         0.000 0
 119368010.302 6  22714976.695 6       965.025 6  93014038.98748  22714977.75448
       752.09048         0.000 0
 130533870.452 3  24839769.820 3      2179.635 3 101714722.73844  24839778.18044
      1698.49644         0.000 0
 107505318.398 7  20457581.574 7      -247.982 7  83770387.56649  20457583.87949
      -193.30149         0.000 0
 124873034.728 5  23762548.508 5     -3504.898 5  97303692.82746  23762556.03546
     -2730.99846         0.000 0
 121197479.910 5  22640705.195 5      1829.314 5  94264739.622 7         0.000 0
      1422.152 7  22640714.508 7
 128310064.556 5  23960998.254 5      3866.295 5  99796772.467 5         0.000 0
      3006.963 5  23961009.711 5
 125703163.646 4  23590169.777 4     -4605.477 4         0.000 0         0.000 0
         0.000 0         0.000 0
 105990397.485 5  19848596.453 5     -2000.951 5  82437009.660 6         0.000 0
     -1555.797 6  19848603.902 6
 110140919.330 7  20662155.699 7      2207.414 7  85665211.849 8         0.000 0
      1717.010 8  20662169.594 8
 127196572.516 2  23803111.688 2      4163.910 2  98930760.641 4         0.000 0
      3238.045 4  23803128.734 4
 117151131.860 6  21946353.164 6     -3328.283 6  91117586.604 7         0.000 0
     -2589.514 7  21946363.332 7
 103280981.554 8  19307288.887 8      -131.268 8  80329686.555 6         0.000 0
      -101.512 6  19307299.059 6
 114262213.677 5  21367609.926 5      2788.123 5  88870625.206 4         0.000 0
      2168.914 4  21367620.668 4
 18  5 22 20 13 55.0000000  0 21G 1G 3G 6G 8G11G17G18G19G22G24G28G30
                                R 7R 8R12R13R14R15R22R23R24
 109301454.367 9  20799374.816 9     -1742.797 9  85169991.63049  20799381.61349
     -1358.04949         0.000 0
 120207311.331 7  22874690.047 7      2651.387 7  93668059.83948  22874696.80148
      2066.05548         0.000 0
 129327767.221 3  24610256.402 3      3735.137 3 100774901.99544  24610263.41444
      2910.52944         0.000 0
 130930207.220 6  24915189.723 6     -3142.350 6 102023573.18845  24915198.95345
     -2448.67645         0.000 0
 112679284.881 7  21442154.461 7     -2524.088 7  87802051.96948  21442157.50848
     -1966.74248         0.000 0
 114117380.909 8  21715814.758 8      1845.193 8  88922644.06749  21715817.74649
      1437.85249         0.000 0
 116779021.043 7  22222307.645 7     -3141.295 7  90996655.93047  22222311.62147
     -2447.77747         0.000 0
 120603081.695 6  22950002.902 6      3012.930 6  93976434.24148  22950005.03548
      2347.71748         0.000 0
 119367045.079 6  22714792.266 6       964.627 6  93013286.86448  22714794.66848
       751.69948         0.000 0
 130531690.690 4  24839355.586 4      2178.887 4 101713024.21144  24839364.38744
      1697.87144         0.000 0
 107505566.984 7  20457629.094 7      -249.438 7  83770581.27249  20457630.99649
      -194.47549         0.000 0
 124876539.732 5  23763215.902 5     -3505.045 5  97306424.00446  23763223.46946
     -2731.19546         0.000 0
 121195651.967 6  22640366.184 6      1827.676 6  94263317.840 7         0.000 0
      1421.336 7  22640375.922 7
 128306198.018 5  23960277.383 5      3866.604 5  99793765.185 6         0.000 0
      3007.188 6  23960288.125 6
 125707768.832 4  23591032.621 4     -4606.027 4         0.000 0         0.000 0
         0.000 0         0.000 0
 105992398.513 5  19848970.020 5     -2002.139 5  82438566.010 6         0.000 0
     -1556.424 6  19848977.039 6
 110138712.117 6  20661742.063 6      2206.102 6  85663495.112 8         0.000 0
      1715.377 8  20661752.805 8
 127192409.246 3  23802332.664 3      4163.338 3  98927522.569 4         0.000 0
      3237.588 4  23802348.133 4
 117154460.796 6  21946976.523 6     -3329.154 6  91120175.762 7         0.000 0
     -2589.660 7  21946988.984 7
 103281113.063 8  19307314.688 8      -132.602 8  80329788.847 6         0.000 0
      -102.791 6  19307320.414 6
 114259426.164 4  21367090.012 4      2786.404 4  88868457.175 4         0.000 0
      2167.551 4  21367100.324 4
 18  5 22 20 13 56.0000000  0 21G 1G 3G 6G 8G11G17G18G19G22G24G28G30
                                R 7R 8R12R13R14R15R22R23R24
 109303196.692 9  20799706.621 9     -1742.244 9  85171349.29049  20799712.54749
     -1357.43049         0.000 0
 120204658.776 7  22874185.195 7      2652.193 7  93665992.94648  22874192.13348
      2066.48048         0.000 0
 129324031.973 2  24609545.641 2      3734.637 2 100771991.38544  24609552.21144
      2910.07444         0.000 0
 130933348.515 6  24915787.969 6     -3141.543 6 102026020.99246  24915795.92646
     -2447.97946         0.000 0
 112681808.035 8  21442634.797 8     -2522.910 8  87804018.05848  21442637.98848
     -1965.90848         0.000 0
 114115535.699 8  21715463.586 8      1844.928 8  88921206.21149  21715466.57449
      1437.57249         0.000 0
 116782161.430 6  22222904.602 6     -3140.371 6  90999103.01247  22222909.55147
     -2446.88547         0.000 0
 120600068.759 6  22949430.082 6      3012.662 6  93974086.50347  22949431.53947
      2347.49647         0.000 0
 119366079.849 6  22714608.797 6       965.219 6  93012534.73448  22714610.57048
       752.02548         0.000 0
 130529511.879 4  24838941.023 4      2178.717 4 101711326.43844  24838948.73844
      1697.84644         0.000 0
 107505816.385 7  20457676.148 7      -249.840 7  83770775.60149  20457678.57849
      -194.57849         0.000 0
 124880045.359 4  23763883.973 4     -3506.621 4  97309155.63445  23763890.89845
     -2732.31445         0.000 0
 121193824.060 6  22640022.691 6      1828.037 6  94261896.142 7         0.000 0
      1421.410 7  22640033.863 7
 128302330.778 5  23959554.328 5      3867.277 5  99790757.316 6         0.000 0
      3008.590 6  23959566.070 6
 125712374.085 3  23591896.289 3     -4605.199 3         0.000 0         0.000 0
         0.000 0         0.000 0
 105994400.977 5  19849343.402 5     -2002.834 5  82440123.516 6         0.000 0
     -1557.484 6  19849350.566 6
 110136506.420 6  20661328.387 6      2204.510 6  85661779.554 8         0.000 0
      1715.254 8  20661340.418 8
 127188246.658 3  23801552.746 3      4162.193 3  98924284.973 4         0.000 0
      3237.076 4  23801572.082 4
 117157789.303 6  21947599.277 6     -3327.699 6  91122764.561 8         0.000 0
     -2588.668 8  21947609.590 8
 103281245.571 8  19307338.727 8      -132.535 8  80329891.918 6         0.000 0
      -102.951 6  19307348.609 6
 114256640.035 5  21366569.484 5      2784.869 5  88866290.120 4         0.000 0
      2166.805 4  21366581.086 4
 18  5 22 20 13 57.0000000  0 21G 1G 3G 6G 8G11G17G18G19G22G24G28G30
                                R 7R 8R12R13R14R15R22R23R24
 109304939.236 9  20800038.148 9     -1742.699 9  85172707.12249  20800044.28549
     -1357.76249         0.000 0
 120202006.436 7  22873679.918 7      2652.986 7  93663926.16648  22873686.81648
      2067.35748         0.000 0
 129320296.830 2  24608834.457 2      3736.367 2 100769080.87443  24608841.79743
      2911.51843         0.000 0
 130936489.527 6  24916385.500 6     -3141.158 6 102028468.50246  24916392.77046
     -2447.60546         0.000 0
 112684331.248 8  21443115.426 8     -2523.207 8  87805984.21348  21443118.02748
     -1966.29748         0.000 0
 114113690.531 8  21715112.848 8      1845.818 8  88919768.42449  21715115.21149
      1438.27549         0.000 0
 116785301.827 7  22223502.992 7     -3140.064 7  91001550.05647  22223506.94147
     -2446.86347         0.000 0
 120597055.980 6  22948855.836 6      3012.693 6  93971738.86347  22948858.18447
      2347.65047         0.000 0
 119365114.872 6  22714425.906 6       965.271 6  93011782.80247  22714427.25447
       752.20147         0.000 0
 130527333.319 4  24838526.324 4      2178.377 4 101709628.85344  24838534.39544
      1697.51444         0.000 0
 107506065.975 7  20457724.207 7      -248.930 7  83770970.07449  20457726.22749
      -193.89549         0.000 0
 124883551.026 4  23764550.477 4     -3504.674 4  97311887.33845  23764557.78945
     -2731.18045         0.000 0
 121191996.586 6  22639681.777 6      1827.182 6  94260474.782 7         0.000 0
      1421.094 7  22639690.516 7
 128298463.466 5  23958832.559 5      3867.854 5  99787749.479 5         0.000 0
      3006.412 5  23958843.590 5
 125716979.475 3  23592758.234 3     -4604.896 3         0.000 0         0.000 0
         0.000 0         0.000 0
 105996404.111 5  19849720.367 5     -2001.777 5  82441681.475 6         0.000 0
     -1557.248 6  19849728.961 6
 110134301.190 7  20660914.855 7      2204.732 7  85660064.393 8         0.000 0
      1715.285 8  20660927.316 8
 127184084.066 3  23800773.113 3      4162.225 3  98921047.399 4         0.000 0
      3237.709 4  23800790.875 4
 117161117.565 6  21948223.172 6     -3327.996 6  91125353.213 7         0.000 0
     -2588.328 7  21948234.199 7
 103281378.313 8  19307363.340 8      -132.307 8  80329995.168 6         0.000 0
      -103.469 6  19307374.371 6
 114253854.078 5  21366046.523 5      2786.770 5  88864123.307 4         0.000 0
      2166.723 4  21366061.992 4
 18  5 22 20 13 58.0000000  0 21G 1G 3G 6G 8G11G17G18G19G22G24G28G30
                                R 7R 8R12R13R14R15R22R23R24
 109306682.518 9  20800369.730 9     -1742.967 9  85174065.50149  20800376.08649
     -1358.12149         0.000 0
 120199355.070 7  22873175.988 7      2651.746 7  93661860.16048  22873182.31348
      2066.35448         0.000 0
 129316562.146 3  24608124.043 3      3734.520 3 100766170.74443  24608129.36743
      2910.04743         0.000 0
 130939631.129 6  24916983.234 6     -3141.072 6 102030916.51146  24916990.46146
     -2447.69346         0.000 0
 112686855.089 8  21443594.820 8     -2523.279 8  87807950.82848  21443598.42648
     -1966.18948         0.000 0
 114111845.556 8  21714761.598 8      1844.908 8  88918330.81749  21714764.64549
      1437.31149         0.000 0
 116788442.813 7  22224100.586 7     -3140.467 7  91003997.55647  22224104.94947
     -2447.02947         0.000 0
 120594043.287 6  22948283.363 6      3013.074 6  93969391.35048  22948285.13748
      2347.80148         0.000 0
 119364150.922 6  22714242.074 6       964.498 6  93011031.69847  22714243.00447
       751.41247         0.000 0
 130525155.147 3  24838112.828 3      2177.447 3 101707931.56944  24838121.30144
      1696.68644         0.000 0
 107506316.258 7  20457771.324 7      -249.898 7  83771165.08949  20457774.07049
      -194.70349         0.000 0
 124887057.297 5  23765216.754 5     -3506.230 5  97314619.50445  23765224.57845
     -2732.08845         0.000 0
 121190170.211 5  22639339.492 5      1826.219 5  94259054.283 7         0.000 0
      1419.877 7  22639348.949 7
 128294597.023 5  23958111.859 5      3866.514 5  99784742.156 6         0.000 0
      3008.150 6  23958122.172 6
 125721585.466 3  23593621.250 3     -4605.318 3         0.000 0         0.000 0
         0.000 0         0.000 0
 105998408.229 5  19850093.242 5     -2004.242 5  82443240.289 6         0.000 0
     -1558.820 6  19850107.277 6
 110132096.596 6  20660501.813 6      2204.234 6  85658349.692 8         0.000 0
      1713.352 8  20660514.563 8
 127179921.621 2  23799993.688 2      4161.471 2  98917809.959 4         0.000 0
      3236.539 4  23800012.305 4
 117164446.220 6  21948847.848 6     -3328.971 6  91127942.163 7         0.000 0
     -2588.424 7  21948858.016 7
 103281511.562 8  19307386.871 8      -132.848 8  80330098.809 6         0.000 0
      -103.254 6  19307397.902 6
 114251068.587 5  21365525.055 5      2785.787 5  88861956.809 4         0.000 0
      2166.365 4  21365538.805 4
 18  5 22 20 13 59.0000000  0 21G 1G 3G 6G 8G11G17G18G19G22G24G28G30
                                R 7R 8R12R13R14R15R22R23R24
 109308426.066 9  20800702.094 9     -1744.602 9  85175424.10749  20800708.35949
     -1359.37749         0.000 0
 120196703.204 7  22872670.977 7      2651.203 7  93659793.80548  22872677.28548
      2065.93848         0.000 0
 129312827.128 4  24607413.695 4      3734.777 4 100763260.38344  24607419.63344
      2910.19544         0.000 0
 130942772.218 6  24917581.320 6     -3141.164 6 102033364.08646  24917588.71946
     -2447.60246         0.000 0
 112689379.034 7  21444075.285 7     -2525.266 7  87809917.55148  21444079.00448
     -1967.71748         0.000 0
 114110000.939 8  21714410.410 8      1843.994 8  88916893.43849  21714413.37149
      1436.97349         0.000 0
 116791583.971 7  22224698.813 7     -3142.141 7  91006445.23047  22224702.14547
     -2448.40247         0.000 0
 120591030.985 6  22947709.813 6      3012.238 6  93967044.10747  22947712.32847
      2347.36347         0.000 0
 119363186.949 6  22714058.875 6       962.920 6  93010280.54047  22714059.60547
       750.36947         0.000 0
 130522978.049 3  24837697.820 3      2176.182 3 101706235.16844  24837705.49244
      1695.76244         0.000 0
 107506566.658 7  20457819.363 7      -251.729 7  83771360.23349  20457820.91049
      -196.09649         0.000 0
 124890563.022 5  23765884.379 5     -3505.715 5  97317351.23345  23765891.14845
     -2731.66445         0.000 0
 121188344.185 5  22639000.133 5      1825.084 5  94257634.012 7         0.000 0
      1418.893 7  22639009.586 7
 128290729.816 5  23957387.488 5      3866.459 5  99781734.336 6         0.000 0
      3007.941 6  23957398.664 6
 125726190.726 4  23594484.465 4     -4605.432 4         0.000 0         0.000 0
         0.000 0         0.000 0
 106000412.859 5  19850469.469 5     -2006.236 5  82444799.389 6         0.000 0
     -1560.016 6  19850479.496 6
 110129893.053 6  20660087.398 6      2202.070 6  85656635.847 8         0.000 0
      1712.967 8  20660100.148 8
 127175760.000 2  23799217.184 2      4160.773 2  98914573.124 4         0.000 0
      3236.094 4  23799233.652 4
 117167774.824 6  21949469.289 6     -3329.918 6  91130531.107 7         0.000 0
     -2590.178 7  21949480.602 7
 103281645.318 7  19307413.898 7      -134.834 7  80330202.839 6         0.000 0
      -104.303 6  19307423.066 6
 114248283.476 5  21365006.227 5      2784.010 5  88859790.610 4         0.000 0
      2164.756 4  21365014.246 4
 18  5 22 20 14  0.0000000  0 21G 1G 3G 6G 8G11G17G18G19G22G24G28G30
                                R 7R 8R12R13R14R15R22R23R24
 109310170.203 9  20801033.660 9     -1744.453 9  85176783.18849  20801039.49649
     -1359.27949         0.000 0
 120194051.815 7  22872166.598 7      2651.193 7  93657727.77148  22872173.39548
      2065.93848         0.000 0
 129309091.734 3  24606702.121 3      3735.629 3 100760349.68844  24606709.57844
      2911.03544         0.000 0
 130945913.471 6  24918178.035 6     -3141.369 6 102035811.83446  24918185.82046
     -2447.77746         0.000 0
 112691903.403 7  21444556.238 7     -2524.670 7  87811884.57448  21444559.11348
     -1967.21148         0.000 0
 114108156.207 8  21714060.145 8      1844.904 8  88915455.98249  21714062.14549
      1437.59649         0.000 0
 116794725.560 7  22225296.387 7     -3141.955 7  91008893.22947  22225301.36347
     -2448.14847         0.000 0
 120588018.417 6  22947136.750 6      3012.365 6  93964696.65347  22947139.36747
      2347.24647         0.000 0
 119362223.603 6  22713875.168 6       962.990 6  93009529.90547  22713876.98447
       750.38947         0.000 0
 130520801.055 4  24837283.449 4      2176.525 4 101704538.80944  24837292.99644
      1696.09244         0.000 0
 107506817.388 7  20457866.750 7      -250.918 7  83771555.59049  20457869.39549
      -195.52949         0.000 0
 124894068.536 4  23766552.211 4     -3504.807 4  97320082.80245  23766558.37945
     -2730.92245         0.000 0
 121186518.956 5  22638660.840 5      1824.801 5  94256214.379 7         0.000 0
      1419.516 7  22638668.719 7
 128286862.794 5  23956667.199 5      3867.641 5  99778726.702 6         0.000 0
      3007.510 6  23956677.516 6
 125730795.811 4  23595345.457 4     -4604.230 4         0.000 0         0.000 0
         0.000 0         0.000 0
 106002417.950 4  19850845.906 4     -2005.467 4  82446358.931 6         0.000 0
     -1559.900 6  19850855.359 6
 110127689.977 6  20659674.059 6      2202.957 6  85654922.326 8         0.000 0
      1713.395 8  20659687.949 8
 127171598.333 2  23798437.594 2      4161.504 2  98911336.320 4         0.000 0
      3236.111 4  23798454.352 4
 117171103.635 6  21950092.801 6     -3328.893 6  91133120.162 7         0.000 0
     -2589.887 7  21950103.258 7
 103281779.413 7  19307438.129 7      -134.590 7  80330307.126 6         0.000 0
      -104.949 6  19307447.871 6
 114245498.251 4  21364484.887 4      2784.799 4  88857624.329 4         0.000 0
      2167.000 4  21364493.336 4
 18  5 22 20 14  1.0000000  0 21G 1G 3G 6G 8G11G17G18G19G22G24G28G30
                                R 7R 8R12R13R14R15R22R23R24
 109311915.682 9  20801365.867 9     -1745.217 9  85178143.28249  20801371.76249
     -1359.91849         0.000 0
 120191401.644 7  22871662.578 7      2650.021 7  93655662.71348  22871669.37548
      2064.98848         0.000 0
 129305356.639 3  24605991.188 3      3735.668 3 100757439.21943  24606000.11743
      2910.77043         0.000 0
 130949055.603 6  24918775.965 6     -3142.406 6 102038260.23046  24918784.25046
     -2448.59046         0.000 0
 112694428.999 8  21445036.688 8     -2525.725 8  87813852.55148  21445039.27748
     -1968.23848         0.000 0
 114106312.002 8  21713708.801 8      1845.197 8  88914018.94849  21713711.41849
      1437.80149         0.000 0
 116797868.291 7  22225894.887 7     -3142.914 7  91011342.10047  22225898.40647
     -2448.96147         0.000 0
 120585006.162 6  22946563.043 6      3012.406 6  93962349.40947  22946565.94547
      2347.50847         0.000 0
 119361261.760 6  22713692.242 6       961.057 6  93008780.43447  22713693.30147
       748.77547         0.000 0
 130518624.770 4  24836869.434 4      2176.232 4 101702842.97244  24836877.94544
      1695.77044         0.000 0
 107507069.246 7  20457914.488 7      -251.699 7  83771751.84549  20457916.83649
      -196.12749         0.000 0
 124897574.490 5  23767218.969 5     -3505.551 5  97322814.69045  23767225.33645
     -2731.67845         0.000 0
 121184695.330 6  22638317.895 6      1823.320 6  94254796.057 7         0.000 0
      1417.238 7  22638328.637 7
 128282996.777 5  23955945.836 5      3865.939 5  99775719.813 5         0.000 0
      3006.898 5  23955955.574 5
 125735401.534 3  23596208.379 3     -4605.969 3         0.000 0         0.000 0
         0.000 0         0.000 0
 106004424.387 4  19851223.273 4     -2006.455 4  82447919.470 6         0.000 0
     -1560.072 6  19851231.723 6
 110125488.004 6  20659262.930 6      2202.295 6  85653209.702 8         0.000 0
      1713.096 8  20659275.250 8
 127167437.131 3  23797657.359 3      4161.404 3  98908099.791 4         0.000 0
      3236.381 4  23797669.535 4
 117174433.415 6  21950718.816 6     -3330.383 6  91135709.979 7         0.000 0
     -2590.086 7  21950728.555 7
 103281914.584 7  19307462.574 7      -134.945 7  80330412.287 6         0.000 0
      -105.189 6  19307473.457 6
 114242713.525 4  21363965.191 4      2785.037 4  88855458.407 4         0.000 0
      2166.324 4  21363974.645 4
 18  5 22 20 14  2.0000000  0 21G 1G 3G 6G 8G11G17G18G19G22G24G28G30
                                R 7R 8R12R13R14R15R22R23R24
 109313661.726 9  20801698.020 9     -1747.107 9  85179503.82649  20801704.43049
     -1361.18949         0.000 0
 120188751.913 7  22871158.215 7      2649.340 7  93653597.99248  22871164.85548
      2064.43848         0.000 0
 129301620.936 3  24605279.914 3      3734.555 3 100754528.23143  24605289.84843
      2910.04543         0.000 0
 130952198.185 6  24919374.270 6     -3142.734 6 102040709.00846  24919382.41046
     -2448.74846         0.000 0
 112696955.153 8  21445517.227 8     -2526.875 8  87815820.99948  21445520.20348
     -1969.11948         0.000 0
 114104467.416 8  21713358.117 8      1843.871 8  88912581.57549  21713360.03549
      1436.85949         0.000 0
 116801011.659 7  22226492.473 7     -3143.711 7  91013791.48747  22226495.32047
     -2449.58847         0.000 0
 120581993.328 6  22945989.707 6      3011.801 6  93960001.77048  22945991.74248
      2346.85948         0.000 0
 119360300.661 6  22713509.121 6       960.822 6  93008031.45147  22713511.58247
       748.73447         0.000 0
 130516448.784 3  24836455.648 3      2175.551 3 101701147.40944  24836463.94544
      1695.14144         0.000 0
 107507321.181 7  20457962.316 7      -253.240 7  83771948.17649  20457964.72349
      -197.14549         0.000 0
 124901079.964 5  23767886.098 5     -3506.426 5  97325546.22945  23767892.48045
     -2732.32245         0.000 0
 121182872.901 6  22637978.609 6      1821.557 6  94253378.580 7         0.000 0
      1417.154 7  22637986.773 7
 128279131.159 5  23955224.551 5      3865.354 5  99772713.217 5         0.000 0
      3005.951 5  23955232.285 5
 125740006.850 3  23597070.234 3     -4605.736 3         0.000 0         0.000 0
         0.000 0         0.000 0
 106006430.989 5  19851599.430 5     -2007.734 5  82449480.166 6         0.000 0
     -1561.596 6  19851609.172 6
 110123286.292 7  20658847.879 7      2200.770 7  85651497.284 8         0.000 0
      1711.406 8  20658861.055 8
 127163276.071 3  23796879.500 3      4159.959 3  98904863.416 4         0.000 0
      3235.918 4  23796891.246 4
 117177763.593 6  21951342.336 6     -3330.457 6  91138300.151 7         0.000 0
     -2590.723 7  21951352.508 7
 103282049.896 8  19307489.102 8      -135.842 8  80330517.540 6         0.000 0
      -106.588 6  19307499.559 6
 114239928.396 5  21363443.430 5      2783.488 5  88853292.260 4         0.000 0
      2164.131 4  21363455.172 4
 18  5 22 20 14  3.0000000  0 21G 1G 3G 6G 8G11G17G18G19G22G24G28G30
                                R 7R 8R12R13R14R15R22R23R24
 109315408.360 9  20802030.598 9     -1746.473 9  85180864.84149  20802036.59449
     -1360.81849         0.000 0
 120186102.923 7  22870653.992 7      2648.805 7  93651533.83148  22870661.10548
      2063.95148         0.000 0
 129297885.466 2  24604568.496 2      3735.623 2 100751617.49043  24604578.05543
      2910.90443         0.000 0
 130955340.890 6  24919971.996 6     -3142.881 6 102043157.87346  24919980.41046
     -2448.94546         0.000 0
 112699481.721 7  21445998.336 7     -2526.785 7  87817789.75848  21446001.45748
     -1968.86748         0.000 0
 114102622.967 8  21713006.430 8      1845.016 8  88911144.36349  21713009.25049
      1437.60249         0.000 0
 116804155.344 7  22227091.348 7     -3143.740 7  91016241.12147  22227095.91447
     -2449.66847         0.000 0
 120578980.592 6  22945416.230 6      3013.395 6  93957654.15848  22945419.12148
      2348.05348         0.000 0
 119359340.282 6  22713326.570 6       960.150 6  93007283.13747  22713327.94547
       748.05147         0.000 0
 130514272.887 3  24836040.859 3      2175.738 3 101699451.92844  24836050.54744
      1695.51244         0.000 0
 107507573.743 7  20458010.719 7      -251.998 7  83772144.96549  20458012.93449
      -196.42449         0.000 0
 124904585.801 5  23768553.227 5     -3506.045 5  97328278.05745  23768560.25445
     -2731.93445         0.000 0
 121181051.219 6  22637638.184 6      1820.775 6  94251961.735 7         0.000 0
      1416.143 7  22637645.773 7
 128275265.931 6  23954502.410 6      3864.842 6  99769706.894 5         0.000 0
      3005.863 5  23954511.723 5
 125744612.677 3  23597933.102 3     -4606.131 3         0.000 0         0.000 0
         0.000 0         0.000 0
 106008438.607 5  19851973.875 5     -2007.770 5  82451041.657 6         0.000 0
     -1561.070 6  19851982.328 6
 110121085.170 7  20658435.980 7      2201.078 7  85649785.240 8         0.000 0
      1712.781 8  20658449.730 8
 127159114.806 3  23796102.215 3      4161.613 3  98901626.924 4         0.000 0
      3236.359 4  23796115.250 4
 117181093.859 6  21951965.574 6     -3330.545 6  91140890.344 7         0.000 0
     -2589.969 7  21951977.465 7
 103282185.731 8  19307515.922 8      -135.537 8  80330623.130 6         0.000 0
      -104.957 6  19307522.082 6
 114237143.594 5  21362922.102 5      2785.148 5  88851126.249 4         0.000 0
      2166.383 4  21362932.988 4
 18  5 22 20 14  4.0000000  0 21G 1G 3G 6G 8G11G17G18G19G22G24G28G30
                                R 7R 8R12R13R14R15R22R23R24
 109317155.813 9  20802362.320 9     -1748.117 9  85182226.50449  20802368.84849
     -1362.15849         0.000 0
 120183454.720 7  22870150.059 7      2646.867 7  93649470.32747  22870157.37147
      2062.47347         0.000 0
 129294149.980 2  24603857.078 2      3734.660 2 100748706.76643  24603866.19543
      2910.15043         0.000 0
 130958484.078 5  24920569.871 5     -3142.846 5 102045607.10246  24920578.98446
     -2449.01646         0.000 0
 112702009.004 7  21446479.016 7     -2528.021 7  87819759.08648  21446481.93848
     -1969.85548         0.000 0
 114100778.610 8  21712655.605 8      1843.018 8  88909707.20849  21712658.60949
      1436.18449         0.000 0
 116807299.690 7  22227689.508 7     -3144.291 7  91018691.27847  22227692.80147
     -2450.10947         0.000 0
 120575967.748 6  22944842.898 6      3012.141 6  93955306.48348  22944845.40248
      2347.02348         0.000 0
 119358380.945 6  22713144.164 6       958.682 6  93006535.57747  22713145.32447
       746.94547         0.000 0
 130512097.203 3  24835627.359 3      2175.207 3 101697756.59744  24835636.47344
      1694.91444         0.000 0
 107507826.908 7  20458058.977 7      -254.426 7  83772342.24749  20458061.46549
      -198.17449         0.000 0
 124908091.735 5  23769220.500 5     -3506.459 5  97331009.97646  23769227.02346
     -2732.25846         0.000 0
 121179230.699 5  22637298.762 5      1819.404 5  94250545.748 7         0.000 0
      1415.389 7  22637305.352 7
 128271401.336 5  23953781.848 5      3864.350 5  99766701.115 5         0.000 0
      3005.324 5  23953790.156 5
 125749218.745 4  23598795.109 4     -4606.916 4         0.000 0         0.000 0
         0.000 0         0.000 0
 106010446.998 5  19852350.328 5     -2009.375 5  82452603.741 6         0.000 0
     -1563.172 6  19852358.922 6
 110118884.599 7  20658024.512 7      2199.531 7  85648073.723 8         0.000 0
      1710.699 8  20658035.824 8
 127154953.576 3  23795322.645 3      4161.414 3  98898390.421 4         0.000 0
      3236.191 4  23795336.250 4
 117184424.578 6  21952590.105 6     -3331.740 6  91143480.936 7         0.000 0
     -2590.842 7  21952599.414 7
 103282322.054 8  19307541.168 8      -137.006 8  80330729.206 6         0.000 0
      -106.961 6  19307546.469 6
 114234358.854 5  21362402.637 5      2783.914 5  88848960.388 4         0.000 0
      2165.434 4  21362409.941 4
 18  5 22 20 14  5.0000000  0 21G 1G 3G 6G 8G11G17G18G19G22G24G28G30
                                R 7R 8R12R13R14R15R22R23R24
 109318903.797 9  20802695.313 9     -1748.840 9  85183588.57149  20802701.76649
     -1362.62749         0.000 0
 120180806.622 7  22869645.961 7      2646.650 7  93647406.86147  22869653.00447
      2062.41447         0.000 0
 129290414.204 2  24603146.789 2      3735.205 2 100745795.79743  24603155.73043
      2910.67643         0.000 0
 130961627.302 6  24921168.012 6     -3144.057 6 102048056.39946  24921177.31346
     -2449.99246         0.000 0
 112704536.707 7  21446960.539 7     -2528.295 7  87821728.72348  21446962.41448
     -1970.01048         0.000 0
 114098934.303 8  21712304.762 8      1843.779 8  88908270.07749  21712308.52349
      1436.57449         0.000 0
 116810444.558 7  22228287.934 7     -3145.697 7  91021141.82347  22228291.03947
     -2451.16447         0.000 0
 120572954.951 6  22944270.262 6      3012.139 6  93952958.86948  22944271.89148
      2347.08248         0.000 0
 119357422.044 6  22712961.023 6       958.250 6  93005788.38848  22712962.72748
       746.70948         0.000 0
 130509922.322 3  24835213.551 3      2174.619 3 101696061.89644  24835221.92244
      1694.50444         0.000 0
 107508080.292 7  20458107.355 7      -254.387 7  83772539.69049  20458109.97749
      -198.03749         0.000 0
 124911597.335 5  23769887.898 5     -3506.537 5  97333741.60145  23769893.80945
     -2732.55145         0.000 0
 121177410.899 6  22636957.883 6      1819.160 6  94249130.401 7         0.000 0
      1414.625 7  22636967.910 7
 128267536.633 6  23953061.121 6      3863.604 6  99763695.234 6         0.000 0
      3005.139 6  23953067.422 6
 125753824.374 4  23599656.664 4     -4606.783 4         0.000 0         0.000 0
         0.000 0         0.000 0
 106012455.898 5  19852725.609 5     -2010.422 5  82454166.218 6         0.000 0
     -1563.854 6  19852734.633 6
 110116684.852 7  20657609.723 7      2199.037 7  85646362.847 8         0.000 0
      1710.398 8  20657623.617 8
 127150793.013 3  23794544.762 3      4159.908 3  98895154.457 4         0.000 0
      3235.672 4  23794558.656 4
 117187755.580 6  21953214.035 6     -3331.035 6  91146071.719 7         0.000 0
     -2591.340 7  21953225.496 7
 103282458.917 8  19307565.246 8      -137.611 8  80330835.649 6         0.000 0
      -107.928 6  19307574.125 6
 114231574.289 5  21361879.852 5      2784.121 5  88846794.629 4         0.000 0
      2164.158 4  21361889.164 4
 18  5 22 20 14  6.0000000  0 21G 1G 3G 6G 8G11G17G18G19G22G24G28G30
                                R 7R 8R12R13R14R15R22R23R24
 109320652.711 9  20803028.059 9     -1750.049 9  85184951.37549  20803034.77049
     -1363.70749         0.000 0
 120178159.272 6  22869142.477 6      2645.580 6  93645344.00848  22869149.04748
      2061.47348         0.000 0
 129286678.203 1  24602436.391 1      3734.877 1 100742884.60343  24602444.36343
      2910.32043         0.000 0
 130964771.245 5  24921766.621 5     -3145.246 5 102050506.20246  24921774.64846
     -2450.81846         0.000 0
 112707065.286 7  21447441.242 7     -2529.465 7  87823699.03648  21447443.17248
     -1971.03148         0.000 0
 114097090.151 8  21711953.242 8      1843.410 8  88906833.08249  21711956.74649
      1436.58849         0.000 0
 116813590.316 7  22228886.258 7     -3146.574 7  91023593.06347  22228890.30947
     -2451.71747         0.000 0
 120569942.104 7  22943696.945 7      3012.240 7  93950611.20548  22943699.32448
      2347.02048         0.000 0
 119356464.249 6  22712778.922 6       956.750 6  93005042.09848  22712780.52748
       745.47548         0.000 0
 130507748.138 3  24834799.359 3      2174.154 3 101694367.70944  24834807.71544
      1694.12744         0.000 0
 107508334.261 7  20458155.922 7      -254.873 7  83772737.57749  20458157.59449
      -198.57049         0.000 0
 124915102.840 5  23770555.191 5     -3505.871 5  97336473.14646  23770560.81646
     -2731.93246         0.000 0
 121175592.574 6  22636617.910 6      1817.023 6  94247716.127 7         0.000 0
      1412.980 7  22636627.793 7
 128263672.593 6  23952335.422 6      3862.768 6  99760689.850 5         0.000 0
      3004.713 5  23952345.734 5
 125758430.073 4  23600520.121 4     -4606.699 4         0.000 0         0.000 0
         0.000 0         0.000 0
 106014465.430 5  19853102.223 5     -2010.527 5  82455729.162 6         0.000 0
     -1563.607 6  19853110.816 6
 110114485.890 7  20657197.992 7      2198.496 7  85644652.522 8         0.000 0
      1709.971 8  20657209.879 8
 127146632.937 3  23793765.352 3      4158.680 3  98891918.783 4         0.000 0
      3235.326 4  23793777.816 4
 117191087.349 6  21953837.582 6     -3332.561 6  91148663.064 7         0.000 0
     -2591.941 7  21953846.176 7
 103282596.398 7  19307592.090 7      -138.488 7  80330942.589 6         0.000 0
      -108.021 6  19307600.539 6
 114228789.794 5  21361360.121 5      2783.408 5  88844628.879 4         0.000 0
      2165.350 4  21361368.145 4
 18  5 22 20 14  7.0000000  0 21G 1G 3G 6G 8G11G17G18G19G22G24G28G30
                                R 7R 8R12R13R14R15R22R23R24
 109322402.480 9  20803361.371 9     -1750.150 9  85186314.82749  20803367.45349
     -1363.74649         0.000 0
 120175512.923 7  22868638.992 7      2645.654 7  93643281.93248  22868645.95748
      2061.47348         0.000 0
 129282941.866 1  24601725.422 1      3735.500 1 100739973.15342  24601732.99242
      2910.75042         0.000 0
 130967915.776 5  24922364.941 5     -3144.840 5 102052956.52146  24922372.39546
     -2450.48646         0.000 0
 112709594.600 7  21447922.941 7     -2529.057 7  87825669.92848  21447925.34448
     -1970.71948         0.000 0
 114095245.699 8  21711602.719 8      1844.482 8  88905395.83049  21711605.72349
      1437.40849         0.000 0
 116816736.774 7  22229484.723 7     -3146.871 7  91026044.84747  22229489.07047
     -2452.12747         0.000 0
 120566928.693 7  22943123.629 7      3013.564 7  93948263.07848  22943126.69148
      2348.13348         0.000 0
 119355507.543 6  22712597.535 6       956.180 6  93004296.58848  22712598.56648
       745.14348         0.000 0
 130505573.728 3  24834386.305 3      2175.166 3 101692673.37544  24834394.30544
      1694.77344         0.000 0
 107508588.749 7  20458204.051 7      -254.504 7  83772935.88949  20458206.01249
      -198.31449         0.000 0
 124918608.287 5  23771221.625 5     -3506.207 5  97339204.67646  23771228.12146
     -2732.16646         0.000 0
 121173775.424 6  22636279.219 6      1816.891 6  94246302.818 7         0.000 0
      1413.104 7  22636286.523 7
 128259809.339 6  23951616.738 6      3862.520 6  99757685.125 6         0.000 0
      3003.664 6  23951624.328 6
 125763036.056 4  23601379.426 4     -4607.398 4         0.000 0         0.000 0
         0.000 0         0.000 0
 106016475.646 5  19853478.691 5     -2010.602 5  82457292.711 6         0.000 0
     -1564.148 6  19853487.570 6
 110112287.129 7  20656784.105 7      2198.578 7  85642942.397 8         0.000 0
      1710.209 8  20656798.285 8
 127142472.362 3  23792986.941 3      4161.654 3  98888682.815 4         0.000 0
      3236.953 4  23793000.262 4
 117194419.560 6  21954462.703 6     -3331.971 6  91151254.792 7         0.000 0
     -2591.311 7  21954472.871 7
 103282734.259 7  19307616.492 7      -138.113 7  80331049.755 6         0.000 0
      -106.629 6  19307626.805 6
 114226005.053 4  21360839.527 4      2784.545 4  88842462.992 4         0.000 0
      2166.174 4  21360847.836 4
 18  5 22 20 14  8.0000000  0 21G 1G 3G 6G 8G11G17G18G19G22G24G28G30
                                R 7R 8R12R13R14R15R22R23R24
 109324152.961 9  20803694.656 9     -1750.012 9  85187678.81849  20803700.35249
     -1363.59849         0.000 0
 120172867.926 6  22868135.328 6      2645.811 6  93641220.89248  22868141.92648
      2061.66048         0.000 0
 129279205.662 1  24601014.133 1      3735.420 1 100737061.82042  24601023.34842
      2910.58642         0.000 0
 130971061.114 6  24922964.090 6     -3145.717 6 102055407.43646  24922971.57446
     -2451.27346         0.000 0
 112712124.631 7  21448403.895 7     -2529.408 7  87827641.38048  21448407.04348
     -1970.88348         0.000 0
 114093400.742 8  21711251.879 8      1845.635 8  88903958.21549  21711254.29749
      1437.88949         0.000 0
 116819883.716 6  22230083.586 6     -3146.674 6  91028497.00647  22230088.09447
     -2451.80147         0.000 0
 120563914.648 6  22942549.711 6      3014.131 6  93945914.50248  22942552.61748
      2348.67248         0.000 0
 119354552.158 7  22712415.547 7       955.613 7  93003552.14648  22712417.04748
       744.47148         0.000 0
 130503398.645 3  24833971.789 3      2174.951 3 101690978.48345  24833979.84845
      1694.70545         0.000 0
 107508843.788 7  20458252.441 7      -254.289 7  83773134.61349  20458254.41449
      -198.01049         0.000 0
 124922114.142 5  23771889.172 5     -3505.150 5  97341936.49246  23771895.39546
     -2731.33246         0.000 0
 121171959.519 6  22635939.781 6      1815.617 6  94244890.450 7         0.000 0
      1412.451 7  22635950.094 7
 128255947.303 5  23950894.441 5      3862.422 5  99754681.282 6         0.000 0
      3004.959 6  23950905.613 6
 125767642.891 3  23602242.563 3     -4606.598 3         0.000 0         0.000 0
         0.000 0         0.000 0
 106018486.654 4  19853855.555 4     -2010.432 4  82458856.809 6         0.000 0
     -1563.332 6  19853863.289 6
 110110088.205 7  20656373.051 7      2198.910 7  85641232.101 8         0.000 0
      1710.861 8  20656385.652 8
 127138310.997 2  23792206.203 2      4160.602 2  98885446.191 4         0.000 0
      3237.053 4  23792223.250 4
 117197752.044 5  21955087.785 5     -3332.822 5  91153846.698 8         0.000 0
     -2592.244 8  21955096.523 8
 103282872.214 7  19307642.008 7      -137.738 7  80331157.108 6         0.000 0
      -106.975 6  19307652.895 6
 114223220.047 4  21360319.188 4      2785.205 4  88840296.844 4         0.000 0
      2166.752 4  21360324.488 4
 18  5 22 20 14  9.0000000  0 21G 1G 3G 6G 8G11G17G18G19G22G24G28G30
                                R 7R 8R12R13R14R15R22R23R24
 109325904.351 8  20804027.309 8     -1751.350 8  85189043.54449  20804034.10549
     -1364.67649         0.000 0
 120170223.691 7  22867632.609 7      2644.008 7  93639160.44948  22867638.73448
      2060.36748         0.000 0
 129275469.523 1  24600303.504 1      3735.707 1 100734150.61642  24600311.75842
      2910.97342         0.000 0
 130974206.870 6  24923563.180 6     -3145.861 6 102057858.66546  24923569.67646
     -2451.22146         0.000 0
 112714655.380 7  21448885.934 7     -2530.588 7  87829613.40348  21448888.10948
     -1971.92248         0.000 0
 114091556.113 8  21710900.410 8      1844.572 8  88902520.83149  21710903.38749
      1437.41649         0.000 0
 116823031.371 7  22230683.102 7     -3147.404 7  91030949.74647  22230686.52347
     -2452.54947         0.000 0
 120560900.719 6  22941976.879 6      3014.262 6  93943565.96948  22941978.83648
      2348.96148         0.000 0
 119353597.741 6  22712233.352 6       953.830 6  93002808.48448  22712235.22748
       743.17848         0.000 0
 130501224.131 2  24833559.074 2      2174.748 2 101689284.06344  24833565.55944
      1694.64544         0.000 0
 107509099.527 7  20458300.910 7      -256.270 7  83773333.92249  20458303.66049
      -199.59649         0.000 0
 124925620.191 5  23772556.516 5     -3505.980 5  97344668.47546  23772562.33646
     -2731.90446         0.000 0
 121170144.816 6  22635600.141 6      1814.814 6  94243478.978 7         0.000 0
      1411.316 7  22635610.598 7
 128252085.767 6  23950171.227 6      3861.459 6  99751677.929 6         0.000 0
      3003.477 6  23950183.258 6
 125772249.938 4  23603106.359 4     -4607.971 4         0.000 0         0.000 0
         0.000 0         0.000 0
 106020498.608 5  19854231.934 5     -2013.203 5  82460421.661 6         0.000 0
     -1565.723 6  19854242.816 6
 110107890.120 7  20655960.363 7      2197.752 7  85639522.469 8         0.000 0
      1709.867 8  20655974.688 8
 127134149.919 2  23791426.703 2      4160.535 2  98882209.787 4         0.000 0
      3237.021 4  23791444.461 4
 117201085.040 5  21955711.383 5     -3333.461 5  91156439.051 8         0.000 0
     -2592.375 8  21955721.410 8
 103283010.912 8  19307668.328 8      -138.900 8  80331264.988 6         0.000 0
      -108.025 6  19307677.066 6
 114220435.347 5  21359798.219 5      2784.852 5  88838130.999 4         0.000 0
      2165.148 4  21359806.668 4
 18  5 22 20 14 10.0000000  0 21G 1G 3G 6G 8G11G17G18G19G22G24G28G30
                                R 7R 8R12R13R14R15R22R23R24
 109327656.205 8  20804360.891 8     -1752.527 8  85190408.63449  20804367.98849
     -1365.66249         0.000 0
 120167580.127 6  22867129.105 6      2642.320 6  93637100.51948  22867136.07448
      2059.06648         0.000 0
 129271733.146 1  24599591.512 1      3736.090 1 100731239.09142  24599599.88342
      2911.33242         0.000 0
 130977352.978 6  24924161.625 6     -3146.941 6 102060310.20346  24924168.50846
     -2452.26646         0.000 0
 112717186.553 7  21449366.758 7     -2531.746 7  87831585.76648  21449369.82048
     -1972.73448         0.000 0
 114089711.174 8  21710549.727 8      1844.467 8  88901083.21549  21710552.74249
      1437.09449         0.000 0
 116826179.470 6  22231281.977 6     -3149.051 6  91033402.78547  22231286.12547
     -2453.90647         0.000 0
 120557886.415 6  22941402.539 6      3013.746 6  93941217.16448  22941405.30148
      2348.38348         0.000 0
 119352644.061 7  22712052.234 7       952.924 7  93002065.35448  22712053.96548
       742.48248         0.000 0
 130499049.494 3  24833145.289 3      2174.430 3 101687589.54444  24833151.38344
      1694.24244         0.000 0
 107509355.489 7  20458349.883 7      -256.764 7  83773533.37349  20458351.64549
      -200.38949         0.000 0
 124929126.160 5  23773223.645 5     -3506.668 5  97347400.41346  23773229.48046
     -2732.40246         0.000 0
 121168330.972 6  22635260.715 6      1813.377 6  94242068.224 7         0.000 0
      1410.541 7  22635271.742 7
 128248224.820 6  23949451.086 6      3860.299 6  99748674.964 6         0.000 0
      3001.662 6  23949461.113 6
 125776857.125 4  23603967.500 4     -4608.762 4         0.000 0         0.000 0
         0.000 0         0.000 0
 106022510.996 5  19854610.098 5     -2013.453 5  82461986.853 6         0.000 0
     -1565.496 6  19854617.688 6
 110105692.214 7  20655548.887 7      2196.943 7  85637813.000 8         0.000 0
      1709.361 8  20655561.352 8
 127129988.585 2  23790649.125 2      4160.607 2  98878973.254 4         0.000 0
      3235.418 4  23790668.320 4
 117204418.205 5  21956333.613 5     -3333.951 5  91159031.493 7         0.000 0
     -2592.943 7  21956345.645 7
 103283149.734 8  19307694.855 8      -138.904 8  80331372.938 6         0.000 0
      -109.061 6  19307702.734 6
 114217650.476 5  21359276.883 5      2784.508 5  88835965.001 4         0.000 0
      2165.486 4  21359285.906 4
 18  5 22 20 14 11.0000000  0 21G 1G 3G 6G 8G11G17G18G19G22G24G28G30
                                R 7R 8R12R13R14R15R22R23R24
 109329408.647 8  20804694.074 8     -1752.994 8  85191774.18649  20804700.58249
     -1365.89649         0.000 0
 120164937.204 7  22866625.199 7      2641.930 7  93635041.13348  22866633.15648
      2058.46148         0.000 0
 129267997.103 1  24598881.699 1      3735.545 1 100728327.87742  24598890.37142
      2910.80542         0.000 0
 130980499.223 6  24924759.383 6     -3147.293 6 102062761.80946  24924767.77046
     -2452.40046         0.000 0
 112719718.153 7  21449849.043 7     -2532.195 7  87833558.43848  21449851.13348
     -1973.18248         0.000 0
 114087866.416 8  21710198.070 8      1844.430 8  88899645.73349  21710201.86349
      1437.30949         0.000 0
 116829327.835 6  22231881.168 6     -3149.051 6  91035856.05647  22231885.56347
     -2453.76847         0.000 0
 120554872.198 6  22940829.238 6      3014.039 6  93938868.41848  22940831.58248
      2348.55948         0.000 0
 119351691.143 6  22711871.285 6       952.125 6  93001322.80348  22711872.26248
       741.89848         0.000 0
 130496875.082 2  24832731.676 2      2174.723 2 101685895.19144  24832737.11344
      1694.59444         0.000 0
 107509612.074 7  20458398.602 7      -257.057 7  83773733.28949  20458400.76249
      -200.33049         0.000 0
 124932632.524 4  23773890.805 4     -3506.844 4  97350132.67346  23773897.01246
     -2732.65446         0.000 0
 121166517.892 6  22634923.758 6      1811.873 6  94240658.001 7         0.000 0
      1409.625 7  22634930.633 7
 128244364.229 6  23948732.129 6      3859.537 6  99745672.266 6         0.000 0
      3001.447 6  23948741.152 6
 125781464.785 4  23604828.676 4     -4608.252 4         0.000 0         0.000 0
         0.000 0         0.000 0
 106024524.408 5  19854987.438 5     -2014.449 5  82463552.840 6         0.000 0
     -1567.154 6  19854995.027 6
 110103494.902 7  20655135.160 7      2196.826 7  85636104.017 8         0.000 0
      1708.932 8  20655148.051 8
 127125827.151 2  23789869.867 2      4161.701 2  98875736.549 5         0.000 0
      3237.508 5  23789886.484 5
 117207751.405 6  21956958.602 6     -3333.441 6  91161624.001 8         0.000 0
     -2592.670 8  21956971.207 8
 103283289.051 7  19307720.277 7      -139.607 7  80331481.307 6         0.000 0
      -108.924 6  19307728.871 6
 114214865.964 5  21358758.594 5      2784.664 5  88833799.311 4         0.000 0
      2165.799 4  21358767.617 4
 18  5 22 20 14 12.0000000  0 21G 1G 3G 6G 8G11G17G18G19G22G24G28G30
                                R 7R 8R12R13R14R15R22R23R24
 109331161.662 8  20805027.969 8     -1753.652 8  85193140.18049  20805034.49649
     -1366.59649         0.000 0
 120162294.925 7  22866122.727 7      2642.447 7  93632982.20448  22866129.92248
      2059.15048         0.000 0
 129264260.825 1  24598171.023 1      3736.939 1 100725416.53142  24598179.35242
      2911.84842         0.000 0
 130983645.864 6  24925358.430 6     -3146.250 6 102065213.72347  24925366.85947
     -2451.61547         0.000 0
 112722250.229 7  21450330.754 7     -2532.598 7  87835531.48848  21450333.54748
     -1973.54948         0.000 0
 114086021.456 8  21709847.414 8      1844.086 8  88898208.11249  21709850.63749
      1437.13949         0.000 0
 116832476.720 6  22232480.215 6     -3149.082 6  91038309.72347  22232484.39547
     -2453.76447         0.000 0
 120551857.720 6  22940256.219 6      3014.068 6  93936519.49248  22940257.24648
      2348.56448         0.000 0
 119350739.017 6  22711690.195 6       951.840 6  93000580.87648  22711691.18448
       741.65048         0.000 0
 130494700.880 2  24832317.203 2      2173.871 2 101684201.01444  24832323.55544
      1694.05344         0.000 0
 107509868.937 7  20458447.746 7      -257.576 7  83773933.44449  20458450.03549
      -200.65649         0.000 0
 124936138.799 5  23774556.816 5     -3505.998 5  97352864.83146  23774563.94146
     -2731.88946         0.000 0
 121164705.690 6  22634585.363 6      1811.617 6  94239248.555 7         0.000 0
      1409.418 7  22634593.527 7
 128240504.148 6  23948011.023 6      3860.350 6  99742669.974 6         0.000 0
      3002.596 6  23948018.184 6
 125786072.527 4  23605692.145 4     -4606.873 4         0.000 0         0.000 0
         0.000 0         0.000 0
 106026538.339 5  19855365.063 5     -2015.309 5  82465119.201 6         0.000 0
     -1567.133 6  19855374.230 6
 110101298.004 7  20654723.148 7      2195.920 7  85634395.303 8         0.000 0
      1708.164 8  20654735.465 8
 127121665.778 2  23789096.195 2      4161.340 2  98872499.928 5         0.000 0
      3236.393 5  23789108.086 5
 117211084.946 6  21957582.301 6     -3333.906 6  91164216.750 7         0.000 0
     -2592.945 7  21957595.047 7
 103283428.599 7  19307746.266 7      -140.752 7  80331589.830 6         0.000 0
      -109.279 6  19307755.719 6
 114212081.366 5  21358236.293 5      2784.406 5  88831633.490 4         0.000 0
      2165.652 4  21358246.895 4
 18  5 22 20 14 13.0000000  0 21G 1G 3G 6G 8G11G17G18G19G22G24G28G30
                                R 7R 8R12R13R14R15R22R23R24
 109332915.287 8  20805361.742 8     -1754.256 8  85194506.62449  20805368.58249
     -1366.86549         0.000 0
 120159653.541 6  22865620.129 6      2640.238 6  93630923.98248  22865627.79748
      2057.47348         0.000 0
 129260525.074 2  24597459.941 2      3735.611 2 100722505.57843  24597467.85543
      2910.87343         0.000 0
 130986792.850 6  24925957.211 6     -3147.674 6 102067665.91547  24925966.44147
     -2452.93947         0.000 0
 112724782.757 7  21450812.629 7     -2532.791 7  87837504.87948  21450816.25048
     -1973.64348         0.000 0
 114084176.593 8  21709496.352 8      1844.848 8  88896770.57849  21709498.82849
      1437.60949         0.000 0
 116835625.907 6  22233078.566 6     -3149.080 6  91040763.66647  22233083.47347
     -2454.01447         0.000 0
 120548843.305 6  22939681.645 6      3014.889 6  93934170.58848  22939683.74648
      2349.17448         0.000 0
 119349787.766 6  22711508.555 6       949.730 6  92999839.62548  22711511.23048
       740.01248         0.000 0
 130492526.702 3  24831903.320 3      2175.160 3 101682506.84944  24831909.28544
      1695.03144         0.000 0
 107510126.456 7  20458496.191 7      -258.297 7  83774134.10049  20458498.85549
      -201.10249         0.000 0
 124939645.701 5  23775224.137 5     -3507.246 5  97355597.45146  23775232.29346
     -2732.97946         0.000 0
 121162894.367 6  22634245.984 6      1811.393 6  94237839.755 7         0.000 0
      1408.830 7  22634255.438 7
 128236644.746 6  23947289.215 6      3858.861 6  99739668.226 6         0.000 0
      3001.045 6  23947297.664 6
 125790680.935 4  23606556.629 4     -4608.949 4         0.000 0         0.000 0
         0.000 0         0.000 0
 106028553.246 5  19855740.840 5     -2015.262 5  82466686.389 6         0.000 0
     -1567.871 6  19855749.578 6
 110099101.570 7  20654312.008 7      2196.092 7  85632686.974 8         0.000 0
      1707.885 8  20654323.324 8
 127117504.197 2  23788317.094 2      4161.201 2  98869263.103 5         0.000 0
      3237.750 5  23788328.410 5
 117214418.536 5  21958208.590 5     -3333.396 5  91166809.555 8         0.000 0
     -2592.994 8  21958220.047 8
 103283568.587 7  19307773.273 7      -140.693 7  80331698.710 5         0.000 0
      -108.994 5  19307783.730 5
 114209297.085 4  21357717.160 4      2784.672 4  88829467.938 4         0.000 0
      2165.592 4  21357724.176 4
 18  5 22 20 14 14.0000000  0 21G 1G 3G 6G 8G11G17G18G19G22G24G28G30
                                R 7R 8R12R13R14R15R22R23R24
 109334670.148 8  20805695.500 8     -1755.441 8  85195874.05749  20805701.93849
     -1367.81149         0.000 0
 120157013.817 7  22865118.656 7      2638.957 7  93628867.08148  22865125.09448
      2056.31448         0.000 0
 129256789.393 2  24596749.270 2      3735.639 2 100719594.65143  24596757.82443
      2910.86543         0.000 0
 130989940.848 6  24926555.543 6     -3148.354 6 102070118.92447  24926564.35947
     -2453.34047         0.000 0
 112727316.450 7  21451295.059 7     -2533.879 7  87839479.20448  21451297.78948
     -1974.54948         0.000 0
 114082331.645 7  21709144.840 7      1845.070 7  88895332.94949  21709148.80549
      1437.58249         0.000 0
 116838776.083 6  22233679.047 6     -3150.443 6  91043218.32247  22233683.05147
     -2454.88347         0.000 0
 120545828.438 6  22939107.480 6      3014.896 6  93931821.36348  22939109.88748
      2349.30348         0.000 0
 119348838.171 7  22711327.895 7       948.975 7  92999099.72548  22711329.91048
       739.43848         0.000 0
 130490352.033 3  24831489.277 3      2174.387 3 101680812.28144  24831495.98844
      1694.34044         0.000 0
 107510384.997 7  20458545.625 7      -258.779 7  83774335.57749  20458548.28549
      -201.63949         0.000 0
 124943153.075 4  23775892.730 4     -3506.967 4  97358330.48446  23775899.86746
     -2732.81346         0.000 0
 121161084.722 6  22633910.891 6      1809.514 6  94236432.233 7         0.000 0
      1407.186 7  22633916.906 7
 128232786.732 6  23946570.258 6      3858.287 6  99736667.565 5         0.000 0
      3000.031 5  23946575.273 5
 125795290.349 4  23607420.102 4     -4609.289 4         0.000 0         0.000 0
         0.000 0         0.000 0
 106030569.314 5  19856118.180 5     -2016.162 5  82468254.450 6         0.000 0
     -1568.154 6  19856130.355 6
 110096905.313 7  20653899.566 7      2196.336 7  85630978.754 8         0.000 0
      1708.217 8  20653913.176 8
 127113341.873 2  23787536.262 2      4162.088 2  98866025.821 4         0.000 0
      3236.953 4  23787546.145 4
 117217752.902 5  21958831.430 5     -3335.461 5  91169402.933 8         0.000 0
     -2594.084 8  21958842.887 8
 103283709.181 7  19307798.695 7      -141.076 7  80331808.056 6         0.000 0
      -109.129 6  19307809.293 6
 114206512.728 4  21357194.430 4      2784.590 4  88827302.365 4         0.000 0
      2165.783 4  21357204.027 4
 18  5 22 20 14 15.0000000  0 21G 1G 3G 6G 8G11G17G18G19G22G24G28G30
                                R 7R 8R12R13R14R15R22R23R24
 109336425.515 8  20806029.789 8     -1756.232 8  85197241.86649  20806036.74249
     -1368.39849         0.000 0
 120154374.335 6  22864615.855 6      2639.164 6  93626810.32348  22864623.59848
      2056.42848         0.000 0
 129253053.456 2  24596038.414 2      3735.922 2 100716683.53043  24596047.97343
      2911.13743         0.000 0
 130993088.935 6  24927155.266 6     -3147.521 6 102072571.97647  24927162.82047
     -2452.67847         0.000 0
 112729850.510 7  21451777.016 7     -2534.494 7  87841453.77148  21451780.14848
     -1974.82648         0.000 0
 114080486.704 8  21708793.719 8      1844.006 8  88893895.33449  21708797.43849
      1436.79949         0.000 0
 116841926.666 6  22234278.051 6     -3151.096 6  91045673.32347  22234282.73047
     -2455.35447         0.000 0
 120542813.522 6  22938534.137 6      3014.184 6  93929472.09648  22938535.79748
      2348.65448         0.000 0
 119347889.110 7  22711146.766 7       948.518 7  92998360.19648  22711148.68048
       738.85048         0.000 0
 130488177.941 3  24831075.766 3      2173.146 3 101679118.19044  24831084.00844
      1693.34244         0.000 0
 107510643.761 7  20458594.586 7      -259.434 7  83774537.20349  20458597.62149
      -202.14849         0.000 0
 124946660.229 4  23776559.703 4     -3507.367 4  97361063.30345  23776566.10245
     -2732.97145         0.000 0
 121159275.885 6  22633569.453 6      1808.590 6  94235025.379 7         0.000 0
      1406.502 7  22633576.898 7
 128228928.832 6  23945846.246 6      3857.947 6  99733666.957 6         0.000 0
      3000.811 6  23945857.563 6
 125799899.501 4  23608282.383 4     -4608.611 4         0.000 0         0.000 0
         0.000 0         0.000 0
 106032585.891 5  19856496.625 5     -2017.262 5  82469822.888 6         0.000 0
     -1569.443 6  19856506.367 6
 110094709.711 7  20653487.375 7      2194.631 7  85629271.088 8         0.000 0
      1706.479 8  20653500.551 8
 127109179.946 2  23786757.965 2      4160.969 2  98862788.718 4         0.000 0
      3236.053 4  23786768.137 4
 117221087.403 5  21959457.809 5     -3334.629 5  91171996.445 8         0.000 0
     -2594.008 8  21959469.125 8
 103283850.121 7  19307824.789 7      -142.039 7  80331917.688 6         0.000 0
      -110.047 6  19307833.668 6
 114203728.461 4  21356673.809 4      2783.313 4  88825136.830 4         0.000 0
      2163.557 4  21356680.254 4
 18  5 22 20 14 16.0000000  0 21G 1G 3G 6G 8G11G17G18G19G22G24G28G30
                                R 7R 8R12R13R14R15R22R23R24
 109338181.344 8  20806364.191 8     -1756.553 8  85198610.05149  20806369.94549
     -1368.70149         0.000 0
 120151735.501 7  22864113.602 7      2637.414 7  93624754.08648  22864121.43048
      2055.20748         0.000 0
 129249317.414 3  24595327.246 3      3735.326 3 100713772.31343  24595336.74643
      2910.61943         0.000 0
 130996237.328 6  24927754.535 6     -3148.820 6 102075025.25647  24927761.78947
     -2453.52547         0.000 0
 112732384.980 7  21452259.664 7     -2535.225 7  87843428.70548  21452262.23848
     -1975.45948         0.000 0
 114078641.538 8  21708442.426 8      1844.738 8  88892457.54449  21708445.80149
      1437.57049         0.000 0
 116845077.621 6  22234878.180 6     -3151.184 6  91048128.60847  22234883.04347
     -2455.65447         0.000 0
 120539798.297 6  22937960.766 6      3014.953 6  93927122.56048  22937962.45348
      2349.38748         0.000 0
 119346940.804 7  22710967.039 7       947.629 7  92997621.25948  22710968.61348
       738.46948         0.000 0
 130486003.846 4  24830662.371 4      2174.543 4 101677424.11444  24830669.09844
      1694.32844         0.000 0
 107510902.848 7  20458644.238 7      -259.951 7  83774739.09749  20458646.38749
      -202.52749         0.000 0
 124950167.384 5  23777226.367 5     -3508.195 5  97363796.17845  23777233.55145
     -2733.60445         0.000 0
 121157467.941 5  22633233.426 5      1807.264 5  94233619.187 7         0.000 0
      1406.139 7  22633240.730 7
 128225071.372 5  23945128.078 5      3857.176 5  99730666.724 6         0.000 0
      2999.643 6  23945137.531 6
 125804508.817 3  23609146.352 3     -4610.049 3         0.000 0         0.000 0
         0.000 0         0.000 0
 106034603.018 4  19856874.180 4     -2018.805 4  82471391.769 6         0.000 0
     -1570.309 6  19856884.207 6
 110092514.378 7  20653077.297 7      2194.854 7  85627563.613 8         0.000 0
      1707.088 8  20653088.469 8
 127105017.802 3  23785979.641 3      4162.248 3  98859551.486 4         0.000 0
      3236.873 4  23785991.813 4
 117224422.154 5  21960082.582 5     -3335.648 5  91174590.108 7         0.000 0
     -2594.025 7  21960092.465 7
 103283991.251 7  19307850.137 7      -142.225 7  80332027.473 6         0.000 0
      -110.006 6  19307859.016 6
 114200944.038 4  21356152.582 4      2783.473 4  88822971.131 4         0.000 0
      2164.912 4  21356157.738 4
 18  5 22 20 14 17.0000000  0 21G 1G 3G 6G 8G11G17G18G19G22G24G28G30
                                R 7R 8R12R13R14R15R22R23R24
 109339937.840 8  20806698.215 8     -1756.818 8  85199978.75649  20806704.72749
     -1368.95149         0.000 0
 120149097.485 7  22863611.824 7      2636.781 7  93622698.49248  22863618.73448
      2054.60748         0.000 0
 129245581.755 2  24594616.266 2      3735.023 2 100710861.41343  24594625.78143
      2910.39143         0.000 0
 130999385.950 6  24928353.563 6     -3148.557 6 102077478.72347  24928362.20747
     -2453.26847         0.000 0
 112734919.934 7  21452741.930 7     -2535.217 7  87845403.98548  21452745.14848
     -1975.47548         0.000 0
 114076796.567 8  21708091.469 8      1844.553 8  88891019.89949  21708094.77349
      1437.20549         0.000 0
 116848228.913 6  22235477.492 6     -3151.604 6  91050584.18047  22235482.81647
     -2455.84647         0.000 0
 120536783.181 6  22937387.445 6      3014.750 6  93924773.11648  22937389.28948
      2349.23648         0.000 0
 119345993.300 7  22710786.504 7       947.424 7  92996882.92448  22710787.87948
       738.31648         0.000 0
 130483829.839 3  24830248.023 3      2173.791 3 101675730.07744  24830256.06644
      1693.98244         0.000 0
 107511162.637 7  20458693.797 7      -260.410 7  83774941.51949  20458695.88349
      -202.87549         0.000 0
 124953675.008 5  23777893.652 5     -3508.439 5  97366529.35145  23777902.26645
     -2733.87345         0.000 0
 121155660.766 5  22632895.734 5      1806.578 5  94232213.607 7         0.000 0
      1405.014 7  22632903.039 7
 128221214.448 6  23944408.098 6      3855.645 6  99727666.863 6         0.000 0
      2999.793 6  23944417.125 6
 125809118.740 3  23610007.082 3     -4610.467 3         0.000 0         0.000 0
         0.000 0         0.000 0
 106036621.176 4  19857249.926 4     -2019.605 4  82472961.415 6         0.000 0
     -1570.189 6  19857259.953 6
 110090319.644 7  20652665.121 7      2194.436 7  85625856.560 8         0.000 0
      1707.041 8  20652676.723 8
 127100855.441 2  23785198.215 2      4163.117 2  98856314.122 4         0.000 0
      3237.729 4  23785211.535 4
 117227756.979 5  21960705.977 5     -3335.408 5  91177183.799 7         0.000 0
     -2593.035 7  21960718.582 7
 103284132.934 7  19307876.828 7      -142.020 7  80332137.682 6         0.000 0
      -110.441 6  19307887.855 6
 114198159.991 4  21355631.555 4      2783.197 4  88820805.763 4         0.000 0
      2165.564 4  21355640.434 4
 18  5 22 20 14 18.0000000  0 21G 1G 3G 6G 8G11G17G18G19G22G24G28G30
                                R 7R 8R12R13R14R15R22R23R24
 109341694.742 8  20807032.363 8     -1757.070 8  85201347.75149  20807039.01649
     -1368.93049         0.000 0
 120146459.638 7  22863110.316 7      2637.326 7  93620643.00948  22863116.85548
      2055.05748         0.000 0
 129241846.419 2  24593905.129 2      3734.945 2 100707950.79443  24593913.73043
      2910.27143         0.000 0
 131002534.493 6  24928953.148 6     -3149.006 6 102079932.14747  24928960.90247
     -2453.59847         0.000 0
 112737455.095 7  21453224.320 7     -2535.586 7  87847379.43048  21453226.35248
     -1975.60948         0.000 0
 114074952.009 8  21707740.492 8      1844.045 8  88889582.56849  21707743.72749
      1436.79549         0.000 0
 116851380.449 6  22236077.223 6     -3151.838 6  91053039.89547  22236081.05547
     -2455.90247         0.000 0
 120533768.609 6  22936813.816 6      3013.830 6  93922424.07448  22936815.21948
      2348.55348         0.000 0
 119345046.157 7  22710606.523 7       947.365 7  92996144.92048  22710608.09848
       738.20148         0.000 0
 130481656.718 3  24829835.375 3      2171.545 3 101674036.70644  24829842.48844
      1692.06844         0.000 0
 107511422.831 7  20458743.047 7      -260.430 7  83775144.29149  20458745.59449
      -203.09049         0.000 0
 124957182.916 5  23778561.203 5     -3508.205 5  97369262.80645  23778568.94545
     -2733.69745         0.000 0
 121153854.143 5  22632558.875 5      1805.828 5  94230808.445 7         0.000 0
      1405.188 7  22632565.750 7
 128217357.440 6  23943685.234 6      3857.320 6  99724667.036 6         0.000 0
      2999.451 6  23943695.832 6
 125813728.805 4  23610870.078 4     -4610.021 4         0.000 0         0.000 0
         0.000 0         0.000 0
 106038640.218 5  19857630.230 5     -2019.891 5  82474531.781 6         0.000 0
     -1570.402 6  19857640.258 6
 110088125.853 7  20652252.066 7      2193.279 7  85624150.316 8         0.000 0
      1705.451 8  20652266.820 8
 127096693.796 2  23784420.348 2      4160.480 2  98853077.340 4         0.000 0
      3235.023 4  23784431.230 4
 117231091.753 5  21961330.492 5     -3335.211 5  91179777.567 7         0.000 0
     -2593.865 7  21961343.672 7
 103284275.160 7  19307903.922 7      -142.684 7  80332248.288 6         0.000 0
      -110.275 6  19307915.379 6
 114195376.591 4  21355110.789 4      2782.350 4  88818640.860 4         0.000 0
      2164.447 4  21355120.383 4
 18  5 22 20 14 19.0000000  0 21G 1G 3G 6G 8G11G17G18G19G22G24G28G30
                                R 7R 8R12R13R14R15R22R23R24
 109343451.998 8  20807367.043 8     -1757.568 8  85202717.04549  20807372.95349
     -1369.57649         0.000 0
 120143821.513 7  22862607.621 7      2637.943 7  93618587.33948  22862614.52048
      2055.56348         0.000 0
 129238111.016 1  24593195.094 1      3735.131 1 100705040.09243  24593203.53543
      2910.60243         0.000 0
 131005682.326 6  24929551.402 6     -3148.193 6 102082384.98447  24929559.73047
     -2453.17247         0.000 0
 112739990.367 7  21453707.531 7     -2535.439 7  87849354.95448  21453709.71948
     -1975.65048         0.000 0
 114073107.991 8  21707389.762 8      1844.230 8  88888145.67849  21707393.18049
      1437.16449         0.000 0
 116854532.021 6  22236676.477 6     -3152.002 6  91055495.69047  22236681.78547
     -2456.18047         0.000 0
 120530754.487 6  22936240.004 6      3013.920 6  93920075.42648  22936242.96948
      2348.39548         0.000 0
 119344099.068 6  22710426.355 6       946.418 6  92995406.91548  22710426.81648
       737.43648         0.000 0
 130479484.311 3  24829421.684 3      2172.572 3 101672343.94344  24829428.72744
      1692.94544         0.000 0
 107511683.423 7  20458792.688 7      -261.336 7  83775347.33049  20458795.12149
      -203.61949         0.000 0
 124960690.647 5  23779229.719 5     -3507.959 5  97371996.12245  23779236.55945
     -2733.50445         0.000 0
 121152047.750 6  22632221.699 6      1806.270 6  94229403.504 7         0.000 0
      1404.463 7  22632228.430 7
 128213499.811 6  23942966.770 6      3857.314 6  99721666.628 6         0.000 0
      3000.037 6  23942975.367 6
 125818338.295 3  23611733.184 3     -4609.910 3         0.000 0         0.000 0
         0.000 0         0.000 0
 106040660.064 5  19858006.637 5     -2020.092 5  82476102.800 6         0.000 0
     -1571.887 6  19858014.941 6
 110085933.210 7  20651841.410 7      2192.102 7  85622444.884 8         0.000 0
      1705.451 8  20651853.586 8
 127092532.570 2  23783643.016 2      4161.061 2  98849840.803 5         0.000 0
      3236.115 5  23783654.906 5
 117234426.354 5  21961955.691 5     -3334.748 5  91182371.169 7         0.000 0
     -2592.732 7  21961967.578 7
 103284418.062 7  19307930.840 7      -142.516 7  80332359.449 6         0.000 0
      -111.369 6  19307941.867 6
 114192593.745 4  21354592.422 4      2782.695 4  88816476.450 4         0.000 0
      2165.482 4  21354599.727 4
 18  5 22 20 14 20.0000000  0 21G 1G 3G 6G 8G11G17G18G19G22G24G28G30
                                R 7R 8R12R13R14R15R22R23R24
 109345209.840 8  20807700.910 8     -1758.066 8  85204086.77149  20807707.96549
     -1369.84649         0.000 0
 120141183.971 6  22862106.262 6      2637.016 6  93616532.10248  22862112.35548
      2054.82648         0.000 0
 129234376.102 1  24592485.250 1      3734.928 1 100702129.75142  24592492.76242
      2910.39342         0.000 0
 131008830.238 6  24930150.703 6     -3147.971 6 102084837.92647  24930159.21947
     -2453.07047         0.000 0
 112742526.047 7  21454189.211 7     -2535.627 7  87851330.80048  21454192.68848
     -1975.76448         0.000 0
 114071264.460 8  21707038.934 8      1843.246 8  88886709.16049  21707042.23849
      1436.30949         0.000 0
 116857683.927 6  22237276.781 6     -3152.072 6  91057951.69447  22237280.97347
     -2456.05947         0.000 0
 120527740.913 6  22935666.242 6      3013.090 6  93917727.17348  22935668.70348
      2347.93248         0.000 0
 119343152.557 7  22710246.383 7       946.369 7  92994669.38748  22710247.59848
       737.34448         0.000 0
 130477312.529 2  24829008.184 2      2170.980 2 101670651.64744  24829016.19544
      1691.58244         0.000 0
 107511944.714 7  20458842.375 7      -261.814 7  83775550.92649  20458844.86349
      -203.86949         0.000 0
 124964198.915 5  23779896.848 5     -3509.006 5  97374729.81545  23779905.67645
     -2734.47745         0.000 0
 121150242.100 6  22631882.418 6      1806.287 6  94227999.121 7         0.000 0
      1404.725 7  22631891.586 7
 128209642.410 6  23942245.922 6      3857.443 6  99718666.423 6         0.000 0
      3000.479 6  23942257.953 6
 125822948.189 4  23612595.047 4     -4610.250 4         0.000 0         0.000 0
         0.000 0         0.000 0
 106042681.066 4  19858386.094 4     -2021.186 4  82477674.674 6         0.000 0
     -1572.471 6  19858395.832 6
 110083741.396 7  20651429.941 7      2191.527 7  85620740.176 8         0.000 0
      1704.250 8  20651443.262 8
 127088371.730 2  23782863.727 2      4160.736 2  98846604.596 5         0.000 0
      3235.252 5  23782877.336 5
 117237761.080 5  21962580.934 5     -3335.055 5  91184964.829 8         0.000 0
     -2594.340 8  21962592.820 8
 103284561.659 7  19307958.520 7      -143.854 7  80332471.137 6         0.000 0
      -112.254 6  19307967.828 6
 114189811.645 4  21354073.098 4      2781.246 4  88814312.613 4         0.000 0
      2164.318 4  21354079.828 4
 18  5 22 20 14 21.0000000  0 21G 1G 3G 6G 8G11G17G18G19G22G24G28G30
                                R 7R 8R12R13R14R15R22R23R24
 109346967.914 8  20808036.094 8     -1759.020 8  85205456.70149  20808041.96149
     -1370.76049         0.000 0
 120138546.170 6  22861603.645 6      2637.117 6  93614476.69748  22861610.42648
      2054.88748         0.000 0
 129230641.317 1  24591774.004 1      3735.477 1 100699219.51742  24591781.83242
      2910.72742         0.000 0
 131011977.601 6  24930749.750 6     -3147.730 6 102087290.39847  24930759.21147
     -2452.83047         0.000 0
 112745061.700 7  21454672.066 7     -2536.461 7  87853306.66148  21454674.64548
     -1976.56148         0.000 0
 114069421.399 8  21706688.422 8      1842.840 8  88885273.00049  21706691.69949
      1435.88349         0.000 0
 116860835.895 6  22237876.258 6     -3152.457 6  91060407.77147  22237881.16447
     -2456.52147         0.000 0
 120524727.854 6  22935092.078 6      3013.152 6  93915379.33948  22935094.66848
      2347.87548         0.000 0
 119342206.077 7  22710066.008 7       946.295 7  92993931.86948  22710067.26648
       737.28948         0.000 0
 130475141.748 3  24828595.426 3      2170.320 3 101668960.14744  24828603.15244
      1691.05944         0.000 0
 107512206.209 7  20458891.805 7      -261.811 7  83775754.69649  20458894.63749
      -203.98249         0.000 0
 124967707.132 4  23780564.434 4     -3507.574 4  97377463.46645  23780571.80545
     -2733.00845         0.000 0
 121148436.800 6  22631545.309 6      1805.889 6  94226594.991 7         0.000 0
      1403.824 7  22631555.480 7
 128205784.450 6  23941525.668 6      3858.398 6  99715665.797 6         0.000 0
      3000.900 6  23941536.984 6
 125827557.769 4  23613458.797 4     -4609.842 4         0.000 0         0.000 0
         0.000 0         0.000 0
 106044702.775 4  19858764.000 4     -2022.875 4  82479247.078 6         0.000 0
     -1572.271 6  19858773.738 6
 110081550.693 7  20651019.785 7      2190.490 7  85619036.254 8         0.000 0
      1703.660 8  20651031.242 8
 127084211.617 2  23782084.461 2      4159.801 2  98843368.964 5         0.000 0
      3235.379 5  23782099.074 5
 117241095.603 5  21963205.770 5     -3335.285 5  91187558.360 7         0.000 0
     -2594.328 7  21963218.664 7
 103284705.756 8  19307985.219 8      -144.869 8  80332583.158 6         0.000 0
      -111.363 6  19307992.957 6
 114187030.141 4  21353552.082 4      2781.492 4  88812149.214 4         0.000 0
      2163.652 4  21353560.816 4
 18  5 22 20 14 22.0000000  0 21G 1G 3G 6G 8G11G17G18G19G22G24G28G30
                                R 7R 8R12R13R14R15R22R23R24
 109348726.614 8  20808370.141 8     -1758.408 8  85206827.11849  20808376.73849
     -1370.22149         0.000 0
 120135908.665 6  22861102.176 6      2637.494 6  93612421.48048  22861108.90248
      2055.07648         0.000 0
 129226906.682 1  24591062.906 1      3734.508 1 100696309.42042  24591070.92242
      2909.95942         0.000 0
 131015124.896 6  24931349.090 6     -3146.887 6 102089742.83147  24931357.64847
     -2451.94147         0.000 0
 112747597.844 7  21455154.500 7     -2535.773 7  87855282.86448  21455157.50448
     -1976.00248         0.000 0
 114067578.835 8  21706337.203 8      1842.826 8  88883837.23049  21706341.20749
      1435.93449         0.000 0
 116863988.256 6  22238476.457 6     -3151.887 6  91062864.14347  22238481.22347
     -2456.04347         0.000 0
 120521715.270 6  22934519.063 6      3012.416 6  93913031.86748  22934521.92648
      2347.47948         0.000 0
 119341260.135 7  22709885.926 7       946.105 7  92993194.78348  22709887.54348
       737.18448         0.000 0
 130472971.668 3  24828182.535 3      2169.682 3 101667269.15544  24828189.80544
      1690.66244         0.000 0
 107512468.358 7  20458941.816 7      -261.648 7  83775958.97749  20458944.09049
      -203.98849         0.000 0
 124971215.479 5  23781231.887 5     -3508.332 5  97380197.22545  23781239.48445
     -2733.87545         0.000 0
 121146632.250 6  22631206.496 6      1804.574 6  94225191.441 7         0.000 0
      1403.389 7  22631216.664 7
 128201926.496 6  23940807.719 6      3858.367 6  99712665.183 6         0.000 0
      3000.668 6  23940814.449 6
 125832167.233 4  23614323.992 4     -4609.229 4         0.000 0         0.000 0
         0.000 0         0.000 0
 106046725.448 5  19859141.344 5     -2022.508 5  82480820.322 6         0.000 0
     -1573.551 6  19859152.375 6
 110079361.033 7  20650608.641 7      2189.834 7  85617333.208 8         0.000 0
      1702.723 8  20650620.813 8
 127080052.053 3  23781303.637 3      4159.648 3  98840133.729 5         0.000 0
      3235.070 5  23781320.680 5
 117244430.329 6  21963832.770 6     -3333.955 6  91190152.024 7         0.000 0
     -2593.135 7  21963839.789 7
 103284850.574 8  19308011.934 8      -144.297 8  80332695.850 6         0.000 0
      -112.943 6  19308021.816 6
 114184249.219 5  21353029.785 5      2780.900 5  88809986.270 4         0.000 0
      2163.707 4  21353041.387 4
 18  5 22 20 14 23.0000000  0 21G 1G 3G 6G 8G11G17G18G19G22G24G28G30
                                R 7R 8R12R13R14R15R22R23R24
 109350485.730 9  20808705.621 9     -1759.467 9  85208197.85649  20808711.66049
     -1371.08449         0.000 0
 120133270.867 7  22860600.566 7      2637.451 7  93610366.04448  22860607.02348
      2055.22948         0.000 0
 129223172.002 1  24590352.098 1      3735.031 1 100693399.30842  24590360.07042
      2910.38742         0.000 0
 131018271.827 6  24931948.145 6     -3146.949 6 102092194.95747  24931955.87547
     -2452.02147         0.000 0
 112750134.171 7  21455636.078 7     -2536.441 7  87857259.22248  21455640.09848
     -1976.47548         0.000 0
 114065736.829 8  21705986.984 8      1842.666 8  88882401.90849  21705990.47749
      1435.85449         0.000 0
 116867140.908 6  22239076.371 6     -3153.180 6  91065320.79547  22239081.16447
     -2457.00247         0.000 0
 120518703.281 6  22933946.625 6      3012.197 6  93910684.86548  22933948.87148
      2347.00648         0.000 0
 119340314.281 6  22709705.270 6       945.359 6  92992457.72848  22709707.63348
       736.55548         0.000 0
 130470802.917 3  24827769.645 3      2168.818 3 101665579.23944  24827776.94144
      1689.91644         0.000 0
 107512730.851 7  20458991.969 7      -263.236 7  83776163.48949  20458994.03149
      -205.00849         0.000 0
 124974723.583 5  23781899.770 5     -3508.375 5  97382930.83045  23781907.52345
     -2733.81845         0.000 0
 121144828.196 6  22630870.977 6      1803.145 6  94223788.273 7         0.000 0
      1403.484 7  22630879.859 7
 128198068.011 5  23940086.906 5      3858.383 5  99709664.136 6         0.000 0
      3000.979 6  23940094.500 6
 125836776.255 4  23615184.746 4     -4609.447 4         0.000 0         0.000 0
         0.000 0         0.000 0
 106048748.833 4  19859522.559 4     -2023.840 4  82482394.044 6         0.000 0
     -1574.238 6  19859530.293 6
 110077172.698 7  20650198.211 7      2188.326 7  85615631.170 8         0.000 0
      1701.742 8  20650210.242 8
 127075893.554 3  23780525.961 3      4157.809 3  98836899.324 5         0.000 0
      3234.326 5  23780540.715 5
 117247765.182 5  21964456.621 5     -3334.506 5  91192745.817 8         0.000 0
     -2593.996 8  21964465.355 8
 103284996.063 8  19308040.367 8      -145.141 8  80332808.981 6         0.000 0
      -112.869 6  19308046.813 6
 114181468.980 4  21352513.367 4      2779.471 4  88807823.853 4         0.000 0
      2162.160 4  21352522.676 4
 18  5 22 20 14 24.0000000  0 21G 1G 3G 6G 8G11G17G18G19G22G24G28G30
                                R 7R 8R12R13R14R15R22R23R24
 109352245.560 8  20809040.051 8     -1760.043 8  85209569.14049  20809047.27749
     -1371.45949         0.000 0
 120130633.312 7  22860098.195 7      2638.281 7  93608310.78648  22860105.22348
      2055.77048         0.000 0
 129219436.867 1  24589641.672 1      3734.941 1 100690488.85542  24589650.18842
      2910.34242         0.000 0
 131021418.943 6  24932546.867 6     -3146.840 6 102094647.22547  24932554.13747
     -2452.08447         0.000 0
 112752671.101 7  21456119.035 7     -2537.250 7  87859236.05048  21456122.91448
     -1977.00648         0.000 0
 114063894.970 8  21705636.863 8      1841.209 8  88880966.66949  21705640.27049
      1434.59849         0.000 0
 116870294.212 7  22239676.379 7     -3153.695 7  91067777.86847  22239681.47347
     -2457.31847         0.000 0
 120515691.295 6  22933373.566 6      3011.758 6  93908337.86848  22933375.71548
      2346.67048         0.000 0
 119339369.033 7  22709526.289 7       945.311 7  92991721.16048  22709527.90648
       736.53148         0.000 0
 130468634.922 3  24827356.563 3      2167.324 3 101663889.92845  24827364.50445
      1688.79745         0.000 0
 107512993.684 7  20459042.648 7      -263.381 7  83776368.29049  20459043.96549
      -205.18849         0.000 0
 124978231.235 5  23782567.887 5     -3507.094 5  97385664.07745  23782573.96945
     -2732.84645         0.000 0
 121143025.071 6  22630531.969 6      1803.342 6  94222385.886 7         0.000 0
      1401.701 7  22630543.426 7
 128194209.518 5  23939364.609 5      3858.801 5  99706663.111 6         0.000 0
      3000.848 6  23939374.207 6
 125841384.750 3  23616045.016 3     -4608.502 3         0.000 0         0.000 0
         0.000 0         0.000 0
 106050772.706 4  19859903.004 4     -2024.816 4  82483968.183 6         0.000 0
     -1574.787 6  19859911.742 6
 110074985.231 7  20649787.586 7      2186.283 7  85613929.786 8         0.000 0
      1699.875 8  20649799.902 8
 127071735.613 3  23779748.949 3      4157.000 3  98833665.396 5         0.000 0
      3232.924 5  23779761.840 5
 117251100.466 6  21965080.844 6     -3334.980 6  91195339.931 8         0.000 0
     -2593.992 8  21965090.730 8
 103285142.184 8  19308067.746 8      -146.713 8  80332922.632 6         0.000 0
      -114.133 6  19308075.195 6
 114178688.746 4  21351990.590 4      2779.201 4  88805661.420 4         0.000 0
      2162.211 4  21352002.480 4
 18  5 22 20 14 25.0000000  0 21G 1G 3G 6G 8G11G17G18G19G22G24G28G30
                                R 7R 8R12R13R14R15R22R23R24
 109354005.825 9  20809375.398 9     -1760.676 9  85210940.78549  20809382.38349
     -1371.99449         0.000 0
 120127995.613 7  22859596.168 7      2637.063 7  93606255.46948  22859603.81348
      2054.94148         0.000 0
 129215702.365 1  24588930.016 1      3734.291 1 100687578.84742  24588938.88742
      2909.90442         0.000 0
 131024565.354 6  24933145.789 6     -3146.146 6 102097099.00747  24933153.12947
     -2451.39147         0.000 0
 112755208.154 7  21456602.770 7     -2536.750 7  87861212.95549  21456605.61749
     -1976.64549         0.000 0
 114062054.179 8  21705286.801 8      1839.523 8  88879532.30249  21705289.50449
      1433.47749         0.000 0
 116873447.582 7  22240276.445 7     -3153.295 7  91070235.06147  22240281.51247
     -2457.03547         0.000 0
 120512680.455 6  22932800.566 6      3010.014 6  93905991.75448  22932802.38348
      2345.35448         0.000 0
 119338423.897 7  22709347.074 7       944.561 7  92990984.62648  22709347.63348
       735.97748         0.000 0
 130466468.247 3  24826944.109 3      2166.262 3 101662201.58045  24826952.92645
      1688.00845         0.000 0
 107513257.232 7  20459092.957 7      -263.877 7  83776573.64849  20459094.50049
      -205.68649         0.000 0
 124981739.373 5  23783235.352 5     -3508.412 5  97388397.65445  23783242.30545
     -2733.65645         0.000 0
 121141222.210 6  22630196.031 6      1802.561 6  94220983.642 7         0.000 0
      1402.631 7  22630206.199 7
 128190350.462 6  23938646.242 6      3858.482 6  99703661.633 5         0.000 0
      3001.844 5  23938652.832 5
 125845993.162 4  23616908.359 4     -4608.352 4         0.000 0         0.000 0
         0.000 0         0.000 0
 106052797.861 4  19860280.934 4     -2025.420 4  82485543.287 6         0.000 0
     -1575.541 6  19860287.094 6
 110072799.285 7  20649378.887 7      2185.459 7  85612229.618 8         0.000 0
      1699.873 8  20649389.629 8
 127067578.609 3  23778971.855 3      4156.758 3  98830432.132 5         0.000 0
      3232.867 5  23778984.746 5
 117254435.585 6  21965705.137 6     -3334.777 6  91197933.941 8         0.000 0
     -2594.615 8  21965715.734 8
 103285289.280 8  19308095.762 8      -147.756 8  80333037.015 6         0.000 0
      -114.758 6  19308103.641 6
 114175909.790 4  21351471.316 4      2778.281 4  88803499.990 4         0.000 0
      2160.818 4  21351483.063 4
 18  5 22 20 14 26.0000000  0 21G 1G 3G 6G 8G11G17G18G19G22G24G28G30
                                R 7R 8R12R13R14R15R22R23R24
 109355766.003 9  20809709.664 9     -1760.438 9  85212312.35449  20809716.85949
     -1371.75249         0.000 0
 120125357.869 7  22859094.207 7      2637.301 7  93604200.06548  22859101.68848
      2055.04748         0.000 0
 129211968.458 1  24588219.137 1      3734.000 1 100684669.21543  24588228.66843
      2909.55943         0.000 0
 131027710.994 6  24933743.629 6     -3145.242 6 102099550.12547  24933752.37147
     -2450.83447         0.000 0
 112757744.852 7  21457085.277 7     -2536.570 7  87863189.58249  21457089.01249
     -1976.49849         0.000 0
 114060213.664 8  21704935.941 8      1840.463 8  88878098.13649  21704940.30549
      1434.26649         0.000 0
 116876600.465 6  22240876.574 6     -3152.898 6  91072691.84347  22240880.62547
     -2456.73247         0.000 0
 120509670.156 6  22932227.773 6      3009.684 6  93903646.04548  22932230.41848
      2345.08648         0.000 0
 119337478.539 7  22709166.496 7       945.131 7  92990248.03048  22709168.14148
       736.55148         0.000 0
 130464301.820 3  24826531.004 3      2165.951 3 101660513.46745  24826540.77745
      1687.70345         0.000 0
 107513521.047 7  20459142.469 7      -263.775 7  83776779.22949  20459144.50049
      -205.54149         0.000 0
 124985247.995 4  23783903.020 4     -3508.602 4  97391131.63745  23783909.80545
     -2734.02045         0.000 0
 121139419.202 6  22629861.152 6      1802.637 6  94219581.313 7         0.000 0
      1402.209 7  22629869.031 7
 128186490.985 6  23937923.781 6      3859.871 6  99700659.779 6         0.000 0
      3002.391 6  23937933.664 6
 125850601.844 4  23617772.766 4     -4609.422 4         0.000 0         0.000 0
         0.000 0         0.000 0
 106054824.006 5  19860660.355 5     -2026.869 5  82487119.156 6         0.000 0
     -1575.471 6  19860669.664 6
 110070613.973 7  20648967.809 7      2184.992 7  85610529.938 8         0.000 0
      1698.605 8  20648979.125 8
 127063421.615 3  23778195.680 3      4156.762 3  98827198.938 4         0.000 0
      3232.553 4  23778206.566 4
 117257769.994 6  21966329.195 6     -3334.182 6  91200527.295 8         0.000 0
     -2593.465 8  21966338.934 8
 103285436.599 7  19308121.258 7      -147.574 7  80333151.611 6         0.000 0
      -114.445 6  19308133.289 6
 114173131.499 5  21350952.387 5      2778.221 5  88801339.095 4         0.000 0
      2161.020 4  21350959.406 4
 18  5 22 20 14 27.0000000  0 21G 1G 3G 6G 8G11G17G18G19G22G24G28G30
                                R 7R 8R12R13R14R15R22R23R24
 109357526.913 9  20810045.215 9     -1761.262 9  85213684.46549  20810051.29749
     -1372.45149         0.000 0
 120122720.705 6  22858592.957 6      2637.178 6  93602145.13248  22858600.27048
      2055.05348         0.000 0
 129208234.956 1  24587509.117 1      3733.449 1 100681759.99142  24587517.28942
      2908.95942         0.000 0
 131030856.796 6  24934343.043 6     -3145.678 6 102102001.40347  24934350.98447
     -2451.22147         0.000 0
 112760282.071 7  21457567.930 7     -2537.240 7  87865166.66148  21457570.90648
     -1976.94348         0.000 0
 114058373.763 8  21704585.797 8      1840.010 8  88876664.41849  21704589.89149
      1433.62549         0.000 0
 116879753.851 7  22241476.133 7     -3153.646 7  91075149.04948  22241481.28548
     -2457.19748         0.000 0
 120506660.375 6  22931655.262 6      3009.795 6  93901300.76948  22931657.48048
      2345.42448         0.000 0
 119336533.954 7  22708987.063 7       944.814 7  92989511.99048  22708988.05148
       736.35948         0.000 0
 130462136.115 3  24826119.762 3      2165.381 3 101658825.89145  24826128.83645
      1687.29745         0.000 0
 107513785.635 7  20459192.840 7      -264.523 7  83776985.39149  20459195.43049
      -206.18049         0.000 0
 124988757.071 5  23784570.691 5     -3508.998 5  97393865.99546  23784577.32846
     -2734.40446         0.000 0
 121137617.059 6  22629523.992 6      1802.049 6  94218179.652 7         0.000 0
      1401.883 7  22629533.586 7
 128182631.750 6  23937204.617 6      3859.342 6  99697658.206 6         0.000 0
      3000.875 6  23937213.211 6
 125855210.834 4  23618636.027 4     -4608.762 4         0.000 0         0.000 0
         0.000 0         0.000 0
 106056851.245 5  19861040.355 5     -2027.732 5  82488695.904 6         0.000 0
     -1576.400 6  19861050.809 6
 110068429.726 7  20648559.316 7      2183.484 7  85608831.073 8         0.000 0
      1698.318 8  20648569.773 8
 127059265.038 3  23777418.508 3      4156.193 3  98823966.069 4         0.000 0
      3232.910 4  23777429.109 4
 117261104.588 6  21966953.406 6     -3334.283 6  91203120.887 8         0.000 0
     -2593.379 8  21966964.578 8
 103285584.722 8  19308150.195 8      -148.123 8  80333266.842 6         0.000 0
      -115.609 6  19308161.508 6
 114170353.944 5  21350432.172 5      2777.906 5  88799178.813 4         0.000 0
      2160.891 4  21350435.754 4
 18  5 22 20 14 28.0000000  0 21G 1G 3G 6G 8G11G17G18G19G22G24G28G30
                                R 7R 8R12R13R14R15R22R23R24
 109359288.238 9  20810380.672 9     -1761.350 9  85215056.93349  20810386.84049
     -1372.51649         0.000 0
 120120083.489 7  22858090.609 7      2637.406 7  93600090.16648  22858098.05148
      2055.00848         0.000 0
 129204501.253 1  24586798.285 1      3734.320 1 100678850.65343  24586807.80143
      2909.83243         0.000 0
 131034002.395 5  24934941.934 5     -3145.783 5 102104452.51446  24934948.98846
     -2451.18946         0.000 0
 112762819.601 7  21458050.914 7     -2537.482 7  87867143.93848  21458053.93448
     -1977.30148         0.000 0
 114056534.051 8  21704235.988 8      1839.709 8  88875230.90549  21704239.43449
      1433.54149         0.000 0
 116882907.520 7  22242076.453 7     -3153.322 7  91077606.45348  22242080.75848
     -2457.14648         0.000 0
 120503650.760 6  22931082.516 6      3009.457 6  93898955.61348  22931084.89148
      2345.04748         0.000 0
 119335589.686 7  22708806.816 7       944.494 7  92988776.19248  22708808.34848
       736.27548         0.000 0
 130459971.140 3  24825707.707 3      2165.275 3 101657138.89345  24825716.04745
      1687.19545         0.000 0
 107514050.455 7  20459242.969 7      -264.141 7  83777191.75649  20459245.20349
      -205.91249         0.000 0
 124992265.826 5  23785237.117 5     -3508.891 5  97396600.08046  23785245.13346
     -2734.15846         0.000 0
 121135815.581 6  22629186.016 6      1801.195 6  94216778.501 7         0.000 0
      1401.006 7  22629195.039 7
 128178772.291 6  23936480.488 6      3859.656 6  99694656.396 6         0.000 0
      3001.311 6  23936492.664 6
 125859819.444 4  23619498.621 4     -4608.721 4         0.000 0         0.000 0
         0.000 0         0.000 0
 106058879.028 5  19861419.398 5     -2027.391 5  82490273.083 6         0.000 0
     -1577.305 6  19861428.133 6
 110066246.368 7  20648149.297 7      2183.133 7  85607132.895 8         0.000 0
      1697.406 8  20648160.609 8
 127055109.041 3  23776642.102 3      4155.918 3  98820733.585 4         0.000 0
      3232.646 4  23776651.695 4
 117264439.341 6  21967581.098 6     -3334.250 6  91205714.594 8         0.000 0
     -2593.684 8  21967588.402 8
 103285733.331 8  19308176.313 8      -148.613 8  80333382.412 6         0.000 0
      -115.699 6  19308187.773 6
 114167576.663 5  21349914.012 5      2777.189 5  88797018.647 4         0.000 0
      2160.482 4  21349919.598 4
 18  5 22 20 14 29.0000000  0 21G 1G 3G 6G 8G11G17G18G19G22G24G28G30
                                R 7R 8R12R13R14R15R22R23R24
 109361049.767 9  20810715.852 9     -1762.016 9  85216429.57549  20810722.52049
     -1372.97549         0.000 0
 120117445.879 7  22857588.988 7      2637.498 7  93598034.88748  22857595.75848
      2055.11348         0.000 0
 129200767.041 2  24586088.035 2      3734.412 2 100675940.91643  24586098.30943
      2910.01643         0.000 0
 131037147.490 5  24935539.688 5     -3144.674 5 102106903.23146  24935547.94146
     -2450.18446         0.000 0
 112765357.200 7  21458533.621 7     -2538.307 7  87869121.27448  21458536.64148
     -1977.76248         0.000 0
 114054694.484 8  21703886.184 8      1839.412 8  88873797.46449  21703889.37549
      1433.31449         0.000 0
 116886061.371 7  22242676.926 7     -3154.205 7  91080064.00348  22242682.02048
     -2457.74248         0.000 0
 120500641.304 6  22930509.777 6      3009.627 6  93896610.60048  22930511.36348
      2345.21148         0.000 0
 119334645.343 6  22708627.293 6       944.137 6  92988040.29648  22708628.79748
       735.67848         0.000 0
 130457807.118 4  24825296.805 4      2163.533 4 101655452.69445  24825305.09045
      1685.89545         0.000 0
 107514315.346 7  20459293.684 7      -265.531 7  83777398.14849  20459295.69949
      -206.88149         0.000 0
 124995773.994 5  23785905.559 5     -3508.424 5  97399333.70846  23785912.77046
     -2733.81646         0.000 0
 121134014.495 6  22628849.902 6      1800.656 6  94215377.600 7         0.000 0
      1400.855 7  22628860.219 7
 128174912.165 5  23935760.516 5      3860.119 5  99691654.029 5         0.000 0
      3003.205 5  23935770.398 5
 125864427.177 3  23620362.078 3     -4607.908 3         0.000 0         0.000 0
         0.000 0         0.000 0
 106060907.117 5  19861797.441 5     -2028.148 5  82491850.511 6         0.000 0
     -1577.820 6  19861811.332 6
 110064063.939 7  20647738.703 7      2181.701 7  85605435.500 8         0.000 0
      1696.000 8  20647750.594 8
 127050953.773 3  23775861.398 3      4154.547 3  98817501.704 4         0.000 0
      3232.313 4  23775874.004 4
 117267774.034 6  21968205.500 6     -3334.563 6  91208308.275 8         0.000 0
     -2593.764 8  21968214.813 8
 103285882.322 8  19308205.156 8      -149.516 8  80333498.271 6         0.000 0
      -116.463 6  19308213.320 6
 114164799.563 5  21349394.707 5      2776.006 5  88794858.675 4         0.000 0
      2159.998 4  21349401.723 4
 18  5 22 20 14 30.0000000  0 21G 1G 3G 6G 8G11G17G18G19G22G24G28G30
                                R 7R 8R12R13R14R15R22R23R24
 109362811.941 9  20811050.398 9     -1762.609 9  85217802.69249  20811057.72349
     -1373.57249         0.000 0
 120114808.761 7  22857086.875 7      2636.633 7  93595979.96448  22857093.95748
      2054.43948         0.000 0
 129197033.611 2  24585378.152 2      3733.156 2 100673031.70643  24585386.69543
      2908.99043         0.000 0
 131040292.576 6  24936137.805 6     -3145.111 6 102109353.94946  24936145.59046
     -2450.60546         0.000 0
 112767895.163 7  21459016.840 7     -2538.451 7  87871098.91248  21459019.35548
     -1978.06448         0.000 0
 114052855.658 8  21703536.605 8      1838.252 8  88872364.61649  21703538.72749
      1432.60249         0.000 0
 116889215.576 7  22243277.191 7     -3154.721 7  91082521.76947  22243281.18447
     -2458.35947         0.000 0
 120497632.643 6  22929936.688 6      3007.629 6  93894266.16448  22929938.85248
      2343.61948         0.000 0
 119333701.587 6  22708447.707 6       943.018 6  92987304.93448  22708448.79748
       734.86748         0.000 0
 130455643.895 4  24824885.555 4      2162.473 4 101653767.02645  24824892.43845
      1685.18045         0.000 0
 107514580.979 7  20459344.047 7      -266.281 7  83777605.12949  20459346.85249
      -207.49849         0.000 0
 124999282.844 5  23786573.363 5     -3509.857 5  97402067.90746  23786581.80946
     -2735.11746         0.000 0
 121132214.006 6  22628511.590 6      1800.969 6  94213977.268 7         0.000 0
      1399.654 7  22628525.195 7
 128171052.192 5  23935039.629 5      3859.369 5  99688651.847 5         0.000 0
      3002.400 5  23935049.223 5
 125869035.377 4  23621224.477 4     -4609.125 4         0.000 0         0.000 0
         0.000 0         0.000 0
 106062936.549 5  19862177.289 5     -2030.451 5  82493428.958 6         0.000 0
     -1579.887 6  19862189.605 6
 110061882.605 7  20647329.633 7      2180.113 7  85603738.845 8         0.000 0
      1695.449 8  20647341.090 8
 127046798.970 3  23775081.785 3      4154.324 3  98814270.237 4         0.000 0
      3230.436 4  23775097.254 4
 117271108.857 6  21968830.707 6     -3335.258 6  91210902.007 7         0.000 0
     -2594.527 7  21968838.871 7
 103286032.137 7  19308231.941 7      -150.580 7  80333614.816 6         0.000 0
      -118.047 6  19308244.402 6
 114162023.387 5  21348875.633 5      2775.945 5  88792699.443 4         0.000 0
      2159.072 4  21348883.367 4
 18  5 22 20 14 31.0000000  0 21G 1G 3G 6G 8G11G17G18G19G22G24G28G30
                                R 7R 8R12R13R14R15R22R23R24
 109364574.453 9  20811385.750 9     -1761.809 9  85219176.06549  20811392.96149
     -1372.85749         0.000 0
 120112171.836 7  22856585.711 7      2637.238 7  93593925.22948  22856591.89548
      2054.95748         0.000 0
 129193300.976 2  24584667.645 2      3733.781 2 100670123.13143  24584676.10243
      2909.52943         0.000 0
 131043436.945 6  24936736.449 6     -3144.133 6 102111804.08446  24936744.71946
     -2449.85046         0.000 0
 112770433.103 8  21459500.004 8     -2537.316 8  87873076.52248  21459502.95348
     -1977.23248         0.000 0
 114051017.679 8  21703186.406 8      1838.996 8  88870932.42749  21703189.57049
      1432.84849         0.000 0
 116892369.538 7  22243877.691 7     -3153.313 7  91084979.41447  22243882.12947
     -2457.23247         0.000 0
 120494624.859 6  22929364.695 6      3009.016 6  93891922.42348  22929367.37148
      2344.66648         0.000 0
 119332757.936 6  22708268.074 6       944.307 6  92986569.61848  22708269.90648
       735.85548         0.000 0
 130453481.105 4  24824473.680 4      2163.391 4 101652081.69945  24824481.80945
      1685.73845         0.000 0
 107514847.448 7  20459394.934 7      -265.400 7  83777812.76049  20459397.55149
      -206.68449         0.000 0
 125002792.440 5  23787241.121 5     -3509.367 5  97404802.64046  23787248.84846
     -2734.69346         0.000 0
 121130413.573 6  22628175.367 6      1799.984 6  94212576.930 7         0.000 0
      1400.816 7  22628187.254 7
 128167191.865 5  23934318.828 5      3860.734 5  99685649.374 5         0.000 0
      3002.463 5  23934329.711 5
 125873643.940 3  23622084.527 3     -4607.838 3         0.000 0         0.000 0
         0.000 0         0.000 0
 106064967.406 5  19862559.375 5     -2030.129 5  82495008.497 6         0.000 0
     -1579.051 6  19862570.832 6
 110059702.350 7  20646918.785 7      2180.756 7  85602043.090 8         0.000 0
      1696.313 8  20646932.391 8
 127042644.347 3  23774305.125 3      4154.988 3  98811038.836 4         0.000 0
      3231.668 4  23774316.008 4
 117274443.146 6  21969453.137 6     -3333.945 6  91213495.308 7         0.000 0
     -2592.885 7  21969465.168 7
 103286182.766 8  19308262.535 8      -149.992 8  80333731.936 6         0.000 0
      -115.936 6  19308271.988 6
 114159248.392 4  21348354.496 4      2776.076 4  88790541.154 4         0.000 0
      2158.709 4  21348365.813 4
 18  5 22 20 14 32.0000000  0 21G 1G 3G 6G 8G11G17G18G19G22G24G28G30
                                R 7R 8R12R13R14R15R22R23R24
 109366337.661 9  20811722.141 9     -1763.467 9  85220549.97649  20811729.53949
     -1374.17649         0.000 0
 120109535.662 7  22856083.586 7      2636.340 7  93591871.06648  22856090.14148
      2054.26448         0.000 0
 129189568.496 2  24583957.320 2      3731.889 2 100667214.71243  24583965.84843
      2908.03343         0.000 0
 131046581.771 6  24937335.129 6     -3144.992 6 102114254.60546  24937342.53946
     -2450.73846         0.000 0
 112772971.670 7  21459982.496 7     -2538.896 7  87875054.63248  21459985.54348
     -1978.33648         0.000 0
 114049179.737 8  21702837.246 8      1837.414 8  88869500.24449  21702840.22349
      1431.97949         0.000 0
 116895524.035 7  22244477.945 7     -3154.309 7  91087437.47347  22244482.71147
     -2458.00447         0.000 0
 120491617.053 6  22928793.027 6      3007.375 6  93889578.70148  22928795.35948
      2343.34648         0.000 0
 119331815.258 6  22708089.047 6       942.004 6  92985835.06848  22708091.12548
       734.08848         0.000 0
 130451318.635 3  24824061.988 3      2162.355 3 101650396.68645  24824069.68845
      1684.92845         0.000 0
 107515114.393 7  20459445.570 7      -266.787 7  83778020.78949  20459448.48849
      -208.14149         0.000 0
 125006302.270 5  23787909.773 5     -3510.031 5  97407537.57046  23787916.34046
     -2735.23046         0.000 0
 121128614.181 6  22627841.332 6      1799.320 6  94211177.419 7         0.000 0
      1399.613 7  22627852.219 7
 128163332.202 5  23933597.496 5      3860.012 5  99682647.421 5         0.000 0
      3002.141 5  23933607.953 5
 125878252.924 3  23622948.344 3     -4609.693 3         0.000 0         0.000 0
         0.000 0         0.000 0
 106066999.080 5  19862940.070 5     -2032.141 5  82496588.663 6         0.000 0
     -1580.818 6  19862950.668 6
 110057522.643 7  20646510.844 7      2178.510 7  85600347.780 8         0.000 0
      1695.326 8  20646524.309 8
 127038489.784 3  23773528.074 3      4153.699 3  98807807.483 4         0.000 0
      3231.559 4  23773539.105 4
 117277777.758 6  21970076.895 6     -3334.258 6  91216088.887 7         0.000 0
     -2593.346 7  21970089.215 7
 103286333.781 8  19308289.590 8      -151.320 8  80333849.427 6         0.000 0
      -117.762 6  19308297.898 6
 114156473.546 5  21347835.695 5      2773.732 5  88788382.920 4         0.000 0
      2158.543 4  21347844.719 4
 18  5 22 20 14 33.0000000  0 21G 1G 3G 6G 8G11G17G18G19G22G24G28G30
                                R 7R 8R12R13R14R15R22R23R24
 109368101.230 9  20812057.363 9     -1764.510 9  85221924.22949  20812063.57049
     -1374.95349         0.000 0
 120106899.230 7  22855581.574 7      2635.279 7  93589816.72348  22855588.52748
      2053.50848         0.000 0
 129185835.270 2  24583247.254 2      3732.330 2 100664305.72843  24583255.19543
      2908.29343         0.000 0
 131049726.359 6  24937933.352 6     -3145.371 6 102116704.90746  24937941.82046
     -2450.87146         0.000 0
 112775510.479 8  21460466.672 8     -2539.766 8  87877032.92349  21460468.76249
     -1979.03549         0.000 0
 114047341.810 8  21702486.910 8      1837.779 8  88868068.10849  21702490.01649
      1431.94549         0.000 0
 116898678.933 7  22245077.887 7     -3155.664 7  91089895.84447  22245082.27747
     -2458.99647         0.000 0
 120488609.218 6  22928220.328 6      3007.916 6  93887234.95448  22928222.09048
      2343.89848         0.000 0
 119330872.732 6  22707909.137 6       941.723 6  92985100.60548  22707910.78148
       733.79948         0.000 0
 130449157.098 3  24823650.270 3      2161.373 3 101648712.39345  24823659.38345
      1683.99645         0.000 0
 107515381.443 7  20459496.324 7      -267.732 7  83778228.88149  20459498.92649
      -208.58449         0.000 0
 125009811.311 4  23788576.965 4     -3508.926 4  97410271.88246  23788583.54746
     -2734.25246         0.000 0
 121126815.513 6  22627504.695 6      1797.604 6  94209778.408 7         0.000 0
      1398.234 7  22627516.871 7
 128159472.035 5  23932879.289 5      3858.779 5  99679645.078 5         0.000 0
      3001.217 5  23932888.453 5
 125882860.975 3  23623814.422 3     -4609.754 3         0.000 0         0.000 0
         0.000 0         0.000 0
 106069030.900 5  19863318.730 5     -2032.254 5  82498168.988 6         0.000 0
     -1581.266 6  19863329.043 6
 110055343.825 7  20646103.449 7      2178.428 7  85598653.157 8         0.000 0
      1694.127 8  20646115.910 8
 127034335.938 3  23772751.285 3      4152.873 3  98804576.744 4         0.000 0
      3229.936 4  23772766.898 4
 117281112.564 6  21970699.625 6     -3335.654 6  91218682.690 8         0.000 0
     -2594.756 8  21970714.379 8
 103286485.243 8  19308317.332 8      -152.479 8  80333967.164 6         0.000 0
      -117.904 6  19308327.215 6
 114153698.644 5  21347317.727 5      2774.572 5  88786224.695 4         0.000 0
      2157.027 4  21347324.602 4
 18  5 22 20 14 34.0000000  0 21G 1G 3G 6G 8G11G17G18G19G22G24G28G30
                                R 7R 8R12R13R14R15R22R23R24
 109369865.268 9  20812393.031 9     -1763.967 9  85223298.81349  20812399.82849
     -1374.64549         0.000 0
 120104262.836 7  22855080.301 7      2636.818 7  93587762.39148  22855087.16848
      2054.53748         0.000 0
 129182102.215 2  24582537.207 2      3733.732 2 100661396.89643  24582544.66443
      2909.52043         0.000 0
 131052870.863 6  24938531.449 6     -3144.064 6 102119155.16446  24938538.43446
     -2449.93846         0.000 0
 112778049.633 7  21460949.441 7     -2539.377 7  87879011.46548  21460951.85948
     -1978.68848         0.000 0
 114045504.381 8  21702136.598 8      1837.072 8  88866636.34049  21702140.37549
      1431.66649         0.000 0
 116901834.257 7  22245678.418 7     -3155.607 7  91092354.53947  22245682.62547
     -2458.96147         0.000 0
 120485601.950 6  22927648.078 6      3006.799 6  93884891.59748  22927650.51248
      2343.09448         0.000 0
 119329930.576 6  22707729.820 6       942.129 6  92984366.46348  22707732.37948
       734.14648         0.000 0
 130446996.733 3  24823239.285 3      2159.729 3 101647029.00345  24823246.86745
      1682.85745         0.000 0
 107515648.839 7  20459547.098 7      -267.344 7  83778437.22749  20459549.64549
      -208.27549         0.000 0
 125013320.442 4  23789245.035 4     -3509.611 4  97413006.24646  23789251.36346
     -2734.84046         0.000 0
 121125017.539 6  22627169.219 6      1797.727 6  94208380.002 7         0.000 0
      1398.461 7  22627179.531 7
 128155611.734 5  23932158.516 5      3861.057 5  99676642.614 6         0.000 0
      3003.352 6  23932167.973 6
 125887468.834 3  23624675.508 3     -4607.303 3         0.000 0         0.000 0
         0.000 0         0.000 0
 106071063.484 5  19863700.703 5     -2032.834 5  82499749.878 6         0.000 0
     -1580.525 6  19863709.730 6
 110053166.155 7  20645696.500 7      2177.014 7  85596959.379 8         0.000 0
      1693.705 8  20645707.531 8
 127030183.038 4  23771973.078 4      4152.281 4  98801346.692 4         0.000 0
      3229.586 4  23771986.973 4
 117284447.608 6  21971324.660 6     -3335.891 6  91221276.515 7         0.000 0
     -2592.994 7  21971339.703 7
 103286637.268 8  19308347.242 8      -152.836 8  80334085.498 6         0.000 0
      -119.988 6  19308356.410 6
 114150924.325 5  21346798.055 5      2774.424 5  88784066.861 4         0.000 0
      2158.797 4  21346804.930 4
