     2.10           OBSERVATION DATA    M (Mixed)           RINEX VERSION / TYPE
RINEXSLX2 2.9.3     HEMISPHERE          9-JUL-18 12:37      PGM / RUN BY / DATE 
OBSERVER            COMPANY                                 OBSERVER / AGENCY   
SITE                                                        MARKER NAME         
SITE#                                                       MARKER NUMBER       
                                                            REC # / TYPE / VERS 
        0.0000        0.0000        0.0000                  APPROX POSITION XYZ 
                                                            ANT # / TYPE        
0.000               0.000               0.000               ANTENNA: DELTA H/E/N
     1                                                      INTERVAL            
     1     1     0                                          WAVELENGTH FACT L1/2
     7    L1    C1    D1    L2    P2    D2    C2            # / TYPES OF OBSERV 
  2018     5    22    15    18   13.000000      GPS         TIME OF FIRST OBS   
  2018     5    22    15    23   33.000000      GPS         TIME OF LAST OBS    
 NO VALID POSITION RECORD FOUND IN THE INPUT FILE           COMMENT             
                                                            END OF HEADER       
 18  5 22 15 18 13.0000000  0 13G 7G 8G16G23G26G27R 1R 2R10R11R19R20
                                R21
 122209984.832 5  23255787.355 5      3137.996 5  95228576.32144  23255789.41844
      2445.15844         0.000 0
 116798486.324 6  22226013.605 6      3185.848 6  91011838.31948  22226021.03148
      2482.32648         0.000 0
 109505358.836 7  20838176.215 7     -1976.695 7  85328864.83849  20838179.79349
     -1540.29549         0.000 0
 115853883.759 5  22046260.816 5     -2417.867 5  90275758.40547  22046262.64847
     -1884.24047         0.000 0
 120213193.498 6  22875809.906 6     -2901.617 6  93672648.05247  22875817.27347
     -2260.88147         0.000 0
 106792767.513 7  20321987.992 7      1028.502 7  83215169.06149  20321994.40249
       801.52349         0.000 0
 120641984.033 5  22640603.969 5     -3311.174 5  93837238.707 6         0.000 0
     -2574.246 6  22640612.418 6
 119029523.782 4  22267699.773 4       439.531 4  92583098.429 5         0.000 0
       342.188 5  22267710.656 5
 107207818.699 7  20111914.223 7     -1716.645 7  83383928.425 7         0.000 0
     -1335.047 7  20111929.547 7
 106742536.923 5  19975412.184 5      1773.928 5  83022007.379 6         0.000 0
      1379.836 6  19975420.777 6
 124393602.936 4  23254073.070 4     -3835.764 4  96750615.904 7         0.000 0
     -2982.504 7  23254083.098 7
 108154178.577 5  20225376.688 5      -210.115 5  84119966.528 9         0.000 0
      -163.207 9  20225387.859 9
 113673709.334 4  21242645.688 4      3764.771 4  88412910.613 7         0.000 0
      2928.031 7  21242653.563 7
 18  5 22 15 18 14.0000000  0 13G 7G 8G16G23G26G27R 1R 2R10R11R19R20
                                R21
 122206828.584 6  23255186.246 6      3152.764 6  95226116.83645  23255189.62545
      2456.81345         0.000 0
 116795282.209 5  22225404.340 5      3200.656 5  91009341.61048  22225410.27748
      2493.98048         0.000 0
 109507317.491 6  20838548.703 6     -1961.889 6  85330391.04249  20838552.86749
     -1528.75649         0.000 0
 115856283.697 4  22046717.871 4     -2403.217 4  90277628.47747  22046719.17647
     -1872.56447         0.000 0
 120216077.087 5  22876358.109 5     -2886.693 5  93674894.99347  22876366.82447
     -2249.24447         0.000 0
 106791721.184 7  20321789.398 7      1042.764 7  83214353.74449  20321795.03549
       812.47749         0.000 0
 120645275.950 5  22641218.602 5     -3295.135 5  93839799.157 6         0.000 0
     -2563.137 6  22641229.629 6
 119029065.783 5  22267614.000 5       453.922 5         0.000 0         0.000 0
         0.000 0         0.000 0
 107209517.217 8  20112235.371 8     -1701.760 8  83385249.592 7         0.000 0
     -1325.084 7  20112247.117 7
 106740743.950 6  19975075.039 6      1789.453 6  83020612.886 7         0.000 0
      1391.879 7  19975084.348 7
 124397420.236 5  23254786.820 5     -3820.807 5  96753584.925 7         0.000 0
     -2971.387 7  23254794.984 7
 108154370.422 5  20225412.805 5      -196.006 5  84120115.813 8         0.000 0
      -151.938 8  20225423.977 8
 113669926.276 5  21241941.152 5      3779.459 5  88409968.205 7         0.000 0
      2939.816 7  21241948.742 7
 18  5 22 15 18 15.0000000  0 13G 7G 8G16G23G26G27R 1R 2R10R11R19R20
                                R21
 122203671.194 6  23254585.129 6      3156.326 6  95223656.56846  23254589.56346
      2459.31446         0.000 0
 116792077.078 5  22224793.488 5      3203.240 5  91006844.10948  22224801.03148
      2495.91648         0.000 0
 109509275.113 7  20838921.469 7     -1959.479 7  85331916.46549  20838925.07449
     -1526.93949         0.000 0
 115858682.690 4  22047174.344 4     -2400.846 4  90279497.79846  22047176.32046
     -1870.82646         0.000 0
 120218959.457 4  22876906.020 4     -2884.031 4  93677141.01047  22876914.67647
     -2247.21347         0.000 0
 106790674.184 7  20321590.082 7      1044.566 7  83213537.93849  20321596.03149
       813.74649         0.000 0
 120648566.983 5  22641834.938 5     -3292.850 5  93842358.834 6         0.000 0
     -2561.576 6  22641845.680 6
 119036799.516 7  22267528.930 7       455.928 7         0.000 0         0.000 0
         0.000 0         0.000 0
 107211214.807 8  20112553.926 8     -1699.699 8  83386569.901 7         0.000 0
     -1321.674 7  20112568.105 7
 106738950.194 8  19974739.598 8      1791.406 8  83019217.706 9         0.000 0
      1393.652 9  19974747.906 9
 124401236.482 4  23255500.840 4     -3817.777 4  96756553.229 6         0.000 0
     -2970.586 6  23255509.004 6
 108154561.864 5  20225447.188 5      -193.582 5  84120264.729 8         0.000 0
      -150.494 8  20225459.508 8
 113666142.330 4  21241233.164 4      3781.570 4  88407025.137 7         0.000 0
      2941.301 7  21241240.898 7
 18  5 22 15 18 16.0000000  0 14G 7G 8G16G21G23G26G27R 1R 2R10R11R19
                                R20R21
 122200513.517 5  23253984.590 5      3156.852 5  95221196.04846  23253989.51246
      2459.77746         0.000 0
 116788871.844 5  22224184.078 5      3204.176 5  91004346.50447  22224190.83247
      2496.71147         0.000 0
 109511232.574 6  20839294.098 6     -1958.680 6  85333441.76649  20839297.55949
     -1526.22349         0.000 0
 128381225.105 1  24430134.793 1      -299.420 1 100037322.31043  24430135.99643
      -233.35043         0.000 0
 115861081.736 5  22047630.969 5     -2400.613 5  90281367.18746  22047632.61346
     -1870.69546         0.000 0
 120221841.501 5  22877454.508 5     -2882.664 5  93679386.73947  22877463.07847
     -2246.34047         0.000 0
 106789627.379 7  20321390.914 7      1045.248 7  83212722.23849  20321397.02349
       814.56149         0.000 0
 120651857.938 5  22642451.137 5     -3291.813 5  93844918.462 7         0.000 0
     -2560.316 7  22642462.453 7
 119028149.502 6  22267442.004 6       456.650 6         0.000 0         0.000 0
         0.000 0         0.000 0
 107212912.311 8  20112870.918 8     -1698.764 8  83387890.229 7         0.000 0
     -1322.469 7  20112887.676 7
 106737156.280 8  19974403.594 8      1792.580 8  83017822.434 9         0.000 0
      1394.365 9  19974411.902 9
 124405052.837 3  23256214.438 3     -3817.795 3  96759521.422 7         0.000 0
     -2968.992 7  23256222.031 7
 108154753.805 5  20225483.301 5      -193.209 5  84120414.026 8         0.000 0
      -150.131 8  20225492.898 8
 113662358.379 4  21240528.625 4      3782.863 4  88404082.037 7         0.000 0
      2941.801 7  21240532.777 7
 18  5 22 15 18 17.0000000  0 15G 7G 8G16G21G23G26G27R 1R 2R10R11R12
                                R19R20R21
 122197355.942 6  23253383.750 6      3156.164 6  95218735.56047  23253387.68847
      2459.60247         0.000 0
 116785666.939 5  22223574.086 5      3203.449 5  91001849.19747  22223581.71147
      2496.00847         0.000 0
 109513190.313 7  20839667.000 7     -1959.270 7  85334967.26149  20839669.73449
     -1526.61149         0.000 0
 128381523.771 1  24430191.750 1      -300.479 1 100037555.03343  24430193.02343
      -234.07243         0.000 0
 115863481.190 5  22048087.438 5     -2400.793 5  90283236.88946  22048090.02746
     -1870.71546         0.000 0
 120224723.635 4  22878003.273 4     -2882.902 4  93681632.57947  22878011.81647
     -2246.49647         0.000 0
 106788581.195 7  20321191.594 7      1045.090 7  83211907.01349  20321197.61749
       814.18949         0.000 0
 120655149.366 5  22643066.754 5     -3293.211 5  93847478.440 6         0.000 0
     -2561.012 6  22643076.922 6
 119027692.327 7  22267356.500 7       455.797 7  92581675.038 7         0.000 0
       353.893 7  22267365.953 7
 107214610.246 7  20113189.469 7     -1698.953 7  83389210.813 7         0.000 0
     -1322.285 7  20113205.656 7
 106735362.705 7  19974068.293 7      1792.234 7  83016427.435 8         0.000 0
      1394.334 8  19974077.316 8
 124014227.67816  23272463.965 6      3466.389 6         0.000 0         0.000 0
         0.000 0         0.000 0
 124408869.681 2  23256927.598 2     -3818.471 2  96762489.958 5         0.000 0
     -2969.023 5  23256935.332 5
 108154946.715 5  20225519.543 5      -194.607 5  84120564.032 9         0.000 0
      -151.178 9  20225531.863 9
 113658574.916 5  21239821.207 5      3782.285 5  88401139.350 7         0.000 0
      2942.492 7  21239825.504 7
 18  5 22 15 18 18.0000000  0 14G 7G 8G16G23G26G27R 1R 2R10R11R12R19
                                R20R21
 122194198.565 6  23252783.547 6      3156.738 6  95216275.29347  23252786.35247
      2459.65247         0.000 0
 116782462.564 5  22222964.293 5      3203.027 5  90999352.29247  22222970.76247
      2495.80547         0.000 0
 109515148.669 3  20840039.250 3     -1960.063 3  85336493.27649  20840042.25449
     -1527.16849         0.000 0
 115865881.314 5  22048544.113 5     -2401.449 5  90285107.12946  22048546.25846
     -1871.28946         0.000 0
 120227606.130 3  22878551.813 3     -2883.480 3  93683878.63447  22878560.10947
     -2246.81647         0.000 0
 106787535.895 6  20320993.051 6      1044.100 6  83211092.50049  20320997.69949
       813.65449         0.000 0
 120658441.383 5  22643682.863 5     -3292.844 5  93850038.913 7         0.000 0
     -2561.504 7  22643692.746 7
 119027236.248 6  22267270.484 6       454.348 6  92581320.381 7         0.000 0
       353.420 7  22267281.371 7
 107216308.676 7  20113508.086 7     -1699.330 7  83390531.751 6         0.000 0
     -1321.605 6  20113523.410 6
 106733569.712 8  19973731.336 8      1791.938 8  83015032.924 9         0.000 0
      1393.668 9  19973739.355 9
 124010760.655 5  23271814.188 5      3466.326 5         0.000 0         0.000 0
         0.000 0         0.000 0
 124412686.905 4  23257641.246 4     -3818.727 4  96765458.982 6         0.000 0
     -2970.275 6  23257650.984 6
 108155140.679 4  20225556.996 4      -196.213 4  84120714.859 8         0.000 0
      -151.844 8  20225567.879 8
 113654792.145 5  21239114.570 5      3781.893 5  88398197.209 7         0.000 0
      2941.846 7  21239119.867 7
 18  5 22 15 18 19.0000000  0 13G 7G 8G16G23G27R 1R 2R10R11R12R19R20
                                R21
 122191040.701 6  23252182.598 6      3157.428 6  95213814.61147  23252186.53147
      2460.38347         0.000 0
 116779257.854 5  22222354.328 5      3203.932 5  90996855.08947  22222361.35547
      2496.75047         0.000 0
 109517106.552 3  20840411.609 3     -1958.943 3  85338018.88148  20840414.68848
     -1526.45748         0.000 0
 115868281.230 5  22049001.039 5     -2400.936 5  90286977.18646  22049002.68446
     -1870.79346         0.000 0
 106786490.559 6  20320794.328 6      1044.516 6  83210277.95149  20320799.72349
       813.76049         0.000 0
 120661733.233 5  22644297.219 5     -3292.941 5  93852599.232 6         0.000 0
     -2561.525 6  22644307.102 6
 119026780.377 6  22267186.730 6       454.521 6  92580965.805 7         0.000 0
       353.221 7  22267195.609 7
 107218007.020 6  20113826.383 6     -1699.039 6  83391852.734 5         0.000 0
     -1322.020 5  20113841.277 5
 106731776.351 8  19973396.922 8      1792.563 8  83013638.041 9         0.000 0
      1394.389 9  19973405.805 9
 124007292.934 5  23271165.383 5      3467.225 5         0.000 0         0.000 0
         0.000 0         0.000 0
 124416503.996 4  23258354.859 4     -3817.984 4  96768427.846 7         0.000 0
     -2969.242 7  23258361.734 7
 108155335.063 2  20225593.125 2      -196.467 2  84120866.041 7         0.000 0
      -151.709 7  20225605.297 7
 113651009.267 6  21238406.180 6      3781.912 6  88395254.929 7         0.000 0
      2941.355 7  21238411.621 7
 18  5 22 15 18 20.0000000  0 14G 7G 8G 9G16G23G27R 1R 2R10R11R12R19
                                R20R21
 122187882.776 6  23251580.758 6      3157.998 6  95211353.90947  23251584.75047
      2460.59647         0.000 0
 116776053.389 5  22221745.047 5      3204.502 5  90994358.09447  22221752.62947
      2497.11947         0.000 0
 113287791.440 6  21557949.777 6      -380.209 6         0.000 0         0.000 0
         0.000 0         0.000 0
 109519064.597 5  20840784.652 5     -1958.334 5  85339544.65848  20840788.59048
     -1526.06848         0.000 0
 115870681.486 4  22049457.793 4     -2400.775 4  90288847.50846  22049459.46946
     -1870.56146         0.000 0
 106785445.746 7  20320594.578 7      1044.207 7  83209463.79849  20320600.62949
       813.71949         0.000 0
 120665025.406 5  22644915.266 5     -3292.990 5  93855159.772 7         0.000 0
     -2560.643 7  22644920.852 7
 119034517.265 6  22267102.941 6       453.887 6  92580611.790 6         0.000 0
       354.025 6  22267110.391 6
 107219705.398 6  20114146.078 6     -1698.814 6  83393173.705 5         0.000 0
     -1322.311 5  20114161.977 5
 106729983.195 8  19973060.906 8      1792.748 8  83012243.382 9         0.000 0
      1394.410 9  19973069.930 9
 124003825.155 5  23270515.254 5      3467.506 5         0.000 0         0.000 0
         0.000 0         0.000 0
 124420321.373 2  23259066.871 2     -3818.639 2  96771396.938 7         0.000 0
     -2969.143 7  23259076.035 7
 108155529.924 2  20225629.938 2      -195.402 2  84121017.671 7         0.000 0
      -152.527 7  20225642.113 7
 113647226.640 4  21237697.039 4      3782.996 4  88392312.911 7         0.000 0
      2941.809 7  21237703.629 7
 18  5 22 15 18 21.0000000  0 14G 7G 8G 9G16G23G27R 1R 2R10R11R12R19
                                R20R21
 122184725.308 6  23250979.398 6      3157.709 6  95208893.52747  23250984.42247
      2460.59647         0.000 0
 116772849.561 5  22221134.961 5      3203.764 5  90991861.64047  22221142.33247
      2496.47547         0.000 0
 113288170.985 6  21558021.813 6      -379.949 6  88276431.23744  21558005.95744
      -296.26444         0.000 0
 109521023.351 6  20841157.609 6     -1958.682 6  85341070.92448  20841160.88748
     -1526.38148         0.000 0
 115873082.475 5  22049915.031 5     -2401.045 5  90290718.41746  22049916.43446
     -1871.18646         0.000 0
 106784401.901 6  20320396.453 6      1043.723 6  83208650.41449  20320402.34849
       813.30949         0.000 0
 120668318.253 5  22645528.070 5     -3292.828 5  93857720.898 6         0.000 0
     -2561.365 6  22645539.816 6
 119025871.299 6  22267015.199 6       453.734 6  92580258.699 6         0.000 0
       352.637 6  22267024.082 6
 107221404.606 7  20114463.684 7     -1699.396 7  83394495.303 6         0.000 0
     -1322.271 6  20114481.586 6
 106728190.687 8  19972726.230 8      1792.459 8  83010849.206 9         0.000 0
      1393.902 9  19972734.824 9
 124000357.691 5  23269866.332 5      3467.531 5         0.000 0         0.000 0
         0.000 0         0.000 0
 124424139.382 5  23259780.941 5     -3818.027 5  96774366.484 7         0.000 0
     -2969.709 7  23259788.676 7
 108155726.201 5  20225666.234 5      -195.162 5  84121170.369 8         0.000 0
      -153.973 8  20225675.402 8
 113643444.773 5  21236991.395 5      3782.162 5  88389371.479 7         0.000 0
      2941.418 7  21236999.273 7
 18  5 22 15 18 22.0000000  0 14G 7G 8G 9G16G23G27R 1R 2R10R11R12R19
                                R20R21
 122181568.035 6  23250379.137 6      3156.875 6  95206433.35547  23250384.00447
      2459.86147         0.000 0
 116769646.185 5  22220525.539 5      3202.891 5  90989365.46447  22220533.01247
      2495.79947         0.000 0
 113288551.352 6  21558095.227 6      -380.900 6  88276727.58046  21558097.30146
      -296.70346         0.000 0
 109522982.497 6  20841530.516 6     -1959.359 6  85342597.53949  20841533.30949
     -1526.82049         0.000 0
 115875484.063 5  22050371.215 5     -2402.113 5  90292589.77246  22050373.69146
     -1871.68446         0.000 0
 106783358.806 6  20320198.137 6      1042.732 6  83207837.62949  20320203.33249
       812.49849         0.000 0
 120671611.680 5  22646146.984 5     -3294.051 5  93860282.445 6         0.000 0
     -2561.666 6  22646156.438 6
 119025418.274 6  22266931.418 6       452.221 6  92579906.337 6         0.000 0
       352.023 6  22266940.582 6
 107223104.318 8  20114782.813 8     -1700.090 8  83395817.270 7         0.000 0
     -1322.242 7  20114800.715 7
 106726398.655 8  19972390.359 8      1791.258 8  83009455.400 9         0.000 0
      1393.484 9  19972397.809 9
 123996890.351 5  23269219.215 5      3467.053 5         0.000 0         0.000 0
         0.000 0         0.000 0
 124427957.976 5  23260495.961 5     -3819.191 5  96777336.492 7         0.000 0
     -2970.576 7  23260501.691 7
 108155923.593 5  20225701.762 5      -197.984 5  84121323.819 8         0.000 0
      -153.648 8  20225714.082 8
 113639663.571 5  21236285.270 5      3780.471 5  88386430.540 6         0.000 0
      2940.395 6  21236292.859 6
 18  5 22 15 18 23.0000000  0 14G 7G 8G 9G16G23G27R 1R 2R10R11R12R19
                                R20R21
 122178410.788 6  23249778.586 6      3157.467 6  95203973.13447  23249782.19147
      2460.20947         0.000 0
 116766443.074 5  22219915.543 5      3202.916 5  90986869.55247  22219922.91447
      2495.71747         0.000 0
 113288932.305 6  21558167.207 6      -381.600 6  88277024.44447  21558174.46147
      -297.31347         0.000 0
 109524941.862 6  20841903.277 6     -1958.982 6  85344124.30949  20841906.46549
     -1526.39649         0.000 0
 115877886.014 5  22050828.543 5     -2402.168 5  90294461.42446  22050830.53146
     -1871.98246         0.000 0
 106782316.288 6  20319999.387 6      1042.348 6  83207025.27749  20320005.79749
       812.25849         0.000 0
 120674905.479 5  22646763.602 5     -3294.006 5  93862844.280 6         0.000 0
     -2562.063 6  22646771.625 6
 119024966.005 6  22266845.625 6       451.777 6  92579554.566 6         0.000 0
       351.590 6  22266855.508 6
 107224804.340 8  20115101.648 8     -1699.871 8  83397139.523 7         0.000 0
     -1322.402 7  20115118.695 7
 106724606.844 8  19972055.344 8      1791.791 8  83008061.771 9         0.000 0
      1393.869 9  19972062.363 9
 123993422.933 5  23268568.090 5      3467.564 5         0.000 0         0.000 0
         0.000 0         0.000 0
 124431776.861 5  23261210.266 5     -3819.420 5  96780306.738 7         0.000 0
     -2970.756 7  23261216.996 7
 108156121.794 5  20225739.438 5      -198.508 5  84121477.993 8         0.000 0
      -154.650 8  20225750.465 8
 113635882.795 5  21235580.859 5      3780.750 5  88383489.914 6         0.000 0
      2940.721 6  21235583.438 6
 18  5 22 15 18 24.0000000  0 14G 7G 8G 9G16G23G27R 1R 2R10R11R12R19
                                R20R21
 122175254.076 6  23249178.094 6      3156.607 6  95201513.35947  23249181.81647
      2459.82647         0.000 0
 116763240.726 5  22219306.613 5      3202.332 5  90984374.20847  22219313.79347
      2495.19747         0.000 0
 113289314.318 6  21558239.961 6      -382.613 6  88277322.11048  21558246.66048
      -297.93048         0.000 0
 109526902.004 6  20842276.098 6     -1960.291 6  85345651.70449  20842279.57449
     -1527.40449         0.000 0
 115880288.864 4  22051286.074 4     -2403.533 4  90296333.76746  22051288.03546
     -1872.79546         0.000 0
 106781274.828 6  20319801.984 6      1041.627 6  83206213.76349  20319807.20749
       811.52349         0.000 0
 120678200.129 5  22647379.277 5     -3295.275 5  93865406.788 6         0.000 0
     -2562.799 6  22647387.586 6
 119024515.010 6  22266761.758 6       450.488 6  92579203.804 6         0.000 0
       350.053 6  22266770.781 6
 107226505.219 8  20115420.980 8     -1701.102 8  83398462.428 7         0.000 0
     -1323.295 7  20115436.590 7
 106722815.804 8  19971718.957 8      1790.854 8  83006668.759 9         0.000 0
      1392.529 9  19971728.984 9
 123989955.973 4  23267920.031 4      3466.822 4         0.000 0         0.000 0
         0.000 0         0.000 0
 124435596.541 4  23261923.625 4     -3820.221 4  96783277.584 7         0.000 0
     -2970.262 7  23261931.215 7
 108156321.363 5  20225776.602 5      -199.758 5  84121633.199 8         0.000 0
      -155.404 8  20225787.484 8
 113632102.928 5  21234873.074 5      3780.066 5  88380550.047 6         0.000 0
      2939.771 6  21234879.375 6
 18  5 22 15 18 25.0000000  0 14G 7G 8G 9G16G23G27R 1R 2R10R11R12R19
                                R20R21
 122172097.471 6  23248577.664 6      3156.328 6  95199053.68147  23248580.89547
      2459.24647         0.000 0
 116760038.732 5  22218696.879 5      3201.328 5  90981879.17247  22218704.04747
      2494.48047         0.000 0
 113289696.984 6  21558312.633 6      -383.711 6  88277620.31248  21558318.97348
      -299.09448         0.000 0
 109528862.431 6  20842648.688 6     -1961.115 6  85347179.28949  20842652.26649
     -1527.94149         0.000 0
 115882692.143 4  22051743.805 4     -2403.947 4  90298206.47146  22051745.05146
     -1873.31446         0.000 0
 106780234.063 6  20319603.500 6      1040.254 6  83205402.77149  20319609.42249
       810.53549         0.000 0
 120681495.207 5  22647994.441 5     -3295.719 5  93867969.650 6         0.000 0
     -2564.287 6  22648005.184 6
 119024064.896 6  22266678.664 6       449.350 6  92578853.709 6         0.000 0
       349.139 6  22266684.965 6
 107228206.501 8  20115741.082 8     -1701.887 8  83399785.646 7         0.000 0
     -1323.721 7  20115759.133 7
 106721025.149 8  19971384.781 8      1789.895 8  83005276.027 9         0.000 0
      1391.844 9  19971393.805 9
 123986489.009 4  23267269.883 4      3466.541 4         0.000 0         0.000 0
         0.000 0         0.000 0
 124439416.646 4  23262635.754 4     -3820.865 4  96786248.803 7         0.000 0
     -2971.627 7  23262645.496 7
 108156521.858 5  20225813.965 5      -201.191 5  84121789.157 8         0.000 0
      -156.922 8  20225825.426 8
 113628323.573 4  21234166.492 4      3779.387 4  88377610.568 6         0.000 0
      2938.184 6  21234174.082 6
 18  5 22 15 18 26.0000000  0 14G 7G 8G 9G16G23G27R 1R 2R10R11R12R19
                                R20R21
 122168940.747 6  23247977.000 6      3156.568 6  95196593.86047  23247979.71947
      2459.63147         0.000 0
 116756836.855 5  22218087.488 5      3201.393 5  90979384.19547  22218095.76247
      2494.51447         0.000 0
 113290080.082 6  21558385.648 6      -383.686 6  88277918.81348  21558392.57448
      -299.00248         0.000 0
 109530822.946 6  20843022.199 6     -1961.363 6  85348706.97449  20843025.11749
     -1528.29949         0.000 0
 115885095.663 5  22052200.738 5     -2403.590 5  90300079.32746  22052201.82446
     -1872.86946         0.000 0
 106779193.699 6  20319405.215 6      1039.986 6  83204592.09449  20319411.33649
       810.35449         0.000 0
 120684790.493 5  22648611.094 5     -3295.941 5  93870532.621 6         0.000 0
     -2563.547 6  22648623.270 6
 119023615.433 6  22266594.625 6       448.676 6  92578504.109 6         0.000 0
       349.352 6  22266603.508 6
 107229907.954 8  20116058.668 8     -1702.012 8  83401108.986 7         0.000 0
     -1323.977 7  20116074.852 7
 106719234.604 8  19971050.086 8      1790.004 8  83003883.357 9         0.000 0
      1392.291 9  19971058.250 9
 123983021.835 4  23266619.504 4      3466.045 4         0.000 0         0.000 0
         0.000 0         0.000 0
 124443236.919 4  23263350.809 4     -3821.400 4  96789220.137 7         0.000 0
     -2972.156 7  23263360.547 7
 108156723.070 5  20225850.672 5      -202.371 5  84121945.635 8         0.000 0
      -157.354 8  20225863.563 8
 113624544.420 4  21233460.969 4      3778.676 4  88374671.195 6         0.000 0
      2938.924 6  21233465.695 6
 18  5 22 15 18 27.0000000  0 14G 7G 8G 9G16G23G27R 1R 2R10R11R12R19
                                R20R21
 122165784.124 6  23247377.082 6      3156.553 6  95194134.16947  23247379.30147
      2459.58247         0.000 0
 116753635.287 5  22217478.840 5      3201.689 5  90976889.46047  22217484.84847
      2494.71947         0.000 0
 113290463.813 6  21558458.262 6      -383.762 6  88278217.83648  21558466.09048
      -298.95348         0.000 0
 109532783.737 6  20843395.016 6     -1960.891 6  85350234.86249  20843398.56649
     -1527.82249         0.000 0
 115887499.650 5  22052658.125 5     -2404.445 5  90301952.57146  22052659.95346
     -1873.60446         0.000 0
 106778153.987 6  20319206.949 6      1039.150 6  83203781.93849  20319212.63349
       809.89549         0.000 0
 120688086.188 5  22649229.059 5     -3295.645 5  93873095.964 6         0.000 0
     -2564.064 6  22649237.223 6
 119023166.814 6  22266509.465 6       447.996 6  92578155.199 6         0.000 0
       348.580 6  22266521.641 6
 107231609.787 8  20116378.711 8     -1701.852 8  83402432.636 7         0.000 0
     -1323.654 7  20116394.180 7
 106717444.379 8  19970713.699 8      1790.164 8  83002490.965 9         0.000 0
      1392.730 9  19970725.301 9
 123979554.580 4  23265972.445 4      3467.611 4         0.000 0         0.000 0
         0.000 0         0.000 0
 124447057.636 4  23264066.457 4     -3822.021 4  96792191.764 7         0.000 0
     -2972.166 7  23264073.762 7
 108156925.164 5  20225889.121 5      -202.699 5  84122102.811 8         0.000 0
      -157.264 8  20225902.586 8
 113620765.743 5  21232754.898 5      3778.426 5  88371732.199 6         0.000 0
      2938.875 6  21232757.766 6
 18  5 22 15 18 28.0000000  0 14G 7G 8G 9G16G23G27R 1R 2R10R11R12R19
                                R20R21
 122162627.778 6  23246776.125 6      3155.156 6  95191674.69647  23246778.65647
      2458.69547         0.000 0
 116750434.242 5  22216869.871 5      3200.000 5  90974395.14747  22216876.10947
      2493.52047         0.000 0
 113290848.369 6  21558532.125 6      -385.334 6  88278517.48848  21558538.76648
      -300.19348         0.000 0
 109534745.021 6  20843768.230 6     -1961.799 6  85351763.12349  20843772.27749
     -1528.61149         0.000 0
 115889904.232 5  22053115.332 5     -2405.588 5  90303826.30446  22053117.21946
     -1874.68646         0.000 0
 106777115.083 6  20319009.941 6      1038.201 6  83202972.39449  20319015.85249
       808.98849         0.000 0
 120691382.491 5  22649843.699 5     -3296.395 5  93875659.719 6         0.000 0
     -2564.031 6  22649854.297 6
 119022719.211 6  22266424.414 6       446.582 6  92577807.046 6         0.000 0
       347.871 6  22266435.016 6
 107233312.191 8  20116697.145 8     -1703.539 8  83403756.698 7         0.000 0
     -1324.695 7  20116714.477 7
 106715654.627 8  19970379.137 8      1789.043 8  83001098.967 9         0.000 0
      1391.514 9  19970388.445 9
 123976087.506 4  23265321.773 4      3466.900 4         0.000 0         0.000 0
         0.000 0         0.000 0
 124450878.867 4  23264778.492 4     -3821.932 4  96795163.876 7         0.000 0
     -2973.129 7  23264787.516 7
 108157128.362 5  20225927.105 5      -204.523 5  84122260.873 8         0.000 0
      -159.125 8  20225939.566 8
 113616987.724 4  21232047.078 4      3777.285 4  88368793.743 6         0.000 0
      2938.264 6  21232054.383 6
 18  5 22 15 18 29.0000000  0 14G 7G 8G 9G16G23G27R 1R 2R10R11R12R19
                                R20R21
 122159471.473 6  23246174.965 6      3155.836 6  95189215.24447  23246178.30147
      2459.07647         0.000 0
 116747233.461 5  22216259.695 5      3200.777 5  90971901.03447  22216267.73847
      2494.09647         0.000 0
 113291233.527 6  21558605.215 6      -385.473 6  88278817.61048  21558612.07048
      -300.24248         0.000 0
 109536706.558 6  20844141.383 6     -1961.900 6  85353291.59849  20844145.48849
     -1528.77749         0.000 0
 115892309.229 5  22053572.625 5     -2405.650 5  90305700.32746  22053575.59846
     -1874.53946         0.000 0
 106776076.770 6  20318812.730 6      1037.672 6  83202163.31549  20318817.85549
       808.66449         0.000 0
 120694679.203 5  22650461.426 5     -3297.330 5  93878223.843 6         0.000 0
     -2564.781 6  22650471.023 6
 119022272.416 6  22266341.883 6       446.250 6  92577459.561 6         0.000 0
       346.750 6  22266351.051 6
 107235014.910 8  20117016.094 8     -1703.305 8  83405081.066 7         0.000 0
     -1325.213 7  20117033.137 7
 106713865.144 8  19970046.379 8      1789.180 8  82999707.125 9         0.000 0
      1391.564 9  19970054.113 9
 123972620.443 4  23264673.902 4      3466.881 4         0.000 0         0.000 0
         0.000 0         0.000 0
 124454700.524 4  23265492.762 4     -3822.088 4  96798136.281 7         0.000 0
     -2972.980 7  23265504.363 7
 108157332.477 5  20225965.320 5      -205.439 5  84122419.628 8         0.000 0
      -159.916 8  20225976.777 8
 113613210.166 5  21231342.633 5      3777.443 5  88365855.628 7         0.000 0
      2938.510 7  21231348.504 7
 18  5 22 15 18 30.0000000  0 14G 7G 8G 9G16G23G27R 1R 2R10R11R12R19
                                R20R21
 122156315.553 6  23245574.359 6      3154.811 6  95186756.06947  23245578.59447
      2458.15047         0.000 0
 116744033.345 5  22215650.648 5      3199.088 5  90969407.42747  22215658.16047
      2492.68247         0.000 0
 113291619.606 6  21558677.859 6      -386.559 6  88279118.44949  21558684.92649
      -301.07049         0.000 0
 109538668.687 6  20844514.945 6     -1962.691 6  85354820.53249  20844518.18049
     -1529.35249         0.000 0
 115894714.939 5  22054030.469 5     -2406.109 5  90307574.88046  22054033.34446
     -1874.76246         0.000 0
 106775039.376 7  20318615.074 7      1036.684 7  83201354.95549  20318620.66849
       807.93449         0.000 0
 120697976.578 5  22651078.133 5     -3297.592 5  93880788.465 7         0.000 0
     -2565.256 7  22651090.594 7
 119021826.720 6  22266258.617 6       444.797 6  92577112.913 6         0.000 0
       345.609 6  22266267.496 6
 107236718.303 8  20117336.598 8     -1703.840 8  83406405.913 7         0.000 0
     -1325.102 7  20117352.066 7
 106712076.311 8  19969710.020 8      1788.215 8  82998315.820 9         0.000 0
      1391.168 9  19969719.188 9
 123969153.603 4  23264025.301 4      3467.342 4         0.000 0         0.000 0
         0.000 0         0.000 0
 124458522.928 5  23266208.727 5     -3823.090 5  96801109.217 7         0.000 0
     -2973.846 7  23266216.891 7
 108157537.768 6  20226002.941 6      -206.541 6  84122579.270 8         0.000 0
      -159.785 8  20226018.125 8
 113609433.363 5  21230635.016 5      3776.752 5  88362918.127 7         0.000 0
      2937.313 7  21230641.461 7
 18  5 22 15 18 31.0000000  0 14G 7G 8G 9G16G23G27R 1R 2R10R11R12R19
                                R20R21
 122153159.583 6  23244973.887 6      3155.869 6  95184296.86547  23244976.97747
      2459.30947         0.000 0
 116740833.382 5  22215042.160 5      3200.166 5  90966913.97247  22215049.04347
      2493.54747         0.000 0
 113292006.211 6  21558752.207 6      -386.533 6  88279419.71149  21558759.47749
      -301.16249         0.000 0
 109540630.971 6  20844888.645 6     -1962.551 6  85356349.58149  20844892.72349
     -1529.42449         0.000 0
 115897120.983 5  22054488.875 5     -2406.301 5  90309449.71946  22054490.25046
     -1875.16646         0.000 0
 106774002.500 7  20318418.121 7      1036.846 7  83200547.01349  20318423.51649
       807.88149         0.000 0
 120701274.269 5  22651694.547 5     -3298.113 5  93883353.340 7         0.000 0
     -2565.230 7  22651706.004 7
 119021381.741 6  22266175.195 6       444.451 6  92576766.813 6         0.000 0
       345.383 6  22266183.504 6
 107238421.958 8  20117656.230 8     -1704.088 8  83407730.965 7         0.000 0
     -1324.979 7  20117673.277 7
 106710287.700 8  19969375.086 8      1788.379 8  82996924.690 9         0.000 0
      1390.688 9  19969384.395 9
 123965686.662 4  23263378.980 4      3467.152 4         0.000 0         0.000 0
         0.000 0         0.000 0
 124462345.501 5  23266922.824 5     -3822.752 5  96804082.356 7         0.000 0
     -2973.389 7  23266930.129 7
 108157743.861 6  20226044.418 6      -207.141 6  84122739.580 9         0.000 0
      -160.344 9  20226053.441 9
 113605656.900 5  21229929.539 5      3776.250 5  88359980.856 7         0.000 0
      2937.338 7  21229936.273 7
 18  5 22 15 18 32.0000000  0 15G 7G 8G 9G16G23G26G27R 1R 2R10R11R12
                                R19R20R21
 122150003.904 6  23244373.711 6      3155.721 6  95181837.88047  23244375.68847
      2459.11347         0.000 0
 116737634.001 5  22214432.688 5      3199.432 5  90964420.94647  22214440.01247
      2493.07847         0.000 0
 113292393.639 6  21558825.707 6      -387.582 6  88279721.60949  21558831.74649
      -302.10049         0.000 0
 109542593.775 6  20845262.066 6     -1963.285 6  85357879.04949  20845265.97349
     -1530.10749         0.000 0
 115899527.670 5  22054946.578 5     -2406.879 5  90311325.04846  22054948.34046
     -1875.40046         0.000 0
 120267963.469 2  22886232.230 2     -2884.400 2         0.000 0         0.000 0
         0.000 0         0.000 0
 106772966.488 7  20318220.605 7      1035.348 7  83199739.73249  20318226.28549
       806.67249         0.000 0
 120704572.564 5  22652312.688 5     -3298.828 5  93885918.657 7         0.000 0
     -2565.932 7  22652323.000 7
 119020937.819 6  22266092.648 6       443.521 6  92576421.516 6         0.000 0
       344.680 6  22266101.242 6
 107240126.192 8  20117976.879 8     -1704.844 8  83409056.485 7         0.000 0
     -1325.738 7  20117992.781 7
 106708499.611 8  19969041.453 8      1787.467 8  82995533.950 9         0.000 0
      1390.551 9  19969049.758 9
 123962219.928 4  23262729.660 4      3466.750 4         0.000 0         0.000 0
         0.000 0         0.000 0
 124466168.686 5  23267639.938 5     -3823.371 5  96807055.940 7         0.000 0
     -2974.033 7  23267646.813 7
 108157951.078 6  20226084.477 6      -208.871 6  84122900.737 8         0.000 0
      -161.670 8  20226092.641 8
 113601881.097 5  21229226.512 5      3775.475 5  88357044.126 7         0.000 0
      2936.695 7  21229229.949 7
 18  5 22 15 18 33.0000000  0 15G 7G 8G 9G16G23G26G27R 1R 2R10R11R12
                                R19R20R21
 122146848.518 6  23243772.645 6      3154.205 6  95179379.13547  23243775.85247
      2457.80947         0.000 0
 116734435.091 6  22213825.324 6      3198.424 6  90961928.28848  22213832.27748
      2492.37948         0.000 0
 113292781.879 6  21558899.465 6      -388.707 6  88280024.10249  21558905.78949
      -302.75849         0.000 0
 109544557.005 6  20845635.313 6     -1964.039 6  85359408.83249  20845639.20749
     -1530.59249         0.000 0
 115901934.836 2  22055403.680 2     -2408.453 2  90313200.80746  22055406.15246
     -1876.82246         0.000 0
 120270848.131 2  22886782.914 2     -2885.367 2         0.000 0         0.000 0
         0.000 0         0.000 0
 106771931.225 6  20318023.918 6      1034.418 6  83198933.05049  20318029.27049
       806.09049         0.000 0
 120707871.395 5  22652929.363 5     -3299.697 5  93888484.421 6         0.000 0
     -2565.693 6  22652938.961 6
 119020494.908 6  22266008.922 6       442.223 6  92576077.025 6         0.000 0
       343.670 6  22266015.938 6
 107241830.943 8  20118296.207 8     -1705.381 8  83410382.423 7         0.000 0
     -1326.592 7  20118314.254 7
 106706711.982 8  19968706.066 8      1786.734 8  82994143.551 9         0.000 0
      1389.971 9  19968714.516 9
 123958753.344 4  23262082.172 4      3465.803 4         0.000 0         0.000 0
         0.000 0         0.000 0
 124469992.407 4  23268351.293 4     -3824.689 4  96810029.919 7         0.000 0
     -2974.594 7  23268360.746 7
 108158159.371 5  20226119.203 5      -209.584 5  84123062.759 8         0.000 0
      -162.662 8  20226133.383 8
 113598105.873 2  21228520.156 2      3775.506 2  88354107.930 7         0.000 0
      2935.490 7  21228523.449 7
 18  5 22 15 18 34.0000000  0 15G 7G 8G 9G16G23G26G27R 1R 2R10R11R12
                                R19R20R21
 122143693.048 6  23243171.703 6      3155.139 6  95176920.33147  23243175.38347
      2458.65247         0.000 0
 116731236.321 6  22213215.941 6      3198.029 6  90959435.74548  22213222.95348
      2491.85548         0.000 0
 113293170.641 6  21558974.203 6      -389.373 6  88280327.01649  21558980.14149
      -303.26249         0.000 0
 109546520.436 6  20846008.828 6     -1963.984 6  85360938.77049  20846012.56349
     -1530.44949         0.000 0
 115904342.441 5  22055862.191 5     -2408.223 5  90315076.85345  22055865.45345
     -1876.64345         0.000 0
 120273732.769 3  22887331.141 3     -2884.902 3         0.000 0         0.000 0
         0.000 0         0.000 0
 106770896.506 7  20317826.496 7      1033.947 7  83198126.76649  20317831.91849
       805.78149         0.000 0
 120711170.599 5  22653546.883 5     -3299.035 5  93891050.477 6         0.000 0
     -2566.859 6  22653556.621 6
 119020052.715 6  22265924.887 6       441.791 6  92575733.120 6         0.000 0
       343.031 6  22265932.480 6
 107243535.986 8  20118615.945 8     -1706.008 8  83411708.539 7         0.000 0
     -1326.646 7  20118632.273 7
 106704924.559 8  19968372.523 8      1786.771 8  82992753.347 9         0.000 0
      1389.994 9  19968378.969 9
 123955286.601 4  23261430.227 4      3466.270 4         0.000 0         0.000 0
         0.000 0         0.000 0
 124473816.389 4  23269067.211 4     -3824.887 4  96813004.136 7         0.000 0
     -2974.373 7  23269077.809 7
 108158368.448 5  20226160.785 5      -210.406 5  84123225.367 8         0.000 0
      -163.262 8  20226172.527 8
 113594331.137 2  21227815.070 2      3775.133 2  88351171.957 7         0.000 0
      2935.963 7  21227820.656 7
 18  5 22 15 18 35.0000000  0 15G 7G 8G 9G16G23G26G27R 1R 2R10R11R12
                                R19R20R21
 122140538.197 6  23242572.453 6      3154.543 6  95174461.99847  23242576.05947
      2458.14847         0.000 0
 116728038.413 6  22212608.102 6      3197.785 6  90956943.88349  22212614.95749
      2491.70349         0.000 0
 113293560.543 6  21559047.625 6      -390.283 6  88280630.85549  21559054.70749
      -303.88549         0.000 0
 109548484.658 6  20846382.602 6     -1964.758 6  85362469.34449  20846386.42249
     -1531.17049         0.000 0
 115906750.950 4  22056320.672 4     -2408.879 4  90316953.62645  22056324.79345
     -1877.04945         0.000 0
 120276617.995 3  22887880.488 3     -2886.359 3         0.000 0         0.000 0
         0.000 0         0.000 0
 106769862.901 7  20317630.762 7      1033.096 7  83197321.37449  20317635.41049
       804.94549         0.000 0
 120714470.626 6  22654165.090 6     -3300.213 6  93893617.137 6         0.000 0
     -2566.883 6  22654172.109 6
 119019611.858 7  22265841.547 7       440.178 7  92575390.232 6         0.000 0
       341.982 6  22265852.289 6
 107245241.876 8  20118936.234 8     -1706.178 8  83413035.377 7         0.000 0
     -1327.771 7  20118951.559 7
 106703137.959 8  19968038.098 8      1786.131 8  82991363.762 9         0.000 0
      1389.479 9  19968045.258 9
 123951820.354 4  23260779.258 4      3466.475 4         0.000 0         0.000 0
         0.000 0         0.000 0
 124477641.254 4  23269783.105 4     -3825.352 4  96815979.046 7         0.000 0
     -2975.186 7  23269790.266 7
 108158578.957 5  20226197.328 5      -211.568 5  84123389.104 8         0.000 0
      -163.922 8  20226209.648 8
 113590557.306 4  21227109.957 4      3773.002 4  88348236.748 7         0.000 0
      2935.414 7  21227116.836 7
 18  5 22 15 18 36.0000000  0 15G 7G 8G 9G16G23G26G27R 1R 2R10R11R12
                                R19R20R21
 122137383.312 6  23241972.109 6      3155.150 6  95172003.63247  23241975.28547
      2458.53147         0.000 0
 116724840.677 6  22212000.031 6      3197.631 6  90954452.16349  22212005.71149
      2491.65649         0.000 0
 113293950.937 6  21559121.676 6      -390.945 6  88280935.06249  21559129.18849
      -304.71349         0.000 0
 109550449.048 6  20846756.570 6     -1964.639 6  85364000.03949  20846760.14849
     -1530.84849         0.000 0
 115909159.823 2  22056778.492 2     -2409.131 2  90318830.67745  22056782.80145
     -1877.29345         0.000 0
 120279503.157 4  22888428.457 4     -2885.146 4  93724315.26144  22888434.92644
     -2248.21144         0.000 0
 106768829.822 7  20317432.938 7      1032.766 7  83196516.35349  20317438.74649
       804.70149         0.000 0
 120717771.027 6  22654781.203 6     -3300.832 6  93896184.111 6         0.000 0
     -2567.143 6  22654791.371 6
 119019171.688 7  22265760.406 7       439.773 7  92575047.864 6         0.000 0
       341.643 6  22265771.148 6
 107246948.038 8  20119254.281 8     -1706.309 8  83414362.379 7         0.000 0
     -1327.076 7  20119272.184 7
 106701351.573 8  19967703.863 8      1786.410 8  82989974.338 9         0.000 0
      1389.375 9  19967711.168 9
 123948354.006 5  23260130.203 5      3466.676 5         0.000 0         0.000 0
         0.000 0         0.000 0
 124481466.425 5  23270498.906 5     -3825.445 5  96818954.167 7         0.000 0
     -2975.154 7  23270506.496 7
 108158790.250 6  20226237.074 6      -212.324 6  84123553.437 8         0.000 0
      -164.555 8  20226251.828 8
 113586783.769 4  21226404.184 4      3773.359 4  88345301.806 7         0.000 0
      2934.957 7  21226410.629 7
 18  5 22 15 18 37.0000000  0 14G 7G 8G 9G16G26G27R 1R 2R10R11R12R19
                                R20R21
 122134228.428 6  23241371.848 6      3154.770 6  95169545.31347  23241374.70747
      2458.40847         0.000 0
 116721643.238 6  22211390.469 6      3196.742 6  90951960.63749  22211396.49249
      2490.94749         0.000 0
 113294341.882 6  21559197.094 6      -391.855 6  88281239.69649  21559203.85949
      -305.36349         0.000 0
 109552413.660 6  20847131.621 6     -1965.293 6  85365530.90449  20847134.31349
     -1531.42049         0.000 0
 120282388.409 3  22888979.371 3     -2885.549 3  93726563.56744  22888985.52344
     -2248.47144         0.000 0
 106767797.327 7  20317237.051 7      1031.779 7  83195711.82149  20317242.47749
       803.81649         0.000 0
 120721071.704 5  22655398.828 5     -3300.391 5  93898751.328 6         0.000 0
     -2567.908 6  22655409.281 6
 119018732.306 7  22265677.055 7       438.516 7  92574706.116 6         0.000 0
       341.346 6  22265688.227 6
 107248654.527 8  20119576.418 8     -1707.000 8  83415689.632 7         0.000 0
     -1327.881 7  20119592.172 7
 106699565.403 8  19967370.859 8      1785.484 8  82988585.089 9         0.000 0
      1389.078 9  19967377.879 9
 123944887.524 3  23259481.941 3      3466.805 3         0.000 0         0.000 0
         0.000 0         0.000 0
 124485291.848 5  23271215.215 5     -3826.037 5  96821929.551 7         0.000 0
     -2975.898 7  23271218.797 7
 108159002.365 5  20226279.625 5      -212.840 5  84123718.435 8         0.000 0
      -165.340 8  20226288.074 8
 113583010.734 3  21225696.910 3      3772.377 3  88342367.147 7         0.000 0
      2935.209 7  21225705.793 7
 18  5 22 15 18 38.0000000  0 14G 7G 8G 9G16G26G27R 1R 2R10R11R12R19
                                R20R21
 122131073.515 6  23240770.555 6      3154.689 6  95167086.92247  23240774.14847
      2458.37347         0.000 0
 116718446.006 6  22210782.453 6      3196.252 6  90949469.29349  22210788.62149
      2490.69749         0.000 0
 113294733.348 6  21559271.766 6      -392.266 6  88281544.74949  21559277.59049
      -305.65249         0.000 0
 109554378.447 6  20847503.645 6     -1965.822 6  85367061.90549  20847507.92249
     -1531.98249         0.000 0
 120285273.613 3  22889529.254 3     -2886.096 3  93728811.73444  22889534.99244
     -2248.79944         0.000 0
 106766765.305 7  20317039.566 7      1031.719 7  83194907.64749  20317046.04749
       803.76249         0.000 0
 120724372.742 3  22656016.281 3     -3301.658 3  93901318.752 6         0.000 0
     -2567.980 6  22656026.879 6
 119018293.607 7  22265595.250 7       437.617 7  92574364.959 6         0.000 0
       340.063 6  22265603.699 6
 107250361.219 8  20119894.230 8     -1707.195 8  83417017.068 7         0.000 0
     -1328.578 7  20119909.840 7
 106697779.443 8  19967036.250 8      1785.740 8  82987196.028 9         0.000 0
      1388.361 9  19967043.270 9
 123941420.972 3  23258833.941 3      3465.986 3         0.000 0         0.000 0
         0.000 0         0.000 0
 124489117.611 4  23271929.926 4     -3826.328 4  96824905.096 7         0.000 0
     -2975.932 7  23271934.652 7
 108159215.232 5  20226316.559 5      -213.482 5  84123884.007 8         0.000 0
      -166.350 8  20226330.453 8
 113579237.991 3  21224990.617 3      3773.432 3  88339432.810 7         0.000 0
      2933.730 7  21225001.645 7
 18  5 22 15 18 39.0000000  0 14G 7G 8G 9G16G26G27R 1R 2R10R11R12R19
                                R20R21
 122127918.826 6  23240170.695 6      3154.293 6  95164628.73147  23240173.75847
      2457.88347         0.000 0
 116715249.268 5  22210174.148 5      3196.227 5  90946978.30649  22210181.46149
      2490.55949         0.000 0
 113295125.571 6  21559345.441 6      -393.150 6  88281850.35749  21559352.42249
      -306.39649         0.000 0
 109556343.626 6  20847878.383 6     -1965.789 6  85368593.21749  20847882.57449
     -1532.02349         0.000 0
 120288159.069 4  22890076.418 4     -2886.180 4  93731060.14144  22890084.18844
     -2249.09444         0.000 0
 106765734.036 7  20316844.371 7      1030.680 7  83194104.07349  20316850.16449
       802.99849         0.000 0
 120727674.229 2  22656632.445 2     -3302.150 2  93903886.698 4         0.000 0
     -2568.373 4  22656643.047 4
 119017855.907 7  22265513.160 7       436.756 7  92574024.467 6         0.000 0
       340.004 6  22265520.895 6
 107252068.466 8  20120217.629 8     -1707.902 8  83418344.896 7         0.000 0
     -1328.092 7  20120231.809 7
 106695993.952 8  19966699.637 8      1784.916 8  82985807.341 9         0.000 0
      1388.281 9  19966709.090 9
 123937954.443 4  23258185.797 4      3466.041 4         0.000 0         0.000 0
         0.000 0         0.000 0
 124492943.859 5  23272643.918 5     -3826.488 5  96827881.074 7         0.000 0
     -2976.227 7  23272651.938 7
 108159429.213 6  20226359.508 6      -214.639 6  84124050.409 8         0.000 0
      -166.564 8  20226369.535 8
 113575465.785 2  21224288.902 2      3771.650 2  88336498.922 7         0.000 0
      2933.240 7  21224294.348 7
 18  5 22 15 18 40.0000000  0 14G 7G 8G 9G16G26G27R 1R 2R10R11R12R19
                                R20R21
 122124764.527 6  23239571.027 6      3154.885 6  95162170.82347  23239573.28947
      2458.26447         0.000 0
 116712053.057 6  22209566.039 6      3196.779 6  90944487.74749  22209572.30549
      2490.97949         0.000 0
 113295518.775 6  21559419.594 6      -393.186 6  88282156.76549  21559426.68849
      -306.52349         0.000 0
 109558309.438 6  20848253.027 6     -1965.705 6  85370125.01049  20848255.77349
     -1531.72149         0.000 0
 120291044.924 3  22890626.352 3     -2885.512 3  93733308.85444  22890632.60244
     -2248.49844         0.000 0
 106764703.767 7  20316647.934 7      1030.332 7  83193301.24749  20316653.97349
       802.91049         0.000 0
 120730976.563 4  22657251.238 4     -3301.385 4  93906455.072 5         0.000 0
     -2568.188 5  22657261.406 5
 119017419.326 6  22265432.406 6       436.465 6  92573684.911 6         0.000 0
       339.816 6  22265439.566 6
 107253776.389 8  20120538.066 8     -1707.527 8  83419673.316 7         0.000 0
     -1328.629 7  20120553.535 7
 106694209.100 8  19966365.938 8      1784.664 8  82984419.111 9         0.000 0
      1388.271 9  19966375.820 9
 123934488.286 5  23257536.273 5      3467.098 5         0.000 0         0.000 0
         0.000 0         0.000 0
 124496770.810 5  23273360.105 5     -3826.154 5  96830857.598 7         0.000 0
     -2976.314 7  23273368.129 7
 108159644.424 5  20226396.063 5      -215.066 5  84124217.800 8         0.000 0
      -167.396 8  20226411.102 8
 113571694.419 3  21223585.379 3      3772.260 3  88333565.615 6         0.000 0
      2933.660 6  21223589.961 6
 18  5 22 15 18 41.0000000  0 14G 7G 8G 9G16G26G27R 1R 2R10R11R12R19
                                R20R21
 122121610.171 6  23238970.762 6      3154.389 6  95159712.93147  23238973.93847
      2457.76247         0.000 0
 116708857.078 6  22208957.617 6      3195.990 6  90941997.39049  22208964.16849
      2490.55549         0.000 0
 113295912.448 6  21559495.004 6      -393.777 6  88282463.51449  21559502.07449
      -306.90849         0.000 0
 109560275.360 6  20848627.215 6     -1965.283 6  85371656.90249  20848630.82049
     -1531.22749         0.000 0
 120293930.729 3  22891175.684 3     -2885.947 3  93735557.53044  22891181.91044
     -2248.68844         0.000 0
 106763673.941 7  20316451.043 7      1030.150 7  83192498.78149  20316457.49649
       802.60449         0.000 0
 120734279.114 4  22657870.863 4     -3302.582 4  93909023.710 5         0.000 0
     -2568.631 5  22657879.602 5
 119016983.388 6  22265349.191 6       435.873 6  92573345.837 6         0.000 0
       339.354 6  22265359.504 6
 107255484.565 8  20120858.051 8     -1708.354 8  83421001.870 7         0.000 0
     -1328.564 7  20120872.090 7
 106692424.360 8  19966032.781 8      1785.010 8  82983031.007 9         0.000 0
      1387.945 9  19966040.375 9
 123931021.961 5  23256885.859 5      3466.193 5         0.000 0         0.000 0
         0.000 0         0.000 0
 124500598.030 5  23274075.840 5     -3827.605 5  96833834.297 7         0.000 0
     -2976.777 7  23274082.141 7
 108159860.396 5  20226438.320 5      -216.537 5  84124385.767 8         0.000 0
      -167.896 8  20226450.352 8
 113567923.329 3  21222882.543 3      3770.594 3  88330632.584 7         0.000 0
      2932.807 7  21222885.980 7
 18  5 22 15 18 42.0000000  0 14G 7G 8G 9G16G26G27R 1R 2R10R11R12R19
                                R20R21
 122118455.887 6  23238370.320 6      3154.414 6  95157255.02247  23238373.84447
      2457.82247         0.000 0
 116705661.376 6  22208349.449 6      3195.195 6  90939507.23349  22208356.60549
      2489.81449         0.000 0
 113296306.724 6  21559570.535 6      -394.572 6  88282770.73549  21559577.23049
      -307.47349         0.000 0
 109562241.566 6  20849002.809 6     -1966.156 6  85373188.99849  20849004.35249
     -1531.90649         0.000 0
 120296816.596 3  22891724.273 3     -2885.863 3  93737806.31444  22891731.43044
     -2248.60744         0.000 0
 106762644.735 6  20316255.984 6      1028.924 6  83191696.81349  20316261.79349
       801.68849         0.000 0
 120737582.036 5  22658488.457 5     -3302.791 5  93911592.663 5         0.000 0
     -2569.447 5  22658497.051 5
 119016548.281 6  22265269.961 6       434.748 6  92573007.421 6         0.000 0
       338.205 6  22265276.551 6
 107257193.069 8  20121178.293 8     -1708.738 8  83422330.717 7         0.000 0
     -1328.541 7  20121193.477 7
 106690639.958 8  19965699.457 8      1784.041 8  82981643.130 9         0.000 0
      1387.598 9  19965708.051 9
 123927555.591 5  23256237.711 5      3466.533 5         0.000 0         0.000 0
         0.000 0         0.000 0
 124504425.549 5  23274792.406 5     -3827.090 5  96836811.286 7         0.000 0
     -2977.496 7  23274795.270 7
 108160077.274 5  20226479.977 5      -217.896 5  84124554.447 8         0.000 0
      -169.184 8  20226490.719 8
 113564152.724 3  21222176.098 3      3770.563 3  88327699.903 7         0.000 0
      2932.264 7  21222182.832 7
 18  5 22 15 18 43.0000000  0 14G 7G 8G 9G16G26G27R 1R 2R10R11R12R19
                                R20R21
 122115301.915 6  23237769.996 6      3153.430 6  95154797.35447  23237772.74247
      2457.17647         0.000 0
 116702466.221 6  22207741.113 6      3194.348 6  90937017.52049  22207748.60949
      2489.10949         0.000 0
 113296701.851 6  21559645.746 6      -395.947 6  88283078.63149  21559652.44149
      -308.52949         0.000 0
 109564208.301 6  20849375.508 6     -1967.570 6  85374721.53149  20849378.49649
     -1533.29549         0.000 0
 120299702.844 3  22892272.832 3     -2887.453 3  93740055.31544  22892280.52044
     -2249.95744         0.000 0
 106761616.352 6  20316059.895 6      1027.666 6  83190895.48049  20316066.21949
       800.80949         0.000 0
 120740885.600 5  22659106.590 5     -3304.965 5  93914162.091 5         0.000 0
     -2570.111 5  22659112.750 5
 119016114.281 6  22265186.543 6       433.121 6  92572669.877 6         0.000 0
       336.525 6  22265194.852 6
 107258902.187 8  20121499.078 8     -1709.838 8  83423660.018 7         0.000 0
     -1329.715 7  20121511.969 7
 106688856.126 8  19965364.668 8      1783.156 8  82980255.705 9         0.000 0
      1386.738 9  19965372.832 9
 123924089.429 5  23255588.387 5      3465.512 5         0.000 0         0.000 0
         0.000 0         0.000 0
 124508253.704 4  23275505.504 4     -3829.049 4  96839788.708 7         0.000 0
     -2977.438 7  23275514.813 7
 108160295.262 5  20226523.750 5      -219.445 5  84124724.009 8         0.000 0
      -170.395 8  20226530.484 8
 113560382.856 3  21221468.621 3      3768.896 3  88324767.763 7         0.000 0
      2931.170 7  21221476.785 7
 18  5 22 15 18 44.0000000  0 15G 7G 8G 9G16G23G26G27R 1R 2R10R11R12
                                R19R20R21
 122112147.936 6  23237169.629 6      3152.904 6  95152339.73647  23237172.75047
      2456.94747         0.000 0
 116699271.245 6  22207133.590 6      3194.330 6  90934527.90949  22207140.10249
      2489.03749         0.000 0
 113297097.492 6  21559721.344 6      -396.609 6  88283386.93049  21559727.57049
      -308.99249         0.000 0
 109566175.172 6  20849750.023 6     -1967.275 6  85376254.14949  20849752.94549
     -1532.85949         0.000 0
 115928442.780 3  22060448.059 3     -2413.174 3         0.000 0         0.000 0
         0.000 0         0.000 0
 120302588.980 3  22892822.066 3     -2886.670 3  93742304.24844  22892829.27744
     -2249.17044         0.000 0
 106760588.516 6  20315863.762 6      1026.789 6  83190094.56449  20315870.48849
       800.20949         0.000 0
 120744189.457 4  22659722.961 4     -3305.193 4  93916731.756 5         0.000 0
     -2569.986 5  22659730.410 5
 119015681.030 6  22265106.383 6       432.793 6  92572332.872 6         0.000 0
       337.002 6  22265114.117 6
 107260611.539 8  20121819.680 8     -1709.854 8  83424989.527 7         0.000 0
     -1329.902 7  20121831.711 7
 106687072.463 8  19965031.273 8      1783.141 8  82978868.411 9         0.000 0
      1387.156 9  19965038.148 9
 123920623.129 5  23254940.449 5      3466.063 5         0.000 0         0.000 0
         0.000 0         0.000 0
 124512082.096 4  23276220.133 4     -3829.570 4  96842766.359 7         0.000 0
     -2978.133 7  23276228.582 7
 108160514.031 5  20226566.051 5      -219.322 5  84124894.149 8         0.000 0
      -170.445 8  20226573.355 8
 113556613.270 3  21220768.980 3      3768.979 3  88321835.873 7         0.000 0
      2931.627 7  21220771.988 7
 18  5 22 15 18 45.0000000  0 15G 7G 8G 9G16G23G26G27R 1R 2R10R11R12
                                R19R20R21
 122108993.995 6  23236569.793 6      3153.789 6  95149882.10647  23236572.66847
      2457.60247         0.000 0
 116696076.645 6  22206524.738 6      3194.336 6  90932038.63749  22206532.87949
      2489.20349         0.000 0
 113297493.801 6  21559796.473 6      -396.777 6  88283695.73749  21559802.55549
      -309.17649         0.000 0
 109568142.386 6  20850123.641 6     -1967.521 6  85377787.05349  20850127.24649
     -1533.21949         0.000 0
 115930855.783 3  22060907.961 3     -2413.518 3         0.000 0         0.000 0
         0.000 0         0.000 0
 120305475.310 3  22893371.258 3     -2886.096 3  93744553.32644  22893378.09844
     -2248.86544         0.000 0
 106759561.305 6  20315669.160 6      1026.875 6  83189294.13349  20315674.69949
       800.25849         0.000 0
 120747493.743 5  22660341.438 5     -3304.492 5  93919301.777 5         0.000 0
     -2570.205 5  22660349.746 5
 119015248.661 6  22265026.313 6       432.037 6  92571996.614 6         0.000 0
       335.777 6  22265032.473 6
 107262321.317 8  20122140.375 8     -1710.080 8  83426319.335 7         0.000 0
     -1329.779 7  20122157.563 7
 106685289.159 8  19964695.105 8      1782.488 8  82977481.377 9         0.000 0
      1386.904 9  19964705.418 9
 123917156.843 5  23254290.035 5      3466.145 5         0.000 0         0.000 0
         0.000 0         0.000 0
 124515910.916 4  23276935.289 4     -3828.682 4  96845744.311 7         0.000 0
     -2978.109 7  23276945.887 7
 108160733.746 6  20226602.289 6      -219.965 6  84125065.072 8         0.000 0
      -171.334 8  20226614.605 8
 113552844.188 4  21220063.277 4      3769.209 4  88318904.358 7         0.000 0
      2931.252 7  21220067.145 7
 18  5 22 15 18 46.0000000  0 15G 7G 8G 9G16G23G26G27R 1R 2R10R11R12
                                R19R20R21
 122105840.349 6  23235969.406 6      3152.742 6  95147424.73947  23235972.75447
      2456.83847         0.000 0
 116692882.552 6  22205916.770 6      3193.074 6  90929549.73549  22205923.60949
      2488.02949         0.000 0
 113297890.896 6  21559872.195 6      -397.785 6  88284005.15449  21559878.53549
      -309.92049         0.000 0
 109570110.059 6  20850497.855 6     -1968.920 6  85379320.30249  20850501.80549
     -1534.29749         0.000 0
 115933269.322 3  22061368.172 3     -2413.979 3         0.000 0         0.000 0
         0.000 0         0.000 0
 120308361.866 3  22893920.758 3     -2886.674 3  93746802.61944  22893927.22744
     -2249.41444         0.000 0
 106758534.921 6  20315475.012 6      1025.125 6  83188494.35649  20315479.59449
       798.69349         0.000 0
 120750798.626 5  22660961.805 5     -3305.557 5  93921872.230 5         0.000 0
     -2570.422 5  22660968.535 5
 119014817.293 6  22264944.270 6       430.463 6  92571661.092 6         0.000 0
       334.760 6  22264950.859 6
 107264031.642 8  20122460.668 8     -1711.693 8  83427649.570 7         0.000 0
     -1330.367 7  20122476.566 7
 106683506.317 8  19964364.555 8      1782.340 8  82976094.739 9         0.000 0
      1386.395 9  19964371.715 9
 123913690.722 5  23253641.078 5      3465.510 5         0.000 0         0.000 0
         0.000 0         0.000 0
 124519740.281 4  23277658.637 4     -3830.371 4  96848722.725 7         0.000 0
     -2979.381 7  23277663.078 7
 108160954.560 5  20226643.281 5      -221.654 5  84125236.794 8         0.000 0
      -172.586 8  20226654.594 8
 113549075.778 3  21219354.305 3      3767.498 3  88315973.339 7         0.000 0
      2930.254 7  21219362.469 7
 18  5 22 15 18 47.0000000  0 15G 7G 8G 9G16G23G26G27R 1R 2R10R11R12
                                R19R20R21
 122102686.730 6  23235369.844 6      3152.932 6  95144967.36247  23235372.12147
      2456.73047         0.000 0
 116689688.709 6  22205309.625 6      3193.107 6  90927061.02848  22205316.21948
      2488.05948         0.000 0
 113298288.571 6  21559947.168 6      -398.164 6  88284315.04249  21559953.89549
      -310.24449         0.000 0
 109572077.938 6  20850872.465 6     -1968.926 6  85380853.70749  20850876.50049
     -1534.09249         0.000 0
 115935683.262 3  22061827.918 3     -2414.453 3         0.000 0         0.000 0
         0.000 0         0.000 0
 120311248.537 2  22894470.227 2     -2886.816 2  93749051.97044  22894477.32444
     -2249.46344         0.000 0
 106757509.086 6  20315280.117 6      1025.354 6  83187695.00149  20315284.89549
       798.74049         0.000 0
 120754103.851 5  22661578.984 5     -3306.109 5  93924442.988 5         0.000 0
     -2571.994 5  22661588.293 5
 119014386.670 6  22264862.480 6       429.443 6  92571326.142 6         0.000 0
       334.418 6  22264872.793 6
 107265742.241 8  20122780.930 8     -1711.326 8  83428980.077 7         0.000 0
     -1330.748 7  20122795.254 7
 106681723.742 8  19964029.527 8      1782.180 8  82974708.306 9         0.000 0
      1386.111 9  19964037.121 9
 123910224.494 5  23252992.520 5      3465.545 5         0.000 0         0.000 0
         0.000 0         0.000 0
 124523570.009 4  23278373.789 4     -3830.219 4  96851701.366 7         0.000 0
     -2978.746 7  23278378.516 7
 108161176.210 5  20226684.813 5      -221.814 5  84125409.192 8         0.000 0
      -172.791 8  20226695.410 8
 113545307.713 3  21218653.895 3      3767.904 3  88313042.638 6         0.000 0
      2931.064 6  21218656.473 6
 18  5 22 15 18 48.0000000  0 15G 7G 8G 9G16G23G26G27R 1R 2R10R11R12
                                R19R20R21
 122099533.268 6  23234769.676 6      3153.189 6  95142510.10747  23234772.21147
      2457.10447         0.000 0
 116686495.286 6  22204702.445 6      3192.701 6  90924572.62548  22204708.92648
      2487.88548         0.000 0
 113298686.959 6  21560023.395 6      -398.920 6  88284625.48749  21560029.13349
      -311.00249         0.000 0
 109574046.188 6  20851247.469 6     -1968.727 6  85382387.41849  20851250.85949
     -1534.18649         0.000 0
 115938097.728 2  22062286.918 2     -2414.996 2  90341384.81043  22062288.80543
     -1881.76643         0.000 0
 120314135.338 3  22895019.801 3     -2887.672 3  93751301.40344  22895025.43844
     -2250.06644         0.000 0
 106756483.979 6  20315083.754 6      1024.400 6  83186896.20849  20315089.16049
       798.10049         0.000 0
 120757409.572 5  22662196.559 5     -3306.492 5  93927014.069 5         0.000 0
     -2571.324 5  22662206.727 5
 119013956.897 6  22264781.797 6       429.254 6  92570991.915 6         0.000 0
       333.330 6  22264792.109 6
 107267453.325 8  20123103.875 8     -1711.143 8  83430310.905 7         0.000 0
     -1330.449 7  20123114.617 7
 106679941.608 8  19963695.473 8      1781.641 8  82973322.170 9         0.000 0
      1386.078 9  19963705.355 9
 123906758.348 5  23252346.645 5      3466.156 5         0.000 0         0.000 0
         0.000 0         0.000 0
 124527400.173 4  23279083.750 4     -3830.777 4  96854680.394 7         0.000 0
     -2979.209 7  23279093.773 7
 108161398.925 5  20226728.742 5      -223.682 5  84125582.396 8         0.000 0
      -173.273 8  20226736.621 8
 113541540.264 4  21217950.301 4      3766.779 4  88310112.378 7         0.000 0
      2929.977 7  21217955.742 7
 18  5 22 15 18 49.0000000  0 15G 7G 8G 9G16G23G26G27R 1R 2R10R11R12
                                R19R20R21
 122096379.884 6  23234169.488 6      3152.293 6  95140052.93147  23234172.52047
      2456.23847         0.000 0
 116683302.158 6  22204094.672 6      3191.941 6  90922084.47749  22204101.35249
      2487.23449         0.000 0
 113299085.967 6  21560099.461 6      -399.760 6  88284936.40549  21560105.64149
      -311.59449         0.000 0
 109576014.739 6  20851621.590 6     -1969.781 6  85383921.35249  20851624.96949
     -1534.89649         0.000 0
 115940512.603 3  22062746.609 3     -2415.836 3  90343266.51243  22062748.85543
     -1882.57243         0.000 0
 120317022.206 4  22895569.641 4     -2887.574 4  93753550.88444  22895575.00844
     -2250.05344         0.000 0
 106755459.478 6  20314888.801 6      1023.736 6  83186097.90249  20314895.01249
       797.66449         0.000 0
 120760715.664 5  22662815.258 5     -3307.252 5  93929585.486 5         0.000 0
     -2572.090 5  22662825.000 5
 119013527.942 6  22264702.242 6       428.025 6  92570658.258 6         0.000 0
       333.131 6  22264711.695 6
 107269164.788 8  20123422.648 8     -1712.195 8  83431642.049 7         0.000 0
     -1331.412 7  20123438.836 7
 106678159.753 8  19963361.535 8      1781.252 8  82971936.308 9         0.000 0
      1385.428 9  19963370.848 9
 123903292.184 5  23251696.453 5      3465.240 5         0.000 0         0.000 0
         0.000 0         0.000 0
 124531230.698 4  23279798.703 4     -3830.834 4  96857659.700 7         0.000 0
     -2979.779 7  23279808.012 7
 108161622.470 5  20226770.504 5      -224.793 5  84125756.269 8         0.000 0
      -174.176 8  20226778.813 8
 113537773.221 4  21217246.684 4      3765.551 4  88307182.444 7         0.000 0
      2929.738 7  21217250.836 7
 18  5 22 15 18 50.0000000  0 15G 7G 8G 9G16G23G26G27R 1R 2R10R11R12
                                R19R20R21
 122093226.665 6  23233569.266 6      3152.650 6  95137595.88347  23233572.12947
      2456.56347         0.000 0
 116680109.443 6  22203487.152 6      3192.377 6  90919596.66148  22203493.73448
      2487.48048         0.000 0
 113299485.701 6  21560175.488 6      -399.928 6  88285247.87249  21560182.27349
      -311.50649         0.000 0
 109577983.637 6  20851996.684 6     -1969.461 6  85385455.54549  20852000.01649
     -1534.49449         0.000 0
 115942928.011 3  22063206.699 3     -2415.887 3  90345148.61443  22063209.48843
     -1882.42443         0.000 0
 120319909.302 4  22896118.875 4     -2887.254 4  93755800.56344  22896125.59044
     -2249.68944         0.000 0
 106754435.699 6  20314694.242 6      1023.295 6  83185300.15449  20314699.42249
       797.45949         0.000 0
 120764022.243 5  22663435.504 5     -3306.850 5  93932157.257 5         0.000 0
     -2571.785 5  22663441.805 5
 119013099.887 6  22264621.797 6       427.881 6  92570325.353 6         0.000 0
       331.971 6  22264630.820 6
 107270876.728 7  20123745.688 7     -1712.537 7  83432973.539 7         0.000 0
     -1331.398 7  20123760.438 7
 106676378.299 8  19963029.715 8      1781.164 8  82970550.732 9         0.000 0
      1384.658 9  19963037.449 9
 123899826.088 5  23251047.949 5      3465.955 5         0.000 0         0.000 0
         0.000 0         0.000 0
 124535061.724 4  23280512.906 4     -3832.074 4  96860639.348 7         0.000 0
     -2979.592 7  23280524.363 7
 108161847.000 5  20226811.230 5      -225.486 5  84125930.909 8         0.000 0
      -174.926 8  20226821.402 8
 113534006.769 4  21216542.746 4      3765.484 4  88304253.012 7         0.000 0
      2928.969 7  21216546.613 7
 18  5 22 15 18 51.0000000  0 15G 7G 8G 9G16G23G26G27R 1R 2R10R11R12
                                R19R20R21
 122090073.500 6  23232968.973 6      3152.611 6  95135138.87347  23232972.32047
      2456.73447         0.000 0
 116676917.023 6  22202879.559 6      3192.064 6  90917109.03549  22202886.65649
      2487.39849         0.000 0
 113299886.023 6  21560251.879 6      -401.006 6  88285559.80449  21560256.85949
      -312.38949         0.000 0
 109579952.783 6  20852371.848 6     -1969.660 6  85386989.96449  20852374.55149
     -1534.81349         0.000 0
 115945343.759 3  22063666.430 3     -2415.734 3  90347031.02143  22063668.75043
     -1882.33243         0.000 0
 120322796.434 3  22896668.469 3     -2887.512 3  93758050.28944  22896674.22344
     -2249.85244         0.000 0
 106753412.501 6  20314499.617 6      1022.590 6  83184502.84949  20314505.28149
       796.83049         0.000 0
 120767329.196 5  22664052.379 5     -3307.363 5  93934729.347 5         0.000 0
     -2572.844 5  22664061.832 5
 119012672.681 6  22264542.277 6       426.598 6  92569993.074 6         0.000 0
       332.111 6  22264548.723 6
 107272588.974 8  20124066.359 8     -1712.553 8  83434305.291 7         0.000 0
     -1331.668 7  20124082.113 7
 106674597.124 8  19962697.824 8      1780.893 8  82969165.372 9         0.000 0
      1384.766 9  19962704.270 9
 123896359.954 5  23250399.227 5      3465.963 5         0.000 0         0.000 0
         0.000 0         0.000 0
 124538893.072 4  23281230.473 4     -3832.150 4  96863619.286 7         0.000 0
     -2980.053 7  23281241.359 7
 108162072.374 5  20226853.461 5      -225.789 5  84126106.213 8         0.000 0
      -175.646 8  20226863.773 8
 113530240.731 4  21215839.168 4      3765.170 4  88301323.830 7         0.000 0
      2929.297 7  21215842.605 7
 18  5 22 15 18 52.0000000  0 15G 7G 8G 9G16G23G26G27R 1R 2R10R11R12
                                R19R20R21
 122086920.367 6  23232368.941 6      3153.037 6  95132681.88047  23232372.43447
      2456.76647         0.000 0
 116673724.885 6  22202272.086 6      3192.021 6  90914621.67448  22202279.04348
      2487.31348         0.000 0
 113300286.917 6  21560328.098 6      -400.619 6  88285872.20049  21560334.49649
      -312.29949         0.000 0
 109581922.178 6  20852745.844 6     -1969.291 6  85388524.56049  20852749.43449
     -1534.43049         0.000 0
 115947759.895 3  22064125.852 3     -2414.977 3  90348913.75643  22064129.19943
     -1881.91043         0.000 0
 120325683.632 3  22897216.895 3     -2887.047 3  93760300.05844  22897223.30544
     -2249.72344         0.000 0
 106752389.912 6  20314304.965 6      1022.156 6  83183706.03149  20314310.68849
       796.43249         0.000 0
 120770636.481 5  22664671.953 5     -3307.189 5  93937301.678 5         0.000 0
     -2572.439 5  22664679.688 5
 119012246.292 6  22264462.023 6       426.107 6  92569661.417 6         0.000 0
       331.910 6  22264470.043 6
 107274301.595 7  20124387.152 7     -1712.594 7  83435637.331 7         0.000 0
     -1331.557 7  20124402.336 7
 106672816.245 8  19962362.328 8      1780.932 8  82967780.233 9         0.000 0
      1385.172 9  19962372.500 9
 123892893.776 5  23249750.055 5      3466.061 5         0.000 0         0.000 0
         0.000 0         0.000 0
 124542724.750 4  23281950.313 4     -3832.072 4  96866599.517 7         0.000 0
     -2980.760 7  23281958.477 7
 108162298.645 5  20226894.523 5      -227.021 5  84126282.180 8         0.000 0
      -176.178 8  20226906.270 8
 113526475.130 3  21215135.566 3      3765.793 3  88298395.048 7         0.000 0
      2929.020 7  21215139.863 7
 18  5 22 15 18 53.0000000  0 15G 7G 8G 9G16G23G26G27R 1R 2R10R11R12
                                R19R20R21
 122083767.363 6  23231769.352 6      3153.287 6  95130225.00047  23231772.97347
      2457.06847         0.000 0
 116670533.091 6  22201664.629 6      3191.627 6  90912134.56449  22201671.45349
      2486.73649         0.000 0
 113300688.484 6  21560404.332 6      -401.383 6  88286185.11049  21560410.82849
      -312.62349         0.000 0
 109583891.916 6  20853120.996 6     -1970.076 6  85390059.42049  20853124.34449
     -1535.18249         0.000 0
 115950176.591 3  22064586.145 3     -2417.088 3  90350796.84743  22064588.20743
     -1883.38543         0.000 0
 120328570.950 3  22897766.191 3     -2887.088 3  93762549.91544  22897772.81644
     -2249.73244         0.000 0
 106751367.963 6  20314110.469 6      1021.762 6  83182909.69849  20314115.59049
       796.28549         0.000 0
 120773944.225 5  22665289.965 5     -3307.875 5  93939874.377 5         0.000 0
     -2572.645 5  22665299.133 5
 119011820.801 6  22264382.641 6       425.461 6  92569330.495 6         0.000 0
       330.436 6  22264390.660 6
 107276014.607 8  20124708.102 8     -1712.713 8  83436969.689 7         0.000 0
     -1332.367 7  20124722.566 7
 106671035.705 8  19962030.570 8      1780.578 8  82966395.388 9         0.000 0
      1384.850 9  19962036.875 9
 123889427.574 5  23249100.176 5      3466.174 5         0.000 0         0.000 0
         0.000 0         0.000 0
 124546556.863 4  23282666.438 4     -3832.543 4  96869580.020 7         0.000 0
     -2980.537 7  23282673.168 7
 108162525.837 5  20226940.039 5      -227.805 5  84126458.890 8         0.000 0
      -176.734 8  20226948.773 8
 113522710.006 3  21214429.973 3      3765.049 3  88295466.629 7         0.000 0
      2928.580 7  21214437.277 7
 18  5 22 15 18 54.0000000  0 15G 7G 8G 9G16G23G26G27R 1R 2R10R11R12
                                R19R20R21
 122080614.589 6  23231168.910 6      3153.188 6  95127768.29947  23231172.08647
      2456.94347         0.000 0
 116667341.759 6  22201057.176 6      3191.215 6  90909647.80449  22201063.69949
      2486.67049         0.000 0
 113301090.817 6  21560480.430 6      -402.166 6  88286498.61049  21560487.28549
      -313.44949         0.000 0
 109585862.074 6  20853496.012 6     -1970.078 6  85391594.59849  20853499.21949
     -1535.09049         0.000 0
 115952593.814 4  22065045.441 4     -2417.090 4  90352680.38844  22065048.40244
     -1883.60544         0.000 0
 120331458.519 3  22898315.492 3     -2886.816 3  93764799.94445  22898322.87545
     -2249.48445         0.000 0
 106750346.809 6  20313915.977 6      1020.959 6  83182114.00049  20313921.80149
       795.69349         0.000 0
 120777252.548 5  22665908.844 5     -3308.326 5  93942447.503 5         0.000 0
     -2572.670 5  22665919.012 5
 119011396.280 6  22264301.684 6       424.326 6  92569000.310 6         0.000 0
       329.941 6  22264313.574 6
 107277728.169 8  20125031.922 8     -1713.594 8  83438302.439 7         0.000 0
     -1332.451 7  20125045.672 7
 106669255.660 8  19961696.668 8      1779.441 8  82965010.871 9         0.000 0
      1384.688 9  19961705.836 9
 123885961.518 5  23248454.031 5      3466.113 5         0.000 0         0.000 0
         0.000 0         0.000 0
 124550389.513 4  23283383.570 4     -3832.957 4  96872560.970 8         0.000 0
     -2981.109 8  23283390.445 8
 108162754.099 5  20226980.543 5      -228.783 5  84126636.427 8         0.000 0
      -177.404 8  20226991.574 8
 113518945.499 4  21213727.965 4      3764.383 4  88292538.680 7         0.000 0
      2927.596 7  21213733.551 7
 18  5 22 15 18 55.0000000  0 15G 7G 8G 9G16G23G26G27R 1R 2R10R11R12
                                R19R20R21
 122077461.902 6  23230568.973 6      3151.930 6  95125311.65847  23230573.32447
      2456.14847         0.000 0
 116664150.732 6  22200450.801 6      3190.582 6  90907161.30448  22200456.55148
      2485.97348         0.000 0
 113301493.796 6  21560557.746 6      -403.170 6  88286812.61349  21560564.27349
      -314.16649         0.000 0
 109587832.511 6  20853871.102 6     -1970.945 6  85393129.99749  20853874.03549
     -1535.82649         0.000 0
 115955011.440 4  22065505.816 4     -2417.996 4  90354564.30544  22065507.56344
     -1884.16844         0.000 0
 120334346.186 3  22898865.301 3     -2887.879 3  93767050.08244  22898872.25444
     -2250.20344         0.000 0
 106749326.231 6  20313722.422 6      1020.287 6  83181318.75549  20313727.60249
       795.09449         0.000 0
 120780561.255 5  22666528.656 5     -3308.896 5  93945020.918 5         0.000 0
     -2573.268 5  22666537.105 5
 119010972.539 6  22264224.387 6       422.955 6  92568670.709 6         0.000 0
       329.363 6  22264233.270 6
 107279442.099 8  20125351.375 8     -1714.750 8  83439635.499 7         0.000 0
     -1333.400 7  20125368.563 7
 106667475.856 8  19961364.277 8      1779.537 8  82963626.604 9         0.000 0
      1383.797 9  19961373.012 9
 123882495.429 5  23247802.516 5      3466.227 5         0.000 0         0.000 0
         0.000 0         0.000 0
 124554222.507 4  23284099.207 4     -3833.291 4  96875542.208 8         0.000 0
     -2981.766 8  23284108.805 8
 108162983.259 5  20227024.422 5      -229.881 5  84126814.665 8         0.000 0
      -178.959 8  20227034.590 8
 113515181.431 3  21213022.309 3      3764.105 3  88289611.077 6         0.000 0
      2927.547 6  21213031.477 6
 18  5 22 15 18 56.0000000  0 15G 7G 8G 9G16G23G26G27R 1R 2R10R11R12
                                R19R20R21
 122074309.153 6  23229969.625 6      3152.471 6  95122854.97647  23229973.12947
      2456.49247         0.000 0
 116660959.899 6  22199842.723 6      3190.576 6  90904674.95548  22199849.19148
      2486.10248         0.000 0
 113301897.270 6  21560634.508 6      -403.488 6  88287127.00249  21560640.70349
      -314.25249         0.000 0
 109589803.113 6  20854246.355 6     -1970.521 6  85394665.53449  20854249.33249
     -1535.58249         0.000 0
 115957429.409 4  22065965.063 4     -2418.686 4  90356448.43744  22065969.14144
     -1884.64544         0.000 0
 120337233.830 3  22899414.406 3     -2887.416 3  93769300.19844  22899422.25044
     -2249.97744         0.000 0
 106748306.195 6  20313528.023 6      1020.047 6  83180523.90149  20313532.55949
       794.75249         0.000 0
 120783870.246 5  22667147.914 5     -3308.805 5  93947594.618 5         0.000 0
     -2573.842 5  22667156.793 5
 119010549.433 6  22264145.387 6       423.184 6  92568341.641 6         0.000 0
       329.061 6  22264154.410 6
 107281156.224 8  20125673.570 8     -1714.326 8  83440968.726 7         0.000 0
     -1333.176 7  20125689.898 7
 106665696.262 8  19961030.180 8      1779.414 8  82962242.495 9         0.000 0
      1383.475 9  19961038.344 9
 123879029.219 5  23247153.023 5      3466.262 5         0.000 0         0.000 0
         0.000 0         0.000 0
 124558055.784 4  23284815.574 4     -3833.219 4  96878523.644 8         0.000 0
     -2981.793 8  23284824.598 8
 108163213.201 5  20227066.168 5      -230.041 5  84126993.529 8         0.000 0
      -179.105 8  20227078.340 8
 113511417.734 3  21212318.102 3      3763.574 3  88286683.726 7         0.000 0
      2927.400 7  21212324.406 7
 18  5 22 15 18 57.0000000  0 15G 7G 8G 9G16G23G26G27R 1R 2R10R11R12
                                R19R20R21
 122071156.768 6  23229369.152 6      3152.633 6  95120398.58047  23229371.97347
      2456.42647         0.000 0
 116657769.669 5  22199235.957 5      3190.426 5  90902189.05048  22199242.79748
      2485.89848         0.000 0
 113302301.654 6  21560711.578 6      -404.363 6  88287442.13649  21560717.81649
      -315.31449         0.000 0
 109591774.297 6  20854620.340 6     -1971.512 6  85396201.52049  20854623.58649
     -1536.19349         0.000 0
 115959848.077 4  22066425.188 4     -2419.285 4  90358333.09644  22066429.13744
     -1885.25844         0.000 0
 120340121.823 4  22899963.535 4     -2887.295 4  93771550.57545  22899971.98045
     -2249.90645         0.000 0
 106747287.061 6  20313333.793 6      1019.135 6  83179729.77649  20313339.58649
       794.04149         0.000 0
 120787179.964 5  22667766.902 5     -3309.775 5  93950168.836 5         0.000 0
     -2574.475 5  22667776.500 5
 119010127.464 6  22264067.270 6       421.488 6  92568013.437 6         0.000 0
       328.117 6  22264073.141 6
 107282871.047 7  20125994.207 7     -1714.713 7  83442302.469 7         0.000 0
     -1333.826 7  20126011.539 7
 106663917.311 8  19960698.113 8      1779.027 8  82960858.853 9         0.000 0
      1383.115 9  19960706.992 9
 123875563.256 5  23246505.273 5      3466.109 5         0.000 0         0.000 0
         0.000 0         0.000 0
 124561889.720 4  23285532.250 4     -3833.703 4  96881505.601 7         0.000 0
     -2982.172 7  23285540.270 7
 108163444.384 5  20227110.227 5      -231.482 5  84127173.329 8         0.000 0
      -180.029 8  20227120.395 8
 113507654.753 3  21211617.500 3      3763.246 3  88283757.006 7         0.000 0
      2926.826 7  21211622.512 7
 18  5 22 15 18 58.0000000  0 15G 7G 8G 9G16G23G26G27R 1R 2R10R11R12
                                R19R20R21
 122068004.491 6  23228769.301 6      3152.367 6  95117942.24447  23228772.66447
      2456.45147         0.000 0
 116654579.751 5  22198628.805 5      3189.945 5  90899703.41448  22198635.83248
      2485.78748         0.000 0
 113302706.689 6  21560788.266 6      -405.467 6  88287757.73149  21560794.25849
      -315.85549         0.000 0
 109593745.739 6  20854996.230 6     -1971.484 6  85397737.71249  20854999.43849
     -1536.28549         0.000 0
 115962267.169 3  22066885.934 3     -2420.273 3  90360218.06343  22066890.23843
     -1885.91443         0.000 0
 120343009.963 4  22900513.715 4     -2887.969 4  93773801.07945  22900522.18445
     -2250.40645         0.000 0
 106746268.556 6  20313140.176 6      1018.596 6  83178936.14349  20313145.58649
       793.65849         0.000 0
 120790490.063 5  22668385.656 5     -3310.355 5  93952743.341 6         0.000 0
     -2574.959 6  22668396.254 6
 119009706.340 7  22263987.047 7       420.537 7  92567685.907 6         0.000 0
       327.496 6  22263993.207 6
 107284586.224 8  20126316.039 8     -1715.156 8  83443636.509 7         0.000 0
     -1334.838 7  20126330.938 7
 106662138.640 8  19960365.230 8      1778.447 8  82959475.428 9         0.000 0
      1383.590 9  19960374.254 9
 123872097.282 5  23245856.277 5      3466.193 5         0.000 0         0.000 0
         0.000 0         0.000 0
 124565724.096 4  23286248.973 4     -3834.459 4  96884487.865 8         0.000 0
     -2982.793 8  23286257.996 8
 108163676.482 5  20227152.898 5      -233.156 5  84127353.815 8         0.000 0
      -180.982 8  20227162.781 8
 113503892.241 4  21210915.508 4      3761.924 4  88280830.616 7         0.000 0
      2925.992 7  21210918.516 7
 18  5 22 15 18 59.0000000  0 15G 7G 8G 9G16G23G26G27R 1R 2R10R11R12
                                R19R20R21
 122064852.350 6  23228169.703 6      3152.209 6  95115486.04947  23228172.39547
      2456.38347         0.000 0
 116651390.207 5  22198021.625 5      3189.416 5  90897218.07348  22198029.19148
      2485.19148         0.000 0
 113303112.432 7  21560865.348 7      -406.133 7  88288073.89149  21560871.91449
      -316.58849         0.000 0
 109595717.591 6  20855371.375 6     -1972.072 6  85399274.20449  20855374.49249
     -1536.66849         0.000 0
 115964686.956 1  22067345.930 1     -2420.666 1  90362103.65643  22067349.82443
     -1886.19943         0.000 0
 120345898.284 4  22901063.430 4     -2888.830 4  93776051.73445  22901071.68845
     -2251.10245         0.000 0
 106745250.770 7  20312946.242 7      1017.402 7  83178143.05849  20312952.05549
       792.59249         0.000 0
 120793800.679 4  22669003.945 4     -3312.408 4  93955318.239 6         0.000 0
     -2575.203 6  22669015.258 6
 119009286.158 6  22263908.656 6       419.734 6  92567359.142 6         0.000 0
       326.236 6  22263916.391 6
 107286301.869 8  20126639.559 8     -1715.744 8  83444970.897 6         0.000 0
     -1335.121 6  20126652.879 6
 106660360.401 8  19960032.031 8      1778.094 8  82958092.358 9         0.000 0
      1382.760 9  19960040.910 9
 123868631.384 5  23245209.113 5      3465.469 5         0.000 0         0.000 0
         0.000 0         0.000 0
 124569558.915 4  23286966.805 4     -3834.559 4  96887470.493 7         0.000 0
     -2983.213 7  23286973.684 7
 108163909.531 5  20227196.824 5      -233.236 5  84127535.123 8         0.000 0
      -181.988 8  20227206.996 8
 113500130.353 2  21210211.625 2      3761.043 2  88277904.628 7         0.000 0
      2926.293 7  21210217.781 7
 18  5 22 15 19  0.0000000  0 14G 7G 8G 9G16G26G27R 1R 2R10R11R12R19
                                R20R21
 122061700.328 6  23227570.211 6      3152.369 6  95113029.93047  23227572.57447
      2456.39847         0.000 0
 116648201.030 6  22197414.836 6      3189.244 6  90894732.97048  22197421.81648
      2485.36348         0.000 0
 113303518.758 6  21560943.109 6      -406.793 6  88288390.51149  21560949.33649
      -316.84649         0.000 0
 109597689.681 6  20855746.914 6     -1972.107 6  85400810.90249  20855750.03149
     -1536.74849         0.000 0
 120348786.642 3  22901613.539 3     -2888.279 3  93778302.38645  22901621.06645
     -2250.51845         0.000 0
 106744233.588 7  20312753.133 7      1016.996 7  83177350.45149  20312758.18849
       792.66849         0.000 0
 120797111.598 5  22669623.629 5     -3311.270 5  93957893.412 6         0.000 0
     -2575.342 6  22669633.516 6
 119008866.864 6  22263832.094 6       419.174 6  92567032.993 6         0.000 0
       326.000 6  22263839.254 6
 107288017.884 8  20126960.031 8     -1716.148 8  83446305.563 6         0.000 0
     -1334.771 6  20126979.082 6
 106658582.449 8  19959700.801 8      1778.041 8  82956709.520 9         0.000 0
      1382.934 9  19959708.391 9
 123865165.415 5  23244559.191 5      3466.139 5         0.000 0         0.000 0
         0.000 0         0.000 0
 124573394.062 5  23287684.750 5     -3834.123 5  96890453.407 7         0.000 0
     -2982.805 7  23287690.480 7
 108164143.499 5  20227240.719 5      -234.109 5  84127717.073 8         0.000 0
      -181.873 8  20227250.602 8
 113496368.830 3  21209507.703 3      3761.107 3  88274979.063 7         0.000 0
      2925.688 7  21209516.152 7
 18  5 22 15 19  1.0000000  0 14G 7G 8G 9G16G26G27R 1R 2R10R11R12R19
                                R20R21
 122058548.393 6  23226970.297 6      3151.740 6  95110573.86847  23226973.44547
      2455.96347         0.000 0
 116645012.202 6  22196808.336 6      3188.186 6  90892248.18748  22196815.29348
      2484.32248         0.000 0
 113303925.731 6  21561020.449 6      -407.676 6  88288707.63949  21561027.56349
      -317.57449         0.000 0
 109599662.066 6  20856122.453 6     -1972.639 6  85402347.83449  20856124.31649
     -1537.02949         0.000 0
 120351675.146 3  22902162.367 3     -2888.654 3  93780553.18245  22902170.75045
     -2250.87745         0.000 0
 106743217.074 7  20312559.172 7      1016.016 7  83176558.36349  20312564.50849
       791.54749         0.000 0
 120800422.930 4  22670244.039 4     -3311.449 4  93960468.919 6         0.000 0
     -2576.111 6  22670253.777 6
 119008448.402 7  22263752.098 7       417.355 7  92566707.537 6         0.000 0
       324.977 6  22263760.691 6
 107289734.274 8  20127282.090 8     -1716.914 8  83447640.557 7         0.000 0
     -1335.971 7  20127299.133 7
 106656804.888 8  19959365.848 8      1777.061 8  82955326.945 9         0.000 0
      1382.203 9  19959376.734 9
 123861699.495 5  23243911.137 5      3466.115 5         0.000 0         0.000 0
         0.000 0         0.000 0
 124577229.615 4  23288401.840 4     -3836.412 4  96893436.564 7         0.000 0
     -2983.475 7  23288410.145 7
 108164378.375 5  20227283.328 5      -235.539 5  84127899.772 8         0.000 0
      -183.580 8  20227295.504 8
 113492607.899 3  21208807.082 3      3760.225 3  88272053.858 7         0.000 0
      2924.898 7  21208811.809 7
 18  5 22 15 19  2.0000000  0 14G 7G 8G 9G16G26G27R 1R 2R10R11R12R19
                                R20R21
 122055396.769 6  23226370.688 6      3151.342 6  95108118.03047  23226374.35247
      2455.47147         0.000 0
 116641823.919 5  22196201.285 5      3187.729 5  90889763.79948  22196209.08648
      2484.04548         0.000 0
 113304333.591 6  21561097.809 6      -408.857 6  88289025.46049  21561104.70349
      -318.53549         0.000 0
 109601635.000 6  20856497.586 6     -1973.428 6  85403885.17349  20856500.44949
     -1537.81349         0.000 0
 120354563.983 3  22902712.215 3     -2888.625 3  93782804.20045  22902720.80145
     -2250.80145         0.000 0
 106742201.395 7  20312366.945 7      1015.227 7  83175766.94749  20312371.75049
       790.86149         0.000 0
 120803734.919 2  22670863.176 2     -3312.533 2  93963044.894 5         0.000 0
     -2576.035 5  22670874.633 5
 119008031.005 7  22263672.262 7       416.447 7  92566382.898 6         0.000 0
       323.725 6  22263680.855 6
 107291451.287 8  20127604.590 8     -1717.352 8  83448976.005 7         0.000 0
     -1336.188 7  20127619.633 7
 106655027.853 8  19959034.355 8      1776.447 8  82953944.816 9         0.000 0
      1381.889 9  19959042.379 9
 123858233.805 5  23243261.094 5      3465.365 5         0.000 0         0.000 0
         0.000 0         0.000 0
 124581065.701 4  23289118.086 4     -3836.264 4  96896420.218 7         0.000 0
     -2983.205 7  23289126.109 7
 108164614.422 5  20227327.535 5      -237.521 5  84128083.346 8         0.000 0
      -184.227 8  20227340.281 8
 113488847.586 2  21208100.465 2      3760.646 2  88269129.202 7         0.000 0
      2923.607 7  21208110.348 7
 18  5 22 15 19  3.0000000  0 14G 7G 8G 9G16G26G27R 1R 2R10R11R12R19
                                R20R21
 122052245.151 6  23225770.563 6      3151.531 6  95105662.23647  23225774.09847
      2455.74847         0.000 0
 116638635.822 5  22195594.438 5      3187.938 5  90887279.59448  22195601.92248
      2484.10748         0.000 0
 113304741.975 6  21561175.367 6      -408.686 6  88289343.67349  21561182.26649
      -318.57049         0.000 0
 109603608.093 6  20856872.348 6     -1972.887 6  85405422.65949  20856875.72749
     -1537.40049         0.000 0
 120357452.789 4  22903262.977 4     -2889.098 4  93785055.22245  22903269.93445
     -2251.54145         0.000 0
 106741186.277 6  20312173.488 6      1015.064 6  83174975.92349  20312178.08249
       791.03949         0.000 0
 120807047.308 4  22671483.375 4     -3313.158 4  93965621.198 5         0.000 0
     -2577.533 5  22671491.395 5
 119007614.324 7  22263594.348 7       416.094 7  92566058.799 6         0.000 0
       324.141 6  22263601.797 6
 107293168.574 8  20127926.152 8     -1717.178 8  83450311.667 7         0.000 0
     -1335.969 7  20127943.051 7
 106653250.980 8  19958701.633 8      1776.875 8  82952562.822 9         0.000 0
      1381.756 9  19958710.941 9
 123854768.005 5  23242611.684 5      3465.852 5         0.000 0         0.000 0
         0.000 0         0.000 0
 124584902.108 4  23289836.684 4     -3836.559 4  96899404.058 7         0.000 0
     -2983.531 7  23289841.844 7
 108164851.242 5  20227372.801 5      -236.975 5  84128267.540 8         0.000 0
      -184.670 8  20227381.105 8
 113485087.714 3  21207398.918 3      3759.395 3  88266204.810 7         0.000 0
      2924.609 7  21207405.793 7
 18  5 22 15 19  4.0000000  0 14G 7G 8G 9G16G26G27R 1R 2R10R11R12R19
                                R20R21
 122049093.617 6  23225170.137 6      3151.648 6  95103206.49947  23225174.55947
      2455.60947         0.000 0
 116635448.102 5  22194988.145 5      3187.488 5  90884795.66148  22194994.87148
      2483.55948         0.000 0
 113305151.022 6  21561254.055 6      -409.602 6  88289662.40249  21561259.50849
      -319.15649         0.000 0
 109605581.528 6  20857247.668 6     -1973.432 6  85406960.39649  20857251.74649
     -1537.65249         0.000 0
 120360341.743 4  22903812.871 4     -2888.939 4  93787306.38345  22903818.43445
     -2251.18945         0.000 0
 106740171.814 6  20311979.871 6      1013.934 6  83174185.45149  20311985.29749
       790.02349         0.000 0
 120810360.023 4  22672101.977 4     -3313.225 4  93968197.768 5         0.000 0
     -2576.650 5  22672109.137 5
 119007198.486 7  22263518.848 7       415.117 7  92565735.356 6         0.000 0
       323.178 6  22263525.723 6
 107294886.268 8  20128248.406 8     -1717.607 8  83451647.647 7         0.000 0
     -1336.189 7  20128264.305 7
 106651474.479 8  19958368.027 8      1776.254 8  82951181.099 9         0.000 0
      1381.316 9  19958376.621 9
 123851302.188 5  23241962.254 5      3465.848 5         0.000 0         0.000 0
         0.000 0         0.000 0
 124588738.876 4  23290554.262 4     -3835.832 4  96902388.245 7         0.000 0
     -2984.357 7  23290559.273 7
 108165089.009 5  20227413.746 5      -238.385 5  84128452.470 8         0.000 0
      -185.318 8  20227428.215 8
 113481328.266 4  21206694.488 4      3759.363 4  88263280.821 7         0.000 0
      2923.773 7  21206703.082 7
 18  5 22 15 19  5.0000000  0 14G 7G 8G 9G16G26G27R 1R 2R10R11R12R19
                                R20R21
 122045942.268 6  23224570.680 6      3151.188 6  95100750.89847  23224574.28547
      2455.39647         0.000 0
 116632260.772 4  22194382.105 4      3187.418 4  90882312.05148  22194389.30148
      2483.56148         0.000 0
 113305560.778 5  21561331.422 5      -410.084 5  88289981.73249  21561337.57449
      -319.66449         0.000 0
 109607555.345 6  20857623.523 6     -1973.834 6  85408498.43549  20857626.85549
     -1537.92649         0.000 0
 120363230.908 4  22904362.008 4     -2888.934 4  93789557.65645  22904368.46145
     -2251.12945         0.000 0
 106739158.053 7  20311787.082 7      1013.568 7  83173395.47849  20311792.10249
       789.77149         0.000 0
 120813673.271 2  22672721.406 2     -3313.742 2  93970774.771 5         0.000 0
     -2577.682 5  22672730.000 5
 119006783.535 7  22263439.309 7       414.639 7  92565412.645 6         0.000 0
       322.361 6  22263446.898 6
 107296604.447 8  20128572.063 8     -1718.379 8  83452984.002 7         0.000 0
     -1337.084 7  20128585.383 7
 106649698.428 8  19958036.543 8      1775.600 8  82949799.698 9         0.000 0
      1381.281 9  19958044.852 9
 123847836.454 5  23241315.086 5      3466.111 5         0.000 0         0.000 0
         0.000 0         0.000 0
 124592576.215 5  23291269.656 5     -3836.953 5  96905372.846 7         0.000 0
     -2985.176 7  23291275.531 7
 108165327.787 5  20227460.965 5      -239.156 5  84128638.202 8         0.000 0
      -186.408 8  20227471.566 8
 113477569.409 2  21205992.031 2      3758.514 2  88260357.265 7         0.000 0
      2923.523 7  21206002.344 7
 18  5 22 15 19  6.0000000  0 14G 7G 8G 9G16G26G27R 1R 2R10R11R12R19
                                R20R21
 122042791.114 6  23223970.977 6      3150.666 6  95098295.43947  23223974.28147
      2454.96547         0.000 0
 116629073.980 4  22193774.816 4      3186.096 4  90879828.82848  22193782.84448
      2482.89548         0.000 0
 113305971.292 4  21561408.973 4      -411.699 4  88290301.59548  21561416.88748
      -320.85748         0.000 0
 109609529.584 6  20857999.563 6     -1974.553 6  85410036.79549  20858002.32449
     -1538.53549         0.000 0
 120366120.281 4  22904911.762 4     -2889.104 4  93791809.12745  22904919.49245
     -2251.19145         0.000 0
 106738145.069 7  20311594.332 7      1012.500 7  83172606.15149  20311599.57049
       789.04549         0.000 0
 120816987.128 1  22673339.879 1     -3314.879 1  93973352.170 4         0.000 0
     -2577.885 4  22673351.766 4
 119006369.587 7  22263361.957 7       413.611 7  92565090.695 6         0.000 0
       320.957 6  22263372.559 6
 107298323.094 8  20128894.047 8     -1718.781 8  83454320.729 7         0.000 0
     -1337.178 7  20128910.086 7
 106647922.809 8  19957705.102 8      1775.291 8  82948418.677 8         0.000 0
      1380.703 8  19957712.547 8
 123844370.838 6  23240665.383 6      3465.381 6         0.000 0         0.000 0
         0.000 0         0.000 0
 124596413.983 4  23291985.813 4     -3837.967 4  96908357.794 7         0.000 0
     -2985.873 7  23291993.547 7
 108165567.570 5  20227504.504 5      -240.199 5  84128824.721 8         0.000 0
      -187.229 8  20227517.395 8
 113473811.119 3  21205290.191 3      3757.107 3  88257434.218 7         0.000 0
      2922.129 7  21205298.211 7
 18  5 22 15 19  7.0000000  0 12G 7G 8G16G26G27R 2R10R11R12R19R20R21
 122039640.134 5  23223371.273 5      3150.924 5  95095840.18047  23223374.92247
      2455.18847         0.000 0
 116625887.551 5  22193168.676 5      3186.004 5  90877345.87149  22193175.77349
      2482.47349         0.000 0
 109611504.195 6  20858375.316 6     -1974.881 6  85411575.47549  20858379.36749
     -1538.74249         0.000 0
 120369009.887 5  22905461.520 5     -2890.193 5  93794060.79145  22905469.10245
     -2252.12145         0.000 0
 106737132.789 6  20311400.723 6      1012.389 6  83171817.38449  20311407.20749
       789.05349         0.000 0
 119005956.661 6  22263285.324 6       412.443 6  92564769.550 5         0.000 0
       321.043 5  22263291.914 5
 107300042.239 7  20129216.027 7     -1718.738 7  83455657.813 7         0.000 0
     -1337.443 7  20129232.070 7
 106646147.613 8  19957372.227 8      1775.607 8  82947037.949 9         0.000 0
      1380.652 9  19957380.676 9
 123840905.336 6  23240017.828 6      3465.561 6         0.000 0         0.000 0
         0.000 0         0.000 0
 124600252.326 4  23292704.691 4     -3838.547 4  96911343.118 8         0.000 0
     -2985.631 8  23292712.281 8
 108165808.957 5  20227550.191 5      -241.758 5  84129012.519 8         0.000 0
      -188.021 8  20227562.223 8
 113470053.567 2  21204599.664 2      3756.645 2  88254511.519 7         0.000 0
      2922.332 7  21204598.234 7
 18  5 22 15 19  8.0000000  0 13G 7G 8G16G23G26G27R 2R10R11R12R19R20
                                R21
 122036489.229 5  23222770.984 5      3150.377 5  95093384.94447  23222775.56347
      2454.94347         0.000 0
 116622701.339 4  22192562.090 4      3185.904 4  90874863.16748  22192569.93448
      2482.71748         0.000 0
 109613479.046 6  20858751.348 6     -1975.545 6  85413114.29649  20858754.36749
     -1539.43649         0.000 0
 115986486.471 7  22071495.309 7     -2424.492 7         0.000 0         0.000 0
         0.000 0         0.000 0
 120371899.452 3  22906011.688 3     -2889.902 3  93796312.37345  22906017.75845
     -2251.87745         0.000 0
 106736121.097 7  20311209.105 7      1011.234 7  83171029.03049  20311214.87149
       787.79349         0.000 0
 119005544.455 6  22263207.105 6       411.623 6  92564448.974 5         0.000 0
       319.490 5  22263215.555 5
 107301761.651 8  20129538.711 8     -1720.029 8  83456995.179 7         0.000 0
     -1338.254 7  20129554.754 7
 106644372.657 8  19957040.055 8      1774.318 8  82945657.407 9         0.000 0
      1379.939 9  19957047.789 9
 123837439.729 6  23239368.824 6      3465.619 6         0.000 0         0.000 0
         0.000 0         0.000 0
 124604090.966 4  23293422.410 4     -3839.076 4  96914328.745 7         0.000 0
     -2986.461 7  23293429.426 7
 108166050.600 5  20227596.297 5      -242.383 5  84129200.524 8         0.000 0
      -188.988 8  20227607.754 8
 113466296.128 2  21203893.371 2      3756.936 2  88251589.203 7         0.000 0
      2921.561 7  21203893.945 7
 18  5 22 15 19  9.0000000  0 13G 7G 8G16G23G26G27R 2R10R11R12R19R20
                                R21
 122033338.475 5  23222171.449 5      3150.973 5  95090929.78547  23222176.11347
      2455.43247         0.000 0
 116619515.537 6  22191955.973 6      3186.072 6  90872380.66149  22191963.52749
      2482.69749         0.000 0
 109615454.183 6  20859126.980 6     -1975.008 6  85414653.37949  20859130.67249
     -1538.94749         0.000 0
 115988910.784 5  22071956.797 5     -2423.445 5  90380977.77245  22071958.11345
     -1888.51845         0.000 0
 120374789.209 5  22906560.609 5     -2889.402 5  93798564.11845  22906568.32045
     -2251.27145         0.000 0
 106735110.092 6  20311016.809 6      1011.031 6  83170241.24449  20311021.85949
       787.71549         0.000 0
 119005133.184 6  22263130.352 6       410.676 6  92564129.043 6         0.000 0
       319.273 6  22263140.664 6
 107303481.514 8  20129862.148 8     -1719.668 8  83458332.813 7         0.000 0
     -1337.865 7  20129875.469 7
 106642598.054 8  19956707.918 8      1774.895 8  82944277.170 9         0.000 0
      1380.504 9  19956716.797 9
 123833974.242 6  23238719.574 6      3465.998 6         0.000 0         0.000 0
         0.000 0         0.000 0
 124607929.947 4  23294139.449 4     -3838.910 4  96917314.651 7         0.000 0
     -2986.072 7  23294146.180 7
 108166292.747 5  20227642.723 5      -243.076 5  84129389.698 8         0.000 0
      -188.756 8  20227652.605 8
 113462539.395 5  21203188.977 5      3755.988 5  88248667.242 7         0.000 0
      2922.066 7  21203192.270 7
 18  5 22 15 19 10.0000000  0 13G 7G 8G16G23G26G27R 2R10R11R12R19R20
                                R21
 122030188.006 5  23221571.664 5      3150.297 5  95088474.89347  23221577.04747
      2454.66647         0.000 0
 116616330.284 6  22191349.605 6      3184.984 6  90869898.65649  22191357.03549
      2481.79549         0.000 0
 109617429.883 7  20859503.227 7     -1976.445 7  85416192.88449  20859506.24649
     -1540.06349         0.000 0
 115991335.797 5  22072419.328 5     -2425.449 5  90382867.44645  22072419.24245
     -1889.90845         0.000 0
 120377679.315 5  22907111.285 5     -2890.313 5  93800816.13645  22907117.46545
     -2252.19345         0.000 0
 106734099.899 6  20310824.406 6      1009.650 6  83169454.09549  20310829.85949
       786.85249         0.000 0
 119004722.903 6  22263052.348 6       409.898 6  92563809.915 6         0.000 0
       318.742 6  22263062.516 6
 107305201.928 7  20130184.477 7     -1720.775 7  83459670.900 7         0.000 0
     -1337.518 7  20130198.086 7
 106640824.054 8  19956375.535 8      1773.883 8  82942897.402 9         0.000 0
      1378.977 9  19956385.273 9
 123830508.885 6  23238068.215 6      3465.086 6         0.000 0         0.000 0
         0.000 0         0.000 0
 124611769.581 4  23294859.246 4     -3839.668 4  96920301.016 7         0.000 0
     -2986.525 7  23294862.828 7
 108166536.471 5  20227689.188 5      -244.166 5  84129579.284 8         0.000 0
      -190.381 8  20227698.926 8
 113458783.377 4  21202483.043 4      3755.289 4  88245745.858 7         0.000 0
      2920.617 7  21202492.066 7
 18  5 22 15 19 11.0000000  0 13G 7G 8G16G23G26G27R 2R10R11R12R19R20
                                R21
 122027037.660 5  23220972.961 5      3149.902 5  95086020.07947  23220976.49647
      2454.43847         0.000 0
 116613145.405 6  22190744.176 6      3184.063 6  90867416.94849  22190751.28949
      2481.05949         0.000 0
 109619405.891 7  20859879.266 7     -1976.840 7  85417732.61749  20859882.52749
     -1540.50649         0.000 0
 115993761.284 6  22072879.648 6     -2425.688 6  90384757.40046  22072880.63746
     -1890.03946         0.000 0
 120380569.535 5  22907662.180 5     -2890.727 5  93803068.21645  22907666.68845
     -2252.36345         0.000 0
 106733090.412 6  20310631.656 6      1008.553 6  83168667.48849  20310638.39549
       785.84449         0.000 0
 119004313.482 6  22262975.711 6       408.236 6  92563491.467 5         0.000 0
       317.754 5  22262985.594 5
 107306922.778 7  20130506.168 7     -1721.656 7  83461009.349 6         0.000 0
     -1338.645 6  20130522.785 6
 106639050.454 8  19956044.660 8      1773.021 8  82941517.927 9         0.000 0
      1378.750 9  19956052.254 9
 123827043.578 6  23237422.375 6      3464.654 6         0.000 0         0.000 0
         0.000 0         0.000 0
 124615609.649 3  23295574.395 3     -3841.172 3  96923287.713 7         0.000 0
     -2987.279 7  23295582.273 7
 108166781.197 5  20227734.441 5      -245.516 5  84129769.617 8         0.000 0
      -191.564 8  20227744.898 8
 113455027.812 4  21201781.918 4      3754.859 4  88242824.865 7         0.000 0
      2920.176 7  21201789.793 7
 18  5 22 15 19 12.0000000  0 13G 7G 8G16G23G26G27R 2R10R11R12R19R20
                                R21
 122023887.259 5  23220373.668 5      3149.975 5  95083565.21147  23220377.30147
      2454.69947         0.000 0
 116609960.668 6  22190138.156 6      3184.467 6  90864935.33349  22190145.18449
      2481.37949         0.000 0
 109621382.014 7  20860255.000 7     -1976.514 7  85419272.44349  20860258.30549
     -1540.18649         0.000 0
 115996187.063 5  22073341.379 5     -2426.670 5  90386647.61746  22073341.82446
     -1890.96746         0.000 0
 120383459.829 3  22908211.484 3     -2891.027 3  93805320.44245  22908216.80945
     -2252.88345         0.000 0
 106732081.373 6  20310439.602 6      1008.391 6  83167881.22649  20310445.51249
       785.75449         0.000 0
 119003904.694 6  22262898.914 6       408.389 6  92563173.507 5         0.000 0
       317.273 5  22262908.512 5
 107308643.795 7  20130830.707 7     -1721.623 7  83462347.917 6         0.000 0
     -1338.869 6  20130846.895 6
 106637276.958 8  19955713.055 8      1773.096 8  82940138.542 9         0.000 0
      1378.836 9  19955720.074 9
 123823578.110 6  23236773.508 6      3464.904 6         0.000 0         0.000 0
         0.000 0         0.000 0
 124619449.853 3  23296292.535 3     -3840.709 3  96926274.581 6         0.000 0
     -2987.467 6  23296302.563 6
 108167026.644 5  20227782.113 5      -246.125 5  84129960.512 8         0.000 0
      -191.516 8  20227790.422 8
 113451276.549 4  21201081.918 4      3758.525 4  88239904.135 7         0.000 0
      2920.381 7  21201088.219 7
 18  5 22 15 19 13.0000000  0 13G 7G 8G16G23G26G27R 2R10R11R12R19R20
                                R21
 122020736.738 5  23219773.891 5      3150.494 5  95081110.26947  23219777.35547
      2454.94347         0.000 0
 116606776.079 6  22189532.945 6      3184.459 6  90862453.81549  22189538.79749
      2481.48649         0.000 0
 109623358.271 6  20860631.254 6     -1976.229 6  85420812.39649  20860634.76249
     -1539.88349         0.000 0
 115998613.063 5  22073803.488 5     -2426.463 5  90388538.01546  22073803.53146
     -1890.72546         0.000 0
 120386349.898 1  22908762.168 1     -2889.785 1  93807572.48744  22908767.40644
     -2251.91644         0.000 0
 106731072.766 6  20310248.211 6      1008.168 6  83167095.31349  20310253.84849
       785.56649         0.000 0
 119003496.568 6  22262822.066 6       407.543 6  92562856.108 5         0.000 0
       317.031 5  22262831.230 5
 107310365.009 5  20131152.762 5     -1721.412 5  83463686.625 5         0.000 0
     -1337.764 5  20131169.949 5
 106635503.525 7  19955380.539 7      1772.994 7  82938759.195 9         0.000 0
      1379.297 9  19955389.848 9
 123820112.390 6  23236123.875 6      3465.563 6         0.000 0         0.000 0
         0.000 0         0.000 0
 124623290.342 1  23297011.195 1     -3840.029 1  96929261.630 6         0.000 0
     -2987.689 6  23297019.934 6
 108167272.903 1  20227825.148 1      -246.578 1  84130152.011 6         0.000 0
      -191.348 6  20227835.891 6
 113447521.575 2  21200379.859 2      3754.967 2  88236983.604 7         0.000 0
      2919.982 7  21200385.449 7
 18  5 22 15 19 14.0000000  0 13G 7G 8G 9G16G23G26G27R 2R10R11R12R19
                                R21
 122017586.591 4  23219174.762 4      3150.117 4  95078655.59646  23219178.62546
      2454.77546         0.000 0
 116603592.093 6  22188926.805 6      3183.066 6  90859972.80849  22188933.55949
      2480.32249         0.000 0
 113309288.601 1  21562040.523 1      -416.389 1         0.000 0         0.000 0
         0.000 0         0.000 0
 109625335.092 5  20861007.012 5     -1977.191 5  85422352.77948  20861010.46148
     -1540.60048         0.000 0
 116001039.729 6  22074264.102 6     -2426.527 6  90390428.89446  22074265.76246
     -1890.61946         0.000 0
 120389240.196 1  22909311.352 1     -2890.199 1  93809824.69043  22909317.36343
     -2252.14343         0.000 0
 106730065.124 6  20310056.180 6      1007.246 6  83166310.10549  20310061.70349
       784.77349         0.000 0
 119003089.578 6  22262746.008 6       405.857 6  92562539.556 6         0.000 0
       315.943 6  22262756.176 6
 107312086.957 5  20131477.895 5     -1722.182 5  83465025.954 5         0.000 0
     -1340.238 5  20131495.941 5
 106633730.670 8  19955048.238 8      1772.146 8  82937380.328 9         0.000 0
      1378.150 9  19955058.262 9
 123816646.917 6  23235475.316 6      3464.990 6         0.000 0         0.000 0
         0.000 0         0.000 0
 124627131.457 3  23297732.797 3     -3841.854 3  96932249.115 6         0.000 0
     -2988.035 6  23297735.230 6
 113443767.359 4  21199676.590 4      3753.787 4  88234063.646 7         0.000 0
      2919.615 7  21199683.609 7
 18  5 22 15 19 15.0000000  0 13G 7G 8G 9G16G23G26G27R 2R10R11R12R19
                                R21
 122014436.729 4  23218575.215 4      3149.553 4  95076201.15446  23218578.17646
      2454.16846         0.000 0
 116600408.618 6  22188320.246 6      3183.205 6  90857492.19049  22188327.78549
      2480.34049         0.000 0
 113309705.271 1  21562119.086 1      -416.799 1         0.000 0         0.000 0
         0.000 0         0.000 0
 109627312.368 5  20861383.637 5     -1977.795 5  85423893.51548  20861387.34448
     -1541.30548         0.000 0
 116003467.100 6  22074726.867 6     -2428.088 6  90392320.35146  22074727.53946
     -1892.00846         0.000 0
 120392130.960 3  22909862.262 3     -2891.137 3  93812077.22644  22909867.58644
     -2252.75044         0.000 0
 106729058.279 6  20309865.016 6      1006.563 6  83165525.55249  20309870.05149
       784.12749         0.000 0
 119002683.645 6  22262669.527 6       405.291 6  92562223.811 5         0.000 0
       315.609 5  22262677.262 5
 107313809.439 5  20131798.457 5     -1722.982 5  83466365.642 5         0.000 0
     -1340.633 5  20131815.785 5
 106631958.408 8  19954716.375 8      1771.600 8  82936001.875 9         0.000 0
      1378.363 9  19954725.973 9
 123813181.661 6  23234827.344 6      3465.264 6         0.000 0         0.000 0
         0.000 0         0.000 0
 124630973.189 2  23298448.246 2     -3842.635 2  96935237.132 6         0.000 0
     -2988.525 6  23298455.266 6
 113440013.851 3  21198974.332 3      3752.986 3  88231144.270 7         0.000 0
      2918.207 7  21198984.355 7
 18  5 22 15 19 16.0000000  0 13G 7G 8G 9G16G23G26G27R 2R10R11R12R19
                                R21
 122011286.844 5  23217974.922 5      3150.232 5  95073746.72746  23217979.12946
      2454.75246         0.000 0
 116597225.401 6  22187715.516 6      3183.494 6  90855011.76149  22187721.38349
      2480.67049         0.000 0
 113310122.554 1  21562199.910 1      -417.680 1         0.000 0         0.000 0
         0.000 0         0.000 0
 109629289.816 5  20861760.516 5     -1977.777 5  85425434.38747  20861763.56647
     -1541.05147         0.000 0
 116005894.771 6  22075187.168 6     -2427.719 6  90394212.08346  22075188.82846
     -1891.81346         0.000 0
 120395021.808 1  22910412.570 1     -2890.904 1  93814329.74443  22910417.85243
     -2252.49643         0.000 0
 106728051.967 6  20309673.105 6      1006.227 6  83164741.44749  20309678.72749
       783.96949         0.000 0
 119002278.490 6  22262595.305 6       404.873 6  92561908.704 5         0.000 0
       315.133 5  22262602.609 5
 107315532.129 5  20132119.695 5     -1723.260 5  83467705.507 5         0.000 0
     -1339.898 5  20132134.449 5
 106630186.409 8  19954385.051 8      1771.908 8  82934623.649 9         0.000 0
      1378.135 9  19954394.219 9
 123809716.348 6  23234178.617 6      3465.469 6         0.000 0         0.000 0
         0.000 0         0.000 0
 124634815.156 3  23299166.383 3     -3842.461 3  96938225.309 7         0.000 0
     -2989.102 7  23299172.828 7
 113436260.733 4  21198276.621 4      3752.656 4  88228225.101 7         0.000 0
      2918.795 7  21198281.059 7
 18  5 22 15 19 17.0000000  0 13G 7G 8G 9G16G23G26G27R 2R10R11R12R19
                                R21
 122008137.253 5  23217376.227 5      3149.658 5  95071292.50546  23217380.36346
      2454.23846         0.000 0
 116594042.687 6  22187109.668 6      3182.412 6  90852531.72449  22187116.79349
      2479.80549         0.000 0
 113310540.582 1  21562278.328 1      -418.779 1         0.000 0         0.000 0
         0.000 0         0.000 0
 109631267.744 6  20862136.422 6     -1977.727 6  85426975.59547  20862139.08247
     -1540.92047         0.000 0
 116008323.073 6  22075650.645 6     -2428.547 6  90396104.23146  22075652.09046
     -1892.40446         0.000 0
 120397912.867 1  22910962.191 1     -2891.066 1  93816582.53342  22910967.27042
     -2252.69742         0.000 0
 106727046.443 6  20309481.934 6      1004.697 6  83163957.90749  20309487.91849
       783.00849         0.000 0
 119001874.293 6  22262517.531 6       403.891 6  92561594.345 5         0.000 0
       314.326 5  22262527.559 5
 107317255.389 6  20132444.836 6     -1723.404 6  83469045.848 5         0.000 0
     -1341.230 5  20132460.590 5
 106628414.867 8  19954053.758 8      1771.473 8  82933245.793 9         0.000 0
      1377.721 9  19954062.781 9
 123806251.160 6  23233529.922 6      3464.816 6         0.000 0         0.000 0
         0.000 0         0.000 0
 124638657.682 2  23299884.840 2     -3843.463 2  96941213.896 6         0.000 0
     -2988.385 6  23299891.570 6
 113432508.188 2  21197575.504 2      3752.551 2  88225306.484 7         0.000 0
      2918.379 7  21197582.809 7
 18  5 22 15 19 18.0000000  0 12G 7G 8G16G23G26G27R 2R10R11R12R19R21
 122004987.615 4  23216776.781 4      3149.670 4  95068838.23946  23216780.30146
      2454.42646         0.000 0
 116590860.172 6  22186503.066 6      3182.326 6  90850051.84349  22186510.20749
      2479.83649         0.000 0
 109633245.856 6  20862512.723 6     -1978.223 6  85428517.00047  20862515.78147
     -1541.33847         0.000 0
 116010751.668 6  22076112.371 6     -2428.945 6  90397996.63846  22076114.39146
     -1892.76446         0.000 0
 120400803.830 1  22911512.918 1     -2891.348 1  93818835.31042  22911517.12542
     -2253.11542         0.000 0
 106726041.454 5  20309289.730 5      1004.553 5  83163174.81849  20309295.95749
       782.68649         0.000 0
 119001470.830 6  22262441.016 6       402.672 6  92561280.530 5         0.000 0
       313.186 5  22262451.328 5
 107318978.994 6  20132769.082 6     -1724.406 6  83470386.400 6         0.000 0
     -1340.887 6  20132777.246 6
 106626643.515 8  19953721.715 8      1771.016 8  82931868.071 9         0.000 0
      1377.479 9  19953730.164 9
 123802785.844 6  23232880.477 6      3464.889 6         0.000 0         0.000 0
         0.000 0         0.000 0
 124642500.422 2  23300602.828 2     -3843.021 2  96944202.747 7         0.000 0
     -2988.998 7  23300610.133 7
 113428756.037 2  21196874.063 2      3751.646 2  88222388.148 7         0.000 0
      2917.707 7  21196878.219 7
 18  5 22 15 19 19.0000000  0 12G 7G 8G16G23G26G27R 2R10R11R12R19R21
 122001838.050 4  23216177.477 4      3149.512 4  95066384.04546  23216180.71146
      2454.06346         0.000 0
 116587677.962 6  22185897.895 6      3181.777 6  90847572.19049  22185904.96549
      2479.37549         0.000 0
 109635224.242 6  20862889.016 6     -1978.480 6  85430058.59347  20862892.53947
     -1541.54747         0.000 0
 116013180.713 6  22076574.668 6     -2429.730 6  90399889.43546  22076576.19946
     -1893.34446         0.000 0
 120403694.942 1  22912062.930 1     -2891.508 1  93821088.21642  22912068.42242
     -2253.18842         0.000 0
 106725037.087 6  20309099.668 6      1003.865 6  83162392.20849  20309105.20749
       782.16649         0.000 0
 119001068.149 6  22262369.652 6       402.029 6  92560967.333 5         0.000 0
       312.693 5  22262376.668 5
 107320702.914 6  20133089.742 6     -1724.428 6  83471727.193 5         0.000 0
     -1340.307 5  20133108.363 5
 106624872.448 8  19953391.676 8      1770.955 8  82930490.582 9         0.000 0
      1377.244 9  19953397.977 9
 123799320.511 7  23232231.461 7      3465.107 7         0.000 0         0.000 0
         0.000 0         0.000 0
 124646343.550 2  23301320.816 2     -3843.182 2  96947191.829 7         0.000 0
     -2988.785 7  23301327.977 7
 113425004.328 2  21196172.480 2      3752.146 2  88219470.144 7         0.000 0
      2917.654 7  21196178.781 7
 18  5 22 15 19 20.0000000  0 12G 7G 8G16G23G26G27R 2R10R11R12R19R21
 121998688.637 4  23215577.469 4      3149.396 4  95063929.93346  23215581.11746
      2454.08846         0.000 0
 116584496.125 6  22185292.453 6      3181.838 6  90845092.84249  22185299.02049
      2479.18649         0.000 0
 109637202.983 6  20863266.184 6     -1978.889 6  85431600.46147  20863269.73447
     -1542.02947         0.000 0
 116015610.213 6  22077037.402 6     -2429.184 6  90401782.53546  22077038.47746
     -1892.88946         0.000 0
 120406586.140 2  22912613.809 2     -2890.961 2  93823341.10542  22912619.56342
     -2252.63542         0.000 0
 106724033.408 6  20308908.477 6      1003.379 6  83161610.10449  20308914.50049
       781.95749         0.000 0
 119000666.369 6  22262292.281 6       401.150 6  92560654.842 5         0.000 0
       312.189 5  22262301.305 5
 107322427.288 6  20133414.281 6     -1724.133 6  83473068.394 6         0.000 0
     -1341.102 6  20133428.891 6
 106623101.790 8  19953059.641 8      1770.408 8  82929113.394 9         0.000 0
      1377.424 9  19953066.945 9
 123795855.194 7  23231583.457 7      3465.420 7         0.000 0         0.000 0
         0.000 0         0.000 0
 124650187.133 1  23302040.246 1     -3843.199 1  96950181.295 7         0.000 0
     -2989.895 7  23302046.691 7
 113421253.156 1  21195468.758 1      3751.230 1  88216552.569 7         0.000 0
      2917.348 7  21195477.637 7
 18  5 22 15 19 21.0000000  0 12G 7G 8G16G23G26G27R 2R10R11R12R19R21
 121995539.463 4  23214978.074 4      3148.633 4  95061476.04146  23214982.22346
      2453.46946         0.000 0
 116581314.771 6  22184687.047 6      3181.133 6  90842613.87449  22184693.97349
      2478.89849         0.000 0
 109639182.137 6  20863642.535 6     -1979.496 6  85433142.67348  20863645.05148
     -1542.49248         0.000 0
 116018040.320 6  22077499.750 6     -2430.375 6  90403676.15146  22077501.32446
     -1893.84046         0.000 0
 120409477.645 2  22913163.727 2     -2891.586 2  93825594.16043  22913169.45343
     -2253.15643         0.000 0
 106723030.505 6  20308717.320 6      1002.498 6  83160828.61449  20308723.18849
       781.37749         0.000 0
 119000265.604 6  22262216.387 6       400.035 6  92560343.138 5         0.000 0
       311.471 5  22262225.840 5
 107324152.207 6  20133738.148 6     -1725.211 6  83474410.017 5         0.000 0
     -1342.426 5  20133752.328 5
 106621331.605 8  19952728.504 8      1770.074 8  82927736.601 9         0.000 0
      1376.256 9  19952737.098 9
 123792390.038 7  23230935.492 7      3464.949 7         0.000 0         0.000 0
         0.000 0         0.000 0
 124654031.275 2  23302759.289 2     -3845.430 2  96953171.172 7         0.000 0
     -2990.301 7  23302764.730 7
 113417502.598 1  21194766.797 1      3750.230 1  88213635.459 7         0.000 0
      2916.980 7  21194777.395 7
 18  5 22 15 19 22.0000000  0 12G 7G 8G16G23G26G27R 2R10R11R12R19R21
 121992390.352 4  23214378.383 4      3148.996 4  95059022.18446  23214383.72346
      2453.85746         0.000 0
 116578133.709 6  22184081.918 6      3181.359 6  90840135.12049  22184088.65649
      2478.91649         0.000 0
 109641161.563 6  20864019.160 6     -1979.074 6  85434685.08248  20864022.68048
     -1542.24048         0.000 0
 116020470.831 6  22077962.086 6     -2430.539 6  90405570.03146  22077964.10546
     -1893.92046         0.000 0
 120412369.176 2  22913713.066 2     -2891.184 2  93827847.29543  22913719.96143
     -2252.88543         0.000 0
 106722028.208 6  20308526.445 6      1002.275 6  83160047.61249  20308532.18449
       781.06349         0.000 0
 118999865.665 6  22262142.488 6       399.520 6  92560032.076 5         0.000 0
       310.707 5  22262150.078 5
 107325877.463 6  20134060.285 6     -1725.219 6  83475751.880 5         0.000 0
     -1342.115 5  20134078.332 5
 106619561.724 8  19952396.930 8      1769.871 8  82926360.015 9         0.000 0
      1376.469 9  19952404.809 9
 123788924.860 7  23230287.805 7      3465.254 7         0.000 0         0.000 0
         0.000 0         0.000 0
 124657875.705 1  23303477.746 1     -3844.520 1  96956161.281 7         0.000 0
     -2989.893 7  23303484.480 7
 113413752.461 1  21194066.254 1      3749.754 1  88210718.720 7         0.000 0
      2916.510 7  21194072.844 7
 18  5 22 15 19 23.0000000  0 13G 7G 8G16G23G26G27R 2R10R11R12R19R20
                                R21
 121989241.490 4  23213780.160 4      3148.658 4  95056568.52846  23213785.16846
      2453.44346         0.000 0
 116574953.145 6  22183476.539 6      3180.377 6  90837656.76049  22183482.73449
      2478.42449         0.000 0
 109643141.444 6  20864396.391 6     -1979.803 6  85436227.84748  20864398.95348
     -1542.77048         0.000 0
 116022901.943 6  22078425.176 6     -2431.756 6  90407464.39946  22078425.93446
     -1894.78346         0.000 0
 120415261.005 2  22914263.438 2     -2891.854 2  93830100.64543  22914270.90643
     -2253.35743         0.000 0
 106721026.695 6  20308336.602 6      1001.449 6  83159267.19849  20308341.71149
       780.51449         0.000 0
 118999466.729 6  22262067.762 6       398.477 6  92559721.804 5         0.000 0
       310.332 5  22262076.355 5
 107327603.229 6  20134387.180 6     -1725.617 6  83477094.184 5         0.000 0
     -1343.174 5  20134402.219 5
 106617792.320 8  19952066.250 8      1769.316 8  82924983.813 9         0.000 0
      1375.938 9  19952074.559 9
 123785459.779 7  23229638.145 7      3465.068 7         0.000 0         0.000 0
         0.000 0         0.000 0
 124661720.732 1  23304196.668 1     -3845.250 1  96959151.862 7         0.000 0
     -2991.361 7  23304202.543 7
 108169789.02412  20228296.770 2      -256.430 2  84132109.80517         0.000 0
      -199.16217  20228306.22317
 113410003.020 2  21193364.605 2      3749.219 2  88207802.465 7         0.000 0
      2915.918 7  21193374.344 7
 18  5 22 15 19 24.0000000  0 13G 7G 8G16G23G26G27R 2R10R11R12R19R20
                                R21
 121986092.622 4  23213180.785 4      3148.453 4  95054114.86146  23213184.62146
      2453.29346         0.000 0
 116571772.789 6  22182871.012 6      3180.211 6  90835178.56449  22182877.89549
      2477.98049         0.000 0
 109645121.499 6  20864772.906 6     -1980.125 6  85437770.74548  20864775.68448
     -1542.97948         0.000 0
 116025333.330 6  22078888.262 6     -2431.375 6  90409358.97946  22078888.71946
     -1894.36746         0.000 0
 120418152.791 1  22914813.383 1     -2891.453 1  93832353.99743  22914820.92243
     -2253.09843         0.000 0
 106720025.708 6  20308145.758 6      1001.342 6  83158487.21349  20308151.48449
       780.36349         0.000 0
 118999068.533 6  22261992.176 6       397.879 6  92559412.071 5         0.000 0
       310.064 5  22262000.484 5
 107329329.307 5  20134710.496 5     -1726.037 5  83478436.605 5         0.000 0
     -1342.172 5  20134726.684 5
 106616023.145 8  19951734.711 8      1768.875 8  82923607.786 9         0.000 0
      1375.904 9  19951744.164 9
 123781994.599 7  23228989.203 7      3465.273 7         0.000 0         0.000 0
         0.000 0         0.000 0
 124665566.024 1  23304914.160 1     -3845.379 1  96962142.621 7         0.000 0
     -2990.633 7  23304920.891 7
 108170045.931 2  20228342.500 2      -257.475 2  84132309.609 7         0.000 0
      -199.977 7  20228353.531 7
 113406253.907 2  21192666.391 2      3748.895 2  88204886.488 7         0.000 0
      2915.592 7  21192674.125 7
 18  5 22 15 19 25.0000000  0 13G 7G 8G16G23G26G27R 2R10R11R12R19R20
                                R21
 121982943.996 4  23212581.719 4      3147.402 4  95051661.39646  23212585.46546
      2452.39146         0.000 0
 116568592.958 6  22182265.504 6      3179.492 6  90832700.75649  22182272.85949
      2477.66449         0.000 0
 109647102.049 6  20865149.723 6     -1981.020 6  85439314.04048  20865153.25848
     -1543.64848         0.000 0
 116027765.371 6  22079350.504 6     -2432.191 6  90411254.09146  22079351.39146
     -1895.17246         0.000 0
 120421044.882 1  22915363.625 1     -2892.174 1  93834607.59042  22915372.35542
     -2253.66842         0.000 0
 106719025.572 6  20307956.363 6       999.686 6  83157707.90549  20307960.86749
       779.01049         0.000 0
 118998671.333 6  22261917.465 6       396.652 6  92559103.125 5         0.000 0
       309.473 5  22261925.199 5
 107331055.917 5  20135033.828 5     -1727.207 5  83479779.540 5         0.000 0
     -1342.783 5  20135049.871 5
 106614254.468 8  19951403.898 8      1768.350 8  82922232.148 9         0.000 0
      1375.371 9  19951411.633 9
 123778529.610 6  23228340.707 6      3464.475 6         0.000 0         0.000 0
         0.000 0         0.000 0
 124669416.093 1  23305631.953 1     -3850.941 1  96965129.729 7         0.000 0
     -2987.416 7  23305639.398 7
 108170304.427 1  20228388.965 1      -258.977 1  84132509.787 7         0.000 0
      -201.096 7  20228402.859 7
 113402505.438 3  21191974.348 3      3747.646 3  88201971.043 7         0.000 0
      2915.137 7  21191972.773 7
 18  5 22 15 19 26.0000000  0 13G 7G 8G16G23G26G27R 2R10R11R12R19R20
                                R21
 121979795.532 4  23211983.086 4      3148.172 4  95049208.05446  23211986.97746
      2453.11346         0.000 0
 116565413.498 6  22181660.863 6      3179.051 6  90830223.26649  22181668.24649
      2477.23449         0.000 0
 109649082.892 6  20865526.406 6     -1980.818 6  85440857.53148  20865530.05548
     -1543.31648         0.000 0
 116030197.901 6  22079813.328 6     -2432.869 6  90413149.57147  22079814.84447
     -1895.71947         0.000 0
 120423937.148 1  22915914.309 1     -2892.635 1  93836861.31942  22915923.05142
     -2253.80542         0.000 0
 106718026.101 6  20307765.398 6       999.029 6  83156929.07149  20307770.42249
       778.65849         0.000 0
 118998274.978 6  22261844.914 6       395.955 6  92558794.868 5         0.000 0
       307.910 5  22261853.648 5
 107332782.931 5  20135357.168 5     -1727.883 5  83481122.776 5         0.000 0
     -1342.844 5  20135373.641 5
 106612486.116 8  19951073.816 8      1768.143 8  82920856.768 9         0.000 0
      1375.176 9  19951080.836 9
 123775064.636 7  23227691.359 7      3464.871 7         0.000 0         0.000 0
         0.000 0         0.000 0
 124673262.629 1  23306352.762 1     -3846.502 1  96968120.880 7         0.000 0
     -2991.813 7  23306360.066 7
 108170563.323 1  20228439.445 1      -259.479 1  84132711.173 7         0.000 0
      -201.818 7  20228452.770 7
 113398757.539 3  21191266.133 3      3747.029 3  88199055.976 7         0.000 0
      2915.039 7  21191273.723 7
 18  5 22 15 19 27.0000000  0 12G 7G 8G16G23G26G27R 2R10R11R12R20R21
 121976647.220 4  23211383.977 4      3147.715 4  95046754.80546  23211387.61346
      2452.92446         0.000 0
 116562234.442 6  22181055.891 6      3178.301 6  90827746.07649  22181063.00049
      2476.59649         0.000 0
 109651064.121 6  20865903.188 6     -1981.879 6  85442401.36148  20865906.34848
     -1544.38348         0.000 0
 116032630.921 6  22080276.105 6     -2433.658 6  90415045.43247  22080278.22347
     -1896.18047         0.000 0
 120426829.534 1  22916464.086 1     -2893.053 1  93839115.13142  22916473.44542
     -2254.46342         0.000 0
 106717027.334 6  20307575.246 6       997.986 6  83156150.83949  20307581.19949
       777.55349         0.000 0
 118997879.536 6  22261770.883 6       394.816 6  92558487.307 5         0.000 0
       307.313 5  22261777.469 5
 107334510.414 5  20135683.039 5     -1727.811 5  83482466.388 5         0.000 0
     -1343.459 5  20135694.641 5
 106610718.206 8  19950742.539 8      1767.336 8  82919481.730 9         0.000 0
      1374.617 9  19950752.566 9
 123771599.750 7  23227042.965 7      3464.633 7         0.000 0         0.000 0
         0.000 0         0.000 0
 108170823.770 2  20228487.020 2      -261.201 2  84132912.822 7         0.000 0
      -202.475 7  20228501.484 7
 113395010.176 4  21190564.746 4      3746.789 4  88196141.382 7         0.000 0
      2914.227 7  21190572.480 7
 18  5 22 15 19 28.0000000  0 12G 7G 8G16G23G26G27R 2R10R11R12R20R21
 121973499.089 5  23210784.535 5      3147.789 5  95044301.74746  23210788.77346
      2452.81646         0.000 0
 116559055.769 6  22180451.438 6      3178.063 6  90825269.18749  22180457.70749
      2476.35249         0.000 0
 109653045.703 6  20866280.777 6     -1982.332 6  85443945.45647  20866283.69547
     -1544.66847         0.000 0
 116035064.446 6  22080739.406 6     -2433.621 6  90416941.67247  22080741.05547
     -1896.25047         0.000 0
 120429722.152 1  22917014.676 1     -2892.605 1  93841369.08142  22917023.83242
     -2253.69142         0.000 0
 106716029.268 6  20307384.906 6       997.631 6  83155373.10849  20307391.03149
       777.36549         0.000 0
 118997484.991 6  22261695.941 6       394.250 6  92558180.441 6         0.000 0
       306.660 6  22261701.957 6
 107336238.322 5  20136006.430 5     -1727.615 5  83483810.323 5         0.000 0
     -1343.684 5  20136020.895 5
 106608950.725 8  19950410.500 8      1767.180 8  82918107.014 9         0.000 0
      1374.492 9  19950420.523 9
 123768134.918 6  23226394.383 6      3464.477 6         0.000 0         0.000 0
         0.000 0         0.000 0
 108171084.645 1  20228538.410 1      -261.611 1  84133115.728 7         0.000 0
      -203.518 7  20228549.012 7
 113391263.388 4  21189863.738 4      3746.027 4  88193227.207 7         0.000 0
      2913.633 7  21189872.621 7
 18  5 22 15 19 29.0000000  0 13G 7G 8G16G23G26G27R 2R10R11R12R19R20
                                R21
 121970350.964 5  23210185.367 5      3147.820 5  95041848.64647  23210189.17647
      2452.90047         0.000 0
 116555877.330 6  22179846.691 6      3177.625 6  90822792.48049  22179852.78549
      2476.06449         0.000 0
 109655027.499 6  20866658.066 6     -1982.672 6  85445489.72147  20866661.19947
     -1544.89547         0.000 0
 116037498.327 6  22081201.980 6     -2434.449 6  90418838.21547  22081204.38347
     -1897.14147         0.000 0
 120432614.745 1  22917565.680 1     -2893.258 1  93843623.06342  22917573.49242
     -2254.62342         0.000 0
 106715031.763 6  20307194.836 6       996.197 6  83154595.84249  20307201.93449
       776.26049         0.000 0
 118997091.240 6  22261620.703 6       393.229 6  92557874.205 6         0.000 0
       305.086 6  22261631.875 6
 107337966.556 6  20136331.523 6     -1728.482 6  83485154.503 5         0.000 0
     -1344.262 5  20136345.129 5
 106607183.480 8  19950080.020 8      1766.334 8  82916732.494 9         0.000 0
      1373.992 9  19950088.043 9
 123764670.016 7  23225746.789 7      3463.865 7         0.000 0         0.000 0
         0.000 0         0.000 0
 124684804.44113  23308512.930 3     -3848.408 3  96977096.94717         0.000 0
     -2993.36517  23308516.94117
 108171346.338 2  20228587.926 2      -262.965 2  84133319.278 7         0.000 0
      -203.393 7  20228598.098 7
 113387516.971 4  21189164.727 4      3745.572 4  88190313.344 7         0.000 0
      2912.625 7  21189172.316 7
 18  5 22 15 19 30.0000000  0 13G 7G 8G16G23G26G27R 2R10R11R12R19R20
                                R21
 121967202.881 5  23209586.887 5      3147.742 5  95039395.59347  23209590.20747
      2452.84447         0.000 0
 116552699.212 6  22179242.199 6      3177.352 6  90820316.02449  22179248.35249
      2476.06649         0.000 0
 109657009.582 6  20867035.188 6     -1983.002 6  85447034.19047  20867038.04747
     -1545.08647         0.000 0
 116039932.614 6  22081665.672 6     -2434.703 6  90420735.06147  22081667.43047
     -1897.19547         0.000 0
 120435507.314 1  22918116.082 1     -2893.453 1  93845877.02042  22918123.46542
     -2254.67842         0.000 0
 106714034.818 6  20307006.027 6       996.275 6  83153819.01249  20307011.62149
       776.14549         0.000 0
 118996698.342 6  22261548.152 6       391.936 6  92557568.593 5         0.000 0
       305.318 5  22261557.031 5
 107339695.124 5  20136655.723 5     -1729.146 5  83486498.945 5         0.000 0
     -1343.873 5  20136668.039 5
 106605416.476 8  19949751.512 8      1766.844 8  82915358.153 9         0.000 0
      1373.945 9  19949759.820 9
 123761205.022 6  23225096.152 6      3464.445 6         0.000 0         0.000 0
         0.000 0         0.000 0
 124688651.644 1  23309223.859 1     -3848.814 1  96980089.180 7         0.000 0
     -2993.271 7  23309235.176 7
 108171608.953 1  20228640.273 1      -263.791 1  84133523.548 7         0.000 0
      -204.660 7  20228646.863 7
 113383799.781 4  21188461.953 4      3691.340 4  88187400.271 8         0.000 0
      2914.039 8  21188471.262 8
 18  5 22 15 19 31.0000000  0 11G 7G 8G16G23G27R 2R10R11R12R19R20
 121964054.925 5  23208987.891 5      3148.961 5  95036942.63647  23208990.29747
      2453.77147         0.000 0
 116549521.416 6  22178637.766 6      3178.082 6  90817839.83149  22178643.84849
      2476.38949         0.000 0
 109658991.953 5  20867412.223 5     -1982.018 5  85448578.91647  20867415.52747
     -1544.39547         0.000 0
 116042367.297 6  22082128.992 6     -2433.561 6  90422632.18247  22082131.53947
     -1896.13347         0.000 0
 106713038.547 6  20306816.277 6       996.459 6  83153042.67649  20306822.10249
       776.40649         0.000 0
 118996306.254 6  22261474.520 6       392.393 6  92557263.661 5         0.000 0
       304.779 5  22261484.832 5
 107341424.115 5  20136979.273 5     -1728.809 5  83487843.723 5         0.000 0
     -1344.549 5  20136989.871 5
 106603649.802 8  19949419.492 8      1766.850 8  82913984.077 9         0.000 0
      1374.168 9  19949426.938 9
 123757740.054 7  23224448.160 7      3465.291 7         0.000 0         0.000 0
         0.000 0         0.000 0
 124692499.341 3  23309944.020 3     -3847.324 3  96983082.688 7         0.000 0
     -2993.109 7  23309956.766 7
 108171872.532 1  20228688.531 1      -263.080 1  84133728.541 6         0.000 0
      -205.436 6  20228699.703 6
 18  5 22 15 19 32.0000000  0 11G 7G 8G16G23G27R 2R10R11R12R19R20
 121960907.184 6  23208389.230 6      3147.492 6  95034489.85547  23208393.10947
      2452.65447         0.000 0
 116546344.034 7  22178032.953 7      3176.926 7  90815363.93849  22178039.00449
      2475.36949         0.000 0
 109660974.707 6  20867789.875 6     -1983.371 6  85450123.92647  20867793.16847
     -1545.37547         0.000 0
 116044802.672 3  22082592.645 3     -2435.480 3  90424529.83146  22082595.75046
     -1897.52546         0.000 0
 106712043.095 6  20306626.715 6       994.951 6  83152266.95849  20306632.18049
       775.30949         0.000 0
 118995915.044 6  22261404.371 6       390.924 6  92556959.425 5         0.000 0
       303.666 5  22261411.961 5
 107343153.566 6  20137302.867 6     -1730.023 6  83489188.877 5         0.000 0
     -1345.252 5  20137317.621 5
 106601883.553 8  19949088.086 8      1766.061 8  82912610.378 9         0.000 0
      1373.705 9  19949097.684 9
 123754275.161 6  23223799.500 6      3464.607 6         0.000 0         0.000 0
         0.000 0         0.000 0
 124696347.965 2  23310663.938 2     -3849.441 2  96986076.032 5         0.000 0
     -2992.951 5  23310674.680 5
 108172137.094 3  20228734.113 3      -265.016 3  84133934.326 7         0.000 0
      -206.395 7  20228745.715 7
 18  5 22 15 19 33.0000000  0 11G 7G 8G16G23G27R 2R10R11R12R19R20
 121957759.479 6  23207790.000 6      3148.012 6  95032037.04647  23207794.26247
      2453.09647         0.000 0
 116543166.938 6  22177427.996 6      3176.957 6  90812888.33749  22177434.26649
      2475.30349         0.000 0
 109662957.685 5  20868167.391 5     -1983.047 5  85451669.10547  20868171.01247
     -1545.05347         0.000 0
 116047238.263 2  22083056.297 2     -2436.289 2  90426427.56745  22083058.33245
     -1898.45145         0.000 0
 106711048.074 6  20306437.297 6       994.592 6  83151491.64249  20306443.63749
       775.00849         0.000 0
 118995524.680 6  22261330.359 6       390.719 6  92556655.824 6         0.000 0
       303.207 6  22261338.953 6
 107344883.323 6  20137626.609 6     -1729.994 6  83490534.269 5         0.000 0
     -1345.652 5  20137644.656 5
 106600117.635 8  19948758.406 8      1765.816 8  82911236.862 9         0.000 0
      1373.850 9  19948766.281 9
 123750810.188 5  23223150.980 5      3465.145 5         0.000 0         0.000 0
         0.000 0         0.000 0
 124700197.073 2  23311385.578 2     -3847.109 2  96989069.721 5         0.000 0
     -2993.215 5  23311394.742 5
 108172402.463 2  20228782.707 2      -265.455 2  84134140.745 7         0.000 0
      -207.049 7  20228794.023 7
 18  5 22 15 19 34.0000000  0  9G 7G 8G16G27R 2R10R11R12R20
 121954612.482 6  23207191.176 6      3146.689 6  95029584.83047  23207194.93847
      2452.10547         0.000 0
 116539990.887 5  22176823.879 5      3175.830 5  90810413.44949  22176829.75849
      2474.78149         0.000 0
 109664941.528 6  20868544.594 6     -1984.076 6  85453214.94147  20868547.37147
     -1545.88747         0.000 0
 106710054.439 7  20306249.578 7       993.270 7  83150717.35949  20306254.30149
       773.95949         0.000 0
 118995135.847 6  22261256.180 6       388.336 6  92556353.349 6         0.000 0
       301.586 6  22261264.773 6
 107346614.095 6  20137952.480 6     -1731.127 6  83491880.421 5         0.000 0
     -1346.100 5  20137970.957 5
 106598352.695 8  19948427.984 8      1764.975 8  82909864.151 8         0.000 0
      1372.563 8  19948437.008 8
 123747345.923 6  23222500.867 6      3464.537 6         0.000 0         0.000 0
         0.000 0         0.000 0
 108172669.381 1  20228834.285 1      -267.527 1  84134348.373 7         0.000 0
      -207.518 7  20228844.598 7
 18  5 22 15 19 35.0000000  0  8G 7G 8G16G27R 2R10R11R12
 121951465.810 6  23206593.090 6      3146.400 6  95027132.91347  23206596.62547
      2451.91247         0.000 0
 116536815.259 5  22176219.070 5      3174.525 5  90807938.96848  22176225.52348
      2473.61148         0.000 0
 109666925.969 6  20868922.113 6     -1984.658 6  85454761.23747  20868925.00447
     -1546.31347         0.000 0
 106709061.646 6  20306059.160 6       991.730 6  83149943.76149  20306065.00049
       772.80949         0.000 0
 118994747.990 6  22261183.027 6       387.361 6  92556051.664 7         0.000 0
       301.568 7  22261191.191 7
 107348345.504 5  20138278.516 5     -1731.068 5  83493227.116 5         0.000 0
     -1346.195 5  20138294.129 5
 106596588.270 7  19948098.020 7      1763.863 7  82908491.780 9         0.000 0
      1372.113 9  19948106.754 9
 123743881.852 4  23221854.934 4      3463.484 4         0.000 0         0.000 0
         0.000 0         0.000 0
 18  5 22 15 19 36.0000000  0  8G 7G 8G16G27R 2R10R11R12
 121948318.435 6  23205993.832 6      3146.801 6  95024680.42047  23205996.93847
      2452.10747         0.000 0
 116533639.240 5  22175614.656 5      3175.336 5  90805464.13848  22175621.19548
      2474.10048         0.000 0
 109668909.902 6  20869299.313 6     -1984.961 6  85456307.18848  20869303.06348
     -1546.74448         0.000 0
 106708068.686 6  20305870.578 6       992.248 6  83149170.02449  20305876.77349
       773.27749         0.000 0
 118994360.217 6  22261110.563 6       387.104 6  92555750.109 6         0.000 0
       300.615 6  22261118.152 6
 107350076.536 5  20138602.086 5     -1731.949 5  83494573.419 5         0.000 0
     -1346.602 5  20138616.266 5
 106594823.327 7  19947767.879 7      1764.408 7  82907119.095 9         0.000 0
      1372.471 9  19947776.902 9
 123740416.938 5  23221206.676 5      3464.244 5         0.000 0         0.000 0
         0.000 0         0.000 0
 18  5 22 15 19 37.0000000  0  9G 7G 8G16G27R 2R10R11R12R21
 121945170.903 6  23205394.063 6      3146.766 6  95022227.76247  23205397.87147
      2452.17247         0.000 0
 116530463.289 5  22175010.453 5      3175.848 5  90802989.35748  22175016.53548
      2474.67248         0.000 0
 109670893.843 6  20869677.148 6     -1984.859 6  85457853.08548  20869680.56648
     -1546.69748         0.000 0
 106707076.065 6  20305681.625 6       991.727 6  83148396.57049  20305687.09449
       772.83649         0.000 0
 118993972.951 7  22261037.590 7       386.568 7  92555448.892 6         0.000 0
       300.430 6  22261044.320 6
 107351807.672 5  20138925.293 5     -1732.135 5  83495919.861 5         0.000 0
     -1346.650 5  20138943.055 5
 106593058.522 7  19947437.375 7      1764.205 7  82905746.453 8         0.000 0
      1372.150 8  19947447.258 8
 123736951.813 6  23220555.617 6      3464.217 6         0.000 0         0.000 0
         0.000 0         0.000 0
 113357590.355 5  21183565.914 5      3742.291 5  88167015.941 7         0.000 0
      2910.354 7  21183575.941 7
 18  5 22 15 19 38.0000000  0 10G 7G 8G 9G16G27R 2R10R11R12R21
 121942023.936 6  23204794.922 6      3146.996 6  95019775.62547  23204799.66047
      2452.11547         0.000 0
 116527288.205 5  22174405.449 5      3175.102 5  90800515.24547  22174413.05947
      2474.04947         0.000 0
 113319460.881 6  21563976.598 6      -432.537 6         0.000 0         0.000 0
         0.000 0         0.000 0
 109672878.602 5  20870055.469 5     -1984.824 5  85459399.65348  20870057.35948
     -1546.69748         0.000 0
 106706084.647 7  20305493.160 7       990.471 7  83147624.03049  20305499.09849
       771.76249         0.000 0
 118993587.063 7  22260965.672 7       385.684 7  92555148.765 6         0.000 0
       299.904 6  22260974.980 6
 107353539.679 5  20139249.125 5     -1732.412 5  83497267.022 5         0.000 0
     -1348.291 5  20139269.035 5
 106591294.581 8  19947107.066 8      1763.672 8  82904374.527 8         0.000 0
      1371.955 8  19947116.520 8
 123733487.188 6  23219910.344 6      3464.504 6         0.000 0         0.000 0
         0.000 0         0.000 0
 113353848.614 3  21182868.219 3      3741.133 3  88164105.692 7         0.000 0
      2910.295 7  21182877.098 7
 18  5 22 15 19 39.0000000  0 12G 7G 8G 9G16G23G27R 1R 2R10R11R12R21
 121938877.151 6  23204196.238 6      3146.785 6  95017323.58347  23204200.31647
      2452.13547         0.000 0
 116524113.499 4  22173800.469 4      3175.145 4  90798041.48847  22173808.64147
      2474.20547         0.000 0
 113319893.661 6  21564059.602 6      -433.141 6  88301243.48047  21564065.39847
      -337.55547         0.000 0
 109674863.684 6  20870432.816 6     -1985.211 6  85460946.50048  20870436.02048
     -1546.87348         0.000 0
 116061863.548 1  22085839.289 1     -2438.514 1  90437824.11343  22085841.02043
     -1900.07643         0.000 0
 106705093.925 7  20305304.723 7       990.904 7  83146852.03849  20305310.73049
       772.32849         0.000 0
 120926590.03516  22693846.680 6     -3328.605 6  94058609.20116         0.000 0
     -2589.07416  22693856.13316
 118993202.036 6  22260894.500 6       385.061 6  92554849.301 6         0.000 0
       299.336 6  22260902.809 6
 107355272.046 6  20139576.855 6     -1732.000 6  83498614.404 5         0.000 0
     -1348.232 5  20139594.328 5
 106589531.008 8  19946778.219 8      1763.479 8  82903002.840 8         0.000 0
      1371.445 8  19946785.953 8
 123730022.573 5  23219259.367 5      3464.447 5         0.000 0         0.000 0
         0.000 0         0.000 0
 113350107.002 2  21182168.832 2      3744.260 2  88161196.454 7         0.000 0
      2906.191 7  21182177.566 7
 18  5 22 15 19 40.0000000  0 10G 7G 9G16G23G27R 1R 2R10R11R12
 121935730.604 6  23203597.723 6      3146.898 6  95014871.71847  23203601.64547
      2451.97347         0.000 0
 113320327.229 6  21564142.059 6      -434.217 6  88301581.35148  21564148.27048
      -338.18648         0.000 0
 109676849.252 6  20870810.613 6     -1985.918 6  85462493.68348  20870813.41848
     -1547.40448         0.000 0
 116064302.788 3  22086303.516 3     -2440.625 3  90439724.78944  22086304.07044
     -1901.62344         0.000 0
 106704103.960 7  20305116.305 7       989.260 7  83146080.64849  20305121.87149
       770.84049         0.000 0
 120929919.181 5  22694469.199 5     -3329.332 5  94061198.508 6         0.000 0
     -2589.822 6  22694476.363 6
 118992818.088 6  22260820.773 6       383.533 6  92554550.705 6         0.000 0
       297.906 6  22260832.230 6
 107357005.021 5  20139903.316 5     -1733.098 5  83499962.303 5         0.000 0
     -1348.297 5  20139918.500 5
 106587767.905 7  19946446.816 7      1762.869 7  82901631.499 8         0.000 0
      1371.205 8  19946455.125 8
 123726558.152 4  23218610.133 4      3464.404 4         0.000 0         0.000 0
         0.000 0         0.000 0
 18  5 22 15 19 41.0000000  0 10G 7G 9G16G23G27R 1R 2R10R11R12
 121932583.868 5  23202998.133 5      3147.205 5  95012419.77247  23203003.22747
      2452.30147         0.000 0
 113320761.109 6  21564224.590 6      -433.971 6  88301919.44348  21564230.81348
      -338.05348         0.000 0
 109678834.808 6  20871188.484 6     -1985.242 6  85464040.83448  20871191.78948
     -1546.96148         0.000 0
 116066741.980 3  22086768.098 3     -2439.031 3  90441625.43243  22086767.99643
     -1900.47743         0.000 0
 106703114.303 7  20304927.961 7       989.840 7  83145309.46749  20304933.16849
       771.26449         0.000 0
 120933248.357 5  22695092.797 5     -3329.004 5  94063787.813 6         0.000 0
     -2588.889 6  22695098.527 6
 118992434.735 7  22260750.266 7       383.842 7  92554252.482 7         0.000 0
       298.645 7  22260759.863 7
 107358738.074 6  20140227.844 6     -1732.771 6  83501310.212 6         0.000 0
     -1347.754 6  20140245.176 6
 106586004.765 7  19946117.637 7      1763.119 7  82900260.210 8         0.000 0
      1371.340 8  19946126.660 8
 123723093.407 4  23217963.121 4      3465.553 4         0.000 0         0.000 0
         0.000 0         0.000 0
 18  5 22 15 19 42.0000000  0 10G 7G 9G16G23G27R 1R 2R10R11R12
 121929437.222 6  23202399.867 6      3146.832 6  95009967.82747  23202405.26247
      2452.17647         0.000 0
 113321195.621 6  21564307.871 6      -434.752 6  88302258.01948  21564313.03948
      -338.78348         0.000 0
 109680820.604 6  20871566.109 6     -1985.945 6  85465588.20849  20871569.81649
     -1547.43849         0.000 0
 116069181.762 2  22087232.148 2     -2440.828 2  90443526.54543  22087232.73843
     -1901.73443         0.000 0
 106702125.310 7  20304739.656 7       989.174 7  83144538.80749  20304744.82049
       770.74849         0.000 0
 120936577.915 5  22695714.715 5     -3329.865 5  94066377.519 5         0.000 0
     -2589.678 5  22695723.598 5
 118992052.125 7  22260678.941 7       382.414 7  92553954.941 6         0.000 0
       297.660 6  22260687.965 6
 107360471.463 6  20140553.703 6     -1733.652 6  83502658.384 6         0.000 0
     -1348.504 6  20140567.309 6
 106584241.938 7  19945787.922 7      1762.902 7  82898889.128 8         0.000 0
      1371.000 8  19945794.508 8
 123719628.696 3  23217312.852 3      3465.043 3         0.000 0         0.000 0
         0.000 0         0.000 0
 18  5 22 15 19 43.0000000  0 10G 7G 9G16G23G27R 1R 2R10R11R12
 121926290.998 5  23201802.336 5      3146.021 5  95007516.21347  23201806.64547
      2451.64347         0.000 0
 113321631.133 6  21564390.313 6      -436.266 6  88302597.38649  21564396.30949
      -339.93949         0.000 0
 109682807.046 7  20871944.320 7     -1986.715 7  85467136.10049  20871947.94149
     -1548.08649         0.000 0
 116071622.238 1  22087695.500 1     -2440.777 1  90445428.22443  22087696.30143
     -1901.83643         0.000 0
 106701137.310 6  20304551.938 6       987.545 6  83143768.93849  20304557.69149
       769.55349         0.000 0
 120939908.272 4  22696337.930 4     -3331.178 4  94068967.790 5         0.000 0
     -2590.969 5  22696347.098 5
 118991670.760 7  22260606.480 7       380.914 7  92553658.314 6         0.000 0
       296.262 6  22260615.648 6
 107362205.591 6  20140877.563 6     -1734.133 6  83504007.174 5         0.000 0
     -1348.926 5  20140893.031 5
 106582479.864 7  19945457.500 7      1761.914 7  82897518.615 8         0.000 0
      1370.143 8  19945464.516 8
 123716164.295 4  23216664.168 4      3464.205 4         0.000 0         0.000 0
         0.000 0         0.000 0
 18  5 22 15 19 44.0000000  0 10G 7G 9G16G23G27R 1R 2R10R11R12
 121923144.924 5  23201203.496 5      3145.906 5  95005064.76147  23201207.24647
      2451.24247         0.000 0
 113322067.346 6  21564473.020 6      -436.613 6  88302937.28049  21564478.80149
      -340.18649         0.000 0
 109684793.845 6  20872322.371 6     -1986.732 6  85468684.23649  20872325.54749
     -1548.05749         0.000 0
 116074063.307 1  22088160.551 1     -2442.182 1  90447330.37743  22088161.06643
     -1902.92043         0.000 0
 106700149.969 6  20304364.059 6       987.156 6  83142999.59449  20304369.61349
       769.15049         0.000 0
 120943239.072 4  22696961.137 4     -3331.135 4  94071558.389 5         0.000 0
     -2590.764 5  22696972.449 5
 118991290.251 7  22260534.578 7       380.117 7  92553362.365 6         0.000 0
       295.080 6  22260544.605 6
 107363940.165 6  20141201.840 6     -1734.891 6  83505356.324 5         0.000 0
     -1350.400 5  20141218.027 5
 106580718.158 7  19945128.066 7      1761.566 7  82896148.402 8         0.000 0
      1370.191 8  19945136.230 8
 123712699.931 5  23216013.609 5      3464.404 5         0.000 0         0.000 0
         0.000 0         0.000 0
 18  5 22 15 19 45.0000000  0 11G 7G 9G16G23G27R 1R 2R10R11R12R20
 121919998.944 5  23200604.367 5      3146.057 5  95002613.32647  23200607.88747
      2451.51847         0.000 0
 113322504.192 6  21564556.438 6      -437.225 6  88303277.68849  21564562.13349
      -340.61349         0.000 0
 109686780.927 5  20872700.984 5     -1987.109 5  85470232.64048  20872704.02048
     -1548.46548         0.000 0
 116076504.737 1  22088625.309 1     -2441.895 1  90449232.80343  22088626.18043
     -1902.78143         0.000 0
 106699163.280 7  20304176.461 7       986.955 7  83142230.73749  20304181.38349
       769.05549         0.000 0
 120946570.305 5  22697583.043 5     -3331.824 5  94074149.364 5         0.000 0
     -2591.660 5  22697594.789 5
 118990910.533 7  22260462.242 7       379.252 7  92553067.050 6         0.000 0
       294.652 6  22260473.273 6
 107365675.155 5  20141529.121 5     -1735.229 5  83506705.766 5         0.000 0
     -1350.125 5  20141545.020 5
 106578956.800 7  19944798.484 7      1761.152 7  82894778.465 8         0.000 0
      1369.959 8  19944805.219 8
 123709235.581 5  23215365.336 5      3464.086 5         0.000 0         0.000 0
         0.000 0         0.000 0
 108175662.68612  20229393.605 2      -277.510 2  84136677.24816         0.000 0
      -215.26816  20229406.92616
 18  5 22 15 19 46.0000000  0 11G 7G 9G16G23G27R 1R 2R10R11R12R20
 121916852.715 5  23200006.199 5      3146.238 5  95000161.72447  23200009.80547
      2451.59847         0.000 0
 113322941.343 7  21564639.816 7      -437.455 7  88303618.30049  21564646.35549
      -340.78949         0.000 0
 109688767.985 5  20873078.848 5     -1986.891 5  85471781.02048  20873082.45348
     -1548.46548         0.000 0
 116078946.270 3  22089089.598 3     -2441.578 3  90451135.26543  22089089.94143
     -1902.44943         0.000 0
 106698176.907 7  20303988.535 7       986.393 7  83141462.14549  20303993.58649
       768.43249         0.000 0
 120949901.547 5  22698207.492 5     -3331.514 5  94076740.353 6         0.000 0
     -2591.232 6  22698219.664 6
 118990531.317 6  22260392.586 6       378.639 6  92552772.092 5         0.000 0
       294.582 5  22260402.328 5
 107367410.210 5  20141853.785 5     -1735.084 5  83508055.203 5         0.000 0
     -1350.311 5  20141869.684 5
 106577195.376 8  19944468.148 8      1761.471 8  82893408.484 8         0.000 0
      1369.387 8  19944478.031 8
 123705770.884 5  23214719.605 5      3464.059 5         0.000 0         0.000 0
         0.000 0         0.000 0
 108175940.292 2  20229445.270 2      -278.277 2  84136893.170 6         0.000 0
      -216.318 6  20229454.863 6
 18  5 22 15 19 47.0000000  0 11G 7G 9G16G23G27R 1R 2R10R11R12R20
 121913706.959 6  23199407.145 6      3145.914 6  94997710.50547  23199411.50847
      2451.43847         0.000 0
 113323379.423 7  21564723.168 7      -437.838 7  88303959.67749  21564729.09449
      -341.18249         0.000 0
 109690755.640 5  20873457.254 5     -1987.176 5  85473329.79347  20873460.68847
     -1548.46747         0.000 0
 116081388.588 2  22089554.145 2     -2442.020 2  90453038.32543  22089557.20743
     -1902.92043         0.000 0
 106697191.478 6  20303800.871 6       985.523 6  83140694.27049  20303806.55549
       767.88349         0.000 0
 120953233.556 5  22698832.055 5     -3332.271 5  94079331.874 5         0.000 0
     -2591.297 5  22698844.230 5
 118990153.269 7  22260322.621 7       378.311 7  92552478.072 5         0.000 0
       293.756 5  22260332.074 5
 107369145.948 6  20142179.711 6     -1735.432 6  83509405.180 5         0.000 0
     -1350.082 5  20142194.035 5
 106575434.592 8  19944139.363 8      1761.102 8  82892038.966 8         0.000 0
      1369.830 8  19944147.668 8
 123702306.456 5  23214072.414 5      3465.039 5         0.000 0         0.000 0
         0.000 0         0.000 0
 108176219.123 2  20229496.762 2      -278.979 2  84137110.008 6         0.000 0
      -216.539 6  20229508.219 6
 18  5 22 15 19 48.0000000  0 11G 7G 9G16G23G27R 1R 2R10R11R12R20
 121910561.478 6  23198808.840 6      3145.402 6  94995259.47447  23198812.66047
      2450.94947         0.000 0
 113323818.387 7  21564807.410 7      -438.996 7  88304301.71149  21564812.63349
      -341.96349         0.000 0
 109692743.818 5  20873834.691 5     -1987.824 5  85474879.02247  20873837.64147
     -1548.87747         0.000 0
 116083831.543 2  22090019.297 2     -2443.197 2  90454941.94243  22090020.58643
     -1904.05343         0.000 0
 106696206.925 6  20303613.383 6       984.150 6  83139927.09049  20303618.84849
       766.94549         0.000 0
 120956566.191 5  22699455.793 5     -3333.080 5  94081923.948 5         0.000 0
     -2592.002 5  22699463.238 5
 118989776.327 7  22260250.250 7       376.816 7  92552184.905 5         0.000 0
       292.484 5  22260257.699 5
 107370882.306 6  20142504.234 6     -1735.986 6  83510755.665 5         0.000 0
     -1350.221 5  20142521.422 5
 106573674.380 8  19943809.461 8      1760.234 8  82890669.908 8         0.000 0
      1369.398 8  19943818.340 8
 123698842.274 5  23213422.242 5      3464.484 5         0.000 0         0.000 0
         0.000 0         0.000 0
 108176499.105 2  20229548.430 2      -279.924 2  84137327.784 6         0.000 0
      -217.537 6  20229561.320 6
 18  5 22 15 19 49.0000000  0 11G 7G 9G16G23G27R 1R 2R10R11R12R20
 121907416.279 6  23198210.551 6      3145.002 6  94992808.66746  23198212.65246
      2450.77746         0.000 0
 113324258.153 7  21564890.527 7      -439.785 7  88304644.38349  21564896.12149
      -342.50649         0.000 0
 109694732.451 5  20874213.148 5     -1988.439 5  85476428.62847  20874215.62547
     -1549.52047         0.000 0
 116086275.116 2  22090483.898 2     -2443.596 2  90456846.05743  22090485.25843
     -1904.20743         0.000 0
 106695223.156 6  20303426.629 6       983.789 6  83139160.50249  20303431.77749
       766.55749         0.000 0
 120959899.387 5  22700079.117 5     -3333.053 5  94084516.423 6         0.000 0
     -2592.332 6  22700087.281 6
 118989400.445 7  22260181.477 7       375.652 7  92551892.552 5         0.000 0
       291.900 5  22260187.063 5
 107372619.180 6  20142829.496 6     -1736.291 6  83512106.551 5         0.000 0
     -1350.434 5  20142847.543 5
 106571914.723 8  19943480.148 8      1759.656 8  82889301.276 8         0.000 0
      1369.010 8  19943488.457 8
 123695378.256 5  23212773.813 5      3464.160 5         0.000 0         0.000 0
         0.000 0         0.000 0
 108176780.183 2  20229602.836 2      -281.186 2  84137546.424 6         0.000 0
      -219.000 6  20229614.582 6
 18  5 22 15 19 50.0000000  0 11G 7G 9G16G23G27R 1R 2R10R11R12R20
 121904271.197 6  23197611.852 6      3145.920 6  94990357.94946  23197615.08646
      2451.23246         0.000 0
 113324698.644 7  21564974.664 7      -440.801 7  88304987.62549  21564980.11749
      -343.41849         0.000 0
 109696721.464 5  20874592.059 5     -1988.732 5  85477978.48847  20874594.80547
     -1549.62947         0.000 0
 116088719.181 2  22090948.230 2     -2443.908 2  90458750.55944  22090949.94944
     -1904.41444         0.000 0
 106694240.119 6  20303239.320 6       983.281 6  83138394.51049  20303244.31349
       766.25249         0.000 0
 120963233.085 5  22700702.320 5     -3334.012 5  94087109.295 5         0.000 0
     -2592.445 5  22700709.336 5
 118989025.452 7  22260111.152 7       375.592 7  92551600.885 5         0.000 0
       291.006 5  22260117.168 5
 107374356.537 6  20143155.922 6     -1737.133 6  83513457.826 5         0.000 0
     -1350.918 5  20143173.824 5
 106570155.466 8  19943150.430 8      1759.322 8  82887932.954 8         0.000 0
      1368.271 8  19943159.598 8
 123691914.311 5  23212125.113 5      3464.139 5         0.000 0         0.000 0
         0.000 0         0.000 0
 108177062.271 2  20229656.262 2      -283.102 2  84137765.813 6         0.000 0
      -220.070 6  20229667.148 6
 18  5 22 15 19 51.0000000  0 12G 7G 9G16G23G27R 1R 2R10R11R12R20R21
 121901126.425 6  23197013.172 6      3144.371 6  94987907.47046  23197016.98046
      2450.31346         0.000 0
 113325139.846 7  21565058.102 7      -441.570 7  88305331.41949  21565063.61349
      -344.04549         0.000 0
 109698710.879 5  20874970.266 5     -1989.891 5  85479528.70547  20874974.23047
     -1550.51247         0.000 0
 116091163.777 1  22091414.582 1     -2444.697 1  90460655.45843  22091414.88343
     -1904.92643         0.000 0
 106693257.812 6  20303052.031 6       981.947 6  83137629.08149  20303057.79749
       765.15449         0.000 0
 120966567.293 5  22701324.535 5     -3334.705 5  94089702.571 6         0.000 0
     -2593.445 6  22701333.273 6
 118988651.404 7  22260041.699 7       373.611 7  92551309.960 5         0.000 0
       289.986 5  22260045.996 5
 107376094.340 6  20143484.082 6     -1737.648 6  83514809.446 5         0.000 0
     -1351.625 5  20143498.262 5
 106568396.583 8  19942822.016 8      1759.119 8  82886564.955 8         0.000 0
      1368.092 8  19942831.613 8
 123688450.434 5  23211478.441 5      3463.701 5         0.000 0         0.000 0
         0.000 0         0.000 0
 108177345.369 2  20229709.418 2      -284.029 2  84137985.960 7         0.000 0
      -220.172 7  20229720.879 7
 113305186.68713  21173787.043 3      3733.570 3  88126310.68316         0.000 0
      2903.93216  21173793.48816
 18  5 22 15 19 52.0000000  0 12G 7G 9G16G23G27R 1R 2R10R11R12R20R21
 121897981.544 5  23196414.332 5      3145.416 5  94985456.88846  23196417.08246
      2450.96546         0.000 0
 113325581.551 6  21565141.953 6      -441.502 6  88305675.61849  21565148.45349
      -344.19349         0.000 0
 109700700.434 5  20875349.031 5     -1989.646 5  85481078.99747  20875352.50847
     -1550.40647         0.000 0
 116093608.713 1  22091881.063 1     -2445.721 1  90462560.60243  22091880.90643
     -1905.60243         0.000 0
 106692276.006 6  20302864.723 6       981.723 6  83136864.03749  20302870.74649
       764.86949         0.000 0
 120969901.758 5  22701948.168 5     -3334.303 5  94092296.024 6         0.000 0
     -2592.793 6  22701958.910 6
 118988278.058 7  22259971.230 7       372.842 7  92551019.568 5         0.000 0
       290.854 5  22259976.672 5
 107377832.422 6  20143809.074 6     -1738.184 6  83516161.256 5         0.000 0
     -1351.637 5  20143822.395 5
 106566637.925 8  19942492.727 8      1758.602 8  82885197.085 8         0.000 0
      1367.787 8  19942502.609 8
 123684986.493 5  23210828.598 5      3463.418 5         0.000 0         0.000 0
         0.000 0         0.000 0
 108177629.207 2  20229762.129 2      -284.623 2  84138206.755 7         0.000 0
      -220.438 7  20229775.305 7
 113301452.372 3  21173088.645 3      3735.340 3  88123406.263 7         0.000 0
      2904.408 7  21173095.234 7
 18  5 22 15 19 53.0000000  0 12G 7G 9G16G23G27R 1R 2R10R11R12R20R21
 121894836.748 5  23195815.637 5      3144.316 5  94983006.40746  23195819.03946
      2450.29146         0.000 0
 113326023.830 6  21565225.805 6      -442.680 6  88306020.25149  21565232.14549
      -345.10249         0.000 0
 109702690.209 6  20875728.078 6     -1990.336 6  85482629.48948  20875731.55548
     -1550.96148         0.000 0
 116096054.132 2  22092345.824 2     -2445.531 2  90464466.09143  22092345.95343
     -1905.59243         0.000 0
 106691294.802 6  20302678.699 6       980.662 6  83136099.47749  20302684.00849
       764.11949         0.000 0
 120973236.536 4  22702571.512 4     -3335.109 4  94094889.771 5         0.000 0
     -2593.797 5  22702582.539 5
 118987905.515 7  22259902.477 7       371.586 7  92550729.781 6         0.000 0
       288.990 6  22259908.922 6
 107379570.771 6  20144134.066 6     -1738.775 6  83517513.340 5         0.000 0
     -1351.996 5  20144147.816 5
 106564879.515 8  19942164.008 8      1757.600 8  82883829.465 9         0.000 0
      1366.920 9  19942171.453 9
 123681522.340 5  23210180.613 5      3463.334 5         0.000 0         0.000 0
         0.000 0         0.000 0
 108177913.867 2  20229815.695 2      -285.684 2  84138428.207 7         0.000 0
      -221.988 7  20229826.293 7
 113297718.635 4  21172391.105 4      3733.811 4  88120502.156 7         0.000 0
      2903.793 7  21172398.121 7
 18  5 22 15 19 54.0000000  0 12G 7G 9G16G23G27R 1R 2R10R11R12R20R21
 121891691.791 5  23195216.891 5      3145.416 5  94980555.76146  23195220.77046
      2450.91646         0.000 0
 113326466.633 6  21565310.754 6      -443.180 6  88306365.28949  21565315.92249
      -345.29749         0.000 0
 109704680.145 6  20876106.652 6     -1990.311 6  85484180.11447  20876109.78547
     -1550.94347         0.000 0
 116098499.620 2  22092809.969 2     -2445.877 2  90466371.66743  22092811.78543
     -1905.84643         0.000 0
 106690314.124 6  20302492.348 6       979.928 6  83135335.30149  20302497.07049
       763.55149         0.000 0
 120976571.583 3  22703194.523 3     -3334.963 3  94097483.745 3         0.000 0
     -2594.031 3  22703204.980 3
 118987533.732 6  22259829.957 6       371.125 6  92550440.543 3         0.000 0
       288.971 3  22259838.980 3
 107381309.356 6  20144459.730 6     -1739.373 6         0.000 0         0.000 0
         0.000 0         0.000 0
 106563121.304 7  19941835.527 7      1757.805 7  82882461.914 5         0.000 0
      1368.072 5  19941842.832 5
 123678058.101 5  23209530.723 5      3464.086 5         0.000 0         0.000 0
         0.000 0         0.000 0
 108178199.360 2  20229868.074 2      -285.635 2  84138650.261 4         0.000 0
      -222.418 4  20229882.395 4
 113293985.117 3  21171693.805 3      3733.273 3  88117598.302 4         0.000 0
      2903.834 4  21171702.113 4
 18  5 22 15 19 55.0000000  0 12G 7G 9G16G23G27R 1R 2R10R11R12R20R21
 121888547.203 5  23194618.918 5      3143.738 5  94978105.44946  23194622.22346
      2449.69346         0.000 0
 113326910.203 6  21565394.758 6      -444.018 6  88306710.90448  21565400.98048
      -346.03348         0.000 0
 109706670.519 6  20876484.711 6     -1991.305 6  85485731.05448  20876489.04748
     -1551.81448         0.000 0
 116100945.812 3  22093275.168 3     -2446.676 3  90468277.76644  22093277.62944
     -1906.48244         0.000 0
 106689334.162 6  20302306.051 6       979.146 6  83134571.69649  20302311.17249
       762.85549         0.000 0
 120979907.254 4  22703818.738 4     -3336.625 4         0.000 0         0.000 0
         0.000 0         0.000 0
 118987162.845 6  22259758.777 6       369.152 6         0.000 0         0.000 0
         0.000 0         0.000 0
 107383048.468 6  20144786.879 6     -1740.330 6         0.000 0         0.000 0
         0.000 0         0.000 0
 106561363.576 7  19941505.961 7      1756.828 7  82881094.847 8         0.000 0
      1366.613 8  19941513.121 8
 123674594.041 5  23208882.609 5      3463.207 5         0.000 0         0.000 0
         0.000 0         0.000 0
 108178485.896 2  20229924.086 2      -287.844 2         0.000 0         0.000 0
         0.000 0         0.000 0
 113290252.201 2  21170998.566 2      3732.119 2  88114694.988 6         0.000 0
      2902.277 6  21171000.859 6
 18  5 22 15 19 56.0000000  0 12G 7G 9G16G23G27R 1R 2R10R11R12R20R21
 121885402.771 6  23194020.512 6      3144.152 6  94975655.21947  23194024.04747
      2449.95347         0.000 0
 113327354.537 6  21565479.188 6      -444.717 6  88307057.14148  21565485.55548
      -346.47548         0.000 0
 109708661.303 6  20876863.477 6     -1990.910 6  85487282.28548  20876867.55548
     -1551.29948         0.000 0
 116103392.550 3  22093741.793 3     -2447.297 3  90470184.31244  22093743.55544
     -1907.00444         0.000 0
 106688354.993 6  20302119.605 6       978.467 6  83133808.71249  20302125.11349
       762.35549         0.000 0
 120983243.383 3  22704443.520 3     -3336.602 3         0.000 0         0.000 0
         0.000 0         0.000 0
 118986792.867 6  22259691.465 6       369.430 6         0.000 0         0.000 0
         0.000 0         0.000 0
 107384788.074 6  20145112.879 6     -1740.131 6         0.000 0         0.000 0
         0.000 0         0.000 0
 106559606.301 7  19941176.531 7      1756.693 7  82879728.079 9         0.000 0
      1366.816 9  19941185.984 9
 123671130.062 4  23208234.344 4      3464.029 4         0.000 0         0.000 0
         0.000 0         0.000 0
 108178773.476 3  20229978.945 3      -287.762 3         0.000 0         0.000 0
         0.000 0         0.000 0
 113286519.926 3  21170299.168 3      3732.455 3  88111792.119 7         0.000 0
      2902.479 7  21170305.898 7
 18  5 22 15 19 57.0000000  0 12G 7G 9G16G23G27R 1R 2R10R11R12R20R21
 121882258.229 6  23193422.086 6      3144.166 6  94973204.95347  23193426.09047
      2449.76447         0.000 0
 113327799.272 6  21565564.453 6      -445.096 6  88307403.67848  21565570.69148
      -346.70348         0.000 0
 109710652.164 6  20877242.797 6     -1991.502 6  85488833.61548  20877246.76248
     -1551.82048         0.000 0
 116105839.463 3  22094206.969 3     -2447.500 3  90472091.01644  22094210.07444
     -1907.21344         0.000 0
 106687376.204 6  20301933.281 6       978.188 6  83133046.02849  20301938.52049
       762.14649         0.000 0
 120986579.713 3  22705069.855 3     -3336.744 3         0.000 0         0.000 0
         0.000 0         0.000 0
 118986423.552 6  22259621.980 6       368.662 6         0.000 0         0.000 0
         0.000 0         0.000 0
 107386527.850 6  20145439.289 6     -1740.352 6         0.000 0         0.000 0
         0.000 0         0.000 0
 106557849.085 7  19940848.227 7      1756.922 7  82878361.374 9         0.000 0
      1366.236 9  19940857.105 9
 123667665.881 5  23207584.770 5      3464.023 5         0.000 0         0.000 0
         0.000 0         0.000 0
 108179061.768 3  20230031.207 3      -289.389 3         0.000 0         0.000 0
         0.000 0         0.000 0
 113282787.996 3  21169602.043 3      3731.277 3  88108889.466 7         0.000 0
      2902.408 7  21169608.344 7
 18  5 22 15 19 58.0000000  0 12G 7G 9G16G23G27R 1R 2R10R11R12R20R21
 121879113.849 6  23192823.813 6      3144.270 6  94970754.76347  23192827.90647
      2450.12547         0.000 0
 113328244.751 6  21565649.160 6      -446.203 6  88307750.82648  21565655.42648
      -347.74848         0.000 0
 109712643.376 6  20877621.844 6     -1991.340 6  85490385.20449  20877625.99649
     -1551.93049         0.000 0
 116108286.846 3  22094672.871 3     -2447.006 3  90473998.10344  22094675.56344
     -1906.87144         0.000 0
 106686398.152 6  20301747.402 6       977.686 6  83132283.90849  20301752.91449
       761.76449         0.000 0
 120989916.502 4  22705693.914 4     -3336.641 4         0.000 0         0.000 0
         0.000 0         0.000 0
 118986055.114 6  22259553.367 6       367.906 6  92549295.571 6         0.000 0
       286.148 6  22259564.109 6
 107388268.105 6  20145765.137 6     -1740.992 6         0.000 0         0.000 0
         0.000 0         0.000 0
 106556092.310 8  19940519.938 8      1756.420 8  82876994.983 9         0.000 0
      1366.400 9  19940527.957 9
 123664201.749 4  23206936.355 4      3464.576 4         0.000 0         0.000 0
         0.000 0         0.000 0
 108179351.000 3  20230084.918 3      -289.480 3  84139543.991 7         0.000 0
      -225.281 7  20230095.945 7
 113279056.512 3  21168903.352 3      3731.537 3  88105987.219 7         0.000 0
      2901.479 7  21168911.375 7
 18  5 22 15 19 59.0000000  0 12G 7G 9G16G23G27R 1R 2R10R11R12R20R21
 121875969.788 6  23192226.488 6      3143.670 6  94968304.85647  23192228.93447
      2449.64847         0.000 0
 113328691.037 6  21565734.379 6      -446.625 6  88308098.56348  21565740.30548
      -347.95348         0.000 0
 109714635.117 6  20878001.262 6     -1992.311 6  85491937.22249  20878004.28149
     -1552.50449         0.000 0
 116110734.932 2  22095138.574 2     -2447.994 2  90475905.67644  22095140.20744
     -1907.52344         0.000 0
 106685420.950 6  20301561.180 6       976.734 6  83131522.46249  20301566.23049
       761.01449         0.000 0
 120993253.925 4  22706316.625 4     -3337.420 4  94110443.834 6         0.000 0
     -2595.910 6  22706323.785 6
 118985687.741 6  22259483.984 6       367.205 6  92549009.852 6         0.000 0
       284.730 6  22259498.305 6
 107390008.932 7  20146092.934 7     -1741.027 7  83525631.937 5         0.000 0
     -1353.834 5  20146109.121 5
 106554336.101 8  19940189.008 8      1756.129 8  82875629.046 9         0.000 0
      1365.725 9  19940198.461 9
 123660737.858 5  23206289.461 5      3463.836 5         0.000 0         0.000 0
         0.000 0         0.000 0
 108179641.413 4  20230138.281 4      -291.588 4  84139769.841 7         0.000 0
      -225.781 7  20230149.598 7
 113275325.738 3  21168205.035 3      3730.328 3  88103085.516 7         0.000 0
      2901.545 7  21168213.488 7
 18  5 22 15 20  0.0000000  0 12G 7G 9G16G23G27R 1R 2R10R11R12R20R21
 121872826.027 6  23191627.734 6      3144.367 6  94965855.16847  23191631.45747
      2450.11347         0.000 0
 113329138.189 6  21565818.750 6      -446.906 6  88308447.01848  21565825.43448
      -348.28748         0.000 0
 109716627.348 6  20878380.973 6     -1992.199 6  85493489.58049  20878382.92249
     -1552.25449         0.000 0
 116113183.669 2  22095604.426 2     -2448.725 2  90477813.76844  22095606.24644
     -1908.05544         0.000 0
 106684444.600 6  20301375.391 6       976.279 6  83130761.66549  20301380.84449
       760.87349         0.000 0
 120996591.987 3  22706941.922 3     -3337.176 3  94113040.085 5         0.000 0
     -2595.719 5  22706949.941 5
 118985321.468 6  22259415.461 6       366.277 6  92548724.988 6         0.000 0
       284.512 6  22259426.492 6
 107391750.396 6  20146421.598 6     -1741.055 6  83526986.443 5         0.000 0
     -1354.385 5  20146435.063 5
 106552580.477 7  19939863.531 7      1755.457 7  82874263.569 8         0.000 0
      1365.643 8  19939869.547 8
 123657274.221 5  23205641.996 5      3463.730 5         0.000 0         0.000 0
         0.000 0         0.000 0
 108179932.938 3  20230192.656 3      -291.754 3  84139996.616 7         0.000 0
      -227.289 7  20230203.398 7
 113271595.706 3  21167509.020 3      3729.557 3  88100184.397 7         0.000 0
      2901.092 7  21167514.605 7
 18  5 22 15 20  1.0000000  0 12G 7G 9G16G23G27R 1R 2R10R11R12R20R21
 121869682.234 6  23191029.902 6      3142.910 6  94963405.49647  23191033.05147
      2448.91847         0.000 0
 113329585.888 6  21565903.895 6      -448.654 6  88308795.86549  21565909.83249
      -349.75649         0.000 0
 109718619.758 7  20878759.457 7     -1993.303 7  85495042.10049  20878762.36349
     -1553.13549         0.000 0
 116115632.699 3  22096070.195 3     -2449.262 3  90479722.01944  22096072.07044
     -1908.48644         0.000 0
 106683468.728 6  20301189.375 6       974.920 6  83130001.27449  20301195.05949
       759.50249         0.000 0
 120999930.270 4  22707567.414 4     -3338.563 4  94115636.526 5         0.000 0
     -2597.221 5  22707574.004 5
 118984955.855 6  22259347.285 6       364.098 6  92548440.687 7         0.000 0
       283.879 7  22259358.742 7
 107393492.120 5  20146747.449 5     -1742.941 5  83528341.109 5         0.000 0
     -1354.959 5  20146762.203 5
 106550822.502 7  19939533.953 7      1754.861 7  82872898.633 9         0.000 0
      1365.279 9  19939539.539 9
 123653825.968 5  23204993.730 5      3463.266 5         0.000 0         0.000 0
         0.000 0         0.000 0
 108180225.226 2  20230250.090 2      -293.213 2  84140223.942 7         0.000 0
      -227.859 7  20230260.691 7
 113267866.122 3  21166811.477 3      3728.811 3  88097283.530 7         0.000 0
      2900.389 7  21166819.355 7
 18  5 22 15 20  2.0000000  0 14G 7G 8G 9G16G23G26G27R 1R 2R10R11R12
                                R20R21
 121866538.321 6  23190431.789 6      3144.199 6  94960955.62147  23190435.22347
      2449.97547         0.000 0
 116451202.622 5  22159926.410 5      3165.762 5         0.000 0         0.000 0
         0.000 0         0.000 0
 113330033.963 6  21565989.332 6      -448.928 6  88309145.06349  21565995.38749
      -349.75249         0.000 0
 109720612.223 7  20879138.664 7     -1992.521 7  85496594.65049  20879141.89849
     -1552.60449         0.000 0
 116118081.967 3  22096536.402 3     -2449.807 3  90481630.62044  22096538.12144
     -1909.09044         0.000 0
 120528149.771 2  22935744.770 2     -2897.365 2         0.000 0         0.000 0
         0.000 0         0.000 0
 106682493.331 6  20301003.797 6       975.137 6  83129241.17849  20301009.40649
       759.54549         0.000 0
 121003268.831 6  22708190.629 6     -3339.459 6  94118233.171 7         0.000 0
     -2596.807 7  22708201.371 7
 118984591.001 6  22259279.547 6       364.822 6  92548156.794 6         0.000 0
       283.922 6  22259288.859 6
 107395234.050 5  20147074.316 5     -1742.842 5  83529695.921 6         0.000 0
     -1355.697 6  20147086.063 6
 106549067.118 8  19939204.246 8      1754.514 8  82871533.355 9         0.000 0
      1364.932 9  19939213.129 9
 123650361.939 5  23204343.184 5      3463.814 5         0.000 0         0.000 0
         0.000 0         0.000 0
 108180518.382 2  20230302.098 2      -295.496 2  84140451.850 8         0.000 0
      -227.914 8  20230310.547 8
 113264136.641 3  21166114.809 3      3727.191 3  88094382.880 7         0.000 0
      2900.979 7  21166125.410 7
 18  5 22 15 20  3.0000000  0 13G 7G 8G 9G16G23G26G27R 1R 2R10R11R20
                                R21
 121863394.813 5  23189832.180 5      3144.400 5  94958506.20747  23189836.32847
      2450.16047         0.000 0
 116448036.828 6  22159324.223 6      3166.158 6         0.000 0         0.000 0
         0.000 0         0.000 0
 113330482.955 6  21566074.844 6      -448.531 6  88309494.90049  21566081.22749
      -349.62749         0.000 0
 109722605.257 6  20879517.656 6     -1992.867 6  85498147.67049  20879520.57449
     -1552.90849         0.000 0
 116120531.844 4  22097002.684 4     -2449.684 4  90483539.62944  22097003.91444
     -1908.86544         0.000 0
 120531047.203 1  22936296.473 1     -2896.969 1         0.000 0         0.000 0
         0.000 0         0.000 0
 106681518.776 6  20300818.867 6       975.436 6  83128481.79149  20300824.14549
       760.10249         0.000 0
 121006608.005 5  22708815.207 5     -3339.045 5  94120830.291 6         0.000 0
     -2596.623 6  22708824.660 6
 118984227.188 7  22259211.168 7       364.143 7  92547873.904 7         0.000 0
       282.639 7  22259221.051 7
 107396976.535 6  20147402.977 6     -1742.701 6  83531051.235 5         0.000 0
     -1355.047 5  20147414.867 5
 106547311.870 8  19938877.191 8      1754.926 8  82870169.055 8         0.000 0
      1365.055 8  19938885.070 8
 108180812.496 1  20230359.762 1      -295.416 1  84140680.681 7         0.000 0
      -228.846 7  20230367.641 7
 113260408.005 3  21165417.645 3      3728.777 3  88091482.809 7         0.000 0
      2900.088 7  21165425.520 7
 18  5 22 15 20  4.0000000  0 13G 7G 8G 9G16G23G26G27R 1R 2R10R11R20
                                R21
 121860251.615 6  23189235.070 6      3143.027 6  94956056.91948  23189239.53548
      2449.20148         0.000 0
 116444871.666 5  22158721.820 5      3165.020 5  90736291.70546  22158728.98846
      2466.27146         0.000 0
 113330932.830 6  21566160.145 6      -450.215 6  88309845.46049  21566166.89849
      -350.68449         0.000 0
 109724598.813 6  20879897.297 6     -1994.045 6  85499701.10149  20879900.50049
     -1553.69149         0.000 0
 116122982.494 4  22097469.320 4     -2450.959 4  90485449.21645  22097470.36745
     -1909.84445         0.000 0
 120533945.104 1  22936848.395 1     -2897.795 1         0.000 0         0.000 0
         0.000 0         0.000 0
 106680545.146 6  20300633.148 6       972.695 6  83127723.14749  20300638.53149
       757.91049         0.000 0
 121009947.733 6  22709440.145 6     -3339.406 6  94123427.897 6         0.000 0
     -2597.410 6  22709450.742 6
 118983864.482 7  22259144.008 7       362.258 7  92547591.759 6         0.000 0
       282.088 6  22259153.320 6
 107398719.724 6  20147728.273 6     -1743.570 6  83532407.015 5         0.000 0
     -1356.010 5  20147741.879 5
 106545557.662 8  19938548.633 8      1754.291 8  82868804.665 9         0.000 0
      1364.287 9  19938559.520 9
 108181107.925 1  20230413.633 1      -296.148 1  84140910.434 7         0.000 0
      -229.926 7  20230423.660 7
 113256680.031 3  21164725.563 3      3728.336 3  88088583.326 7         0.000 0
      2899.535 7  21164729.574 7
 18  5 22 15 20  5.0000000  0 11G 7G 8G 9G16G27R 1R 2R10R11R20R21
 121857108.403 6  23188637.500 6      3143.738 6  94953607.64848  23188640.86348
      2449.67848         0.000 0
 116441706.699 6  22158119.672 6      3165.281 6  90733825.48347  22158126.93847
      2466.39647         0.000 0
 113331383.235 6  21566246.121 6      -450.619 6  88310196.36549  21566252.48849
      -351.16249         0.000 0
 109726592.563 6  20880276.324 6     -1993.785 6  85501254.68149  20880279.93049
     -1553.62549         0.000 0
 106679572.077 6  20300448.109 6       972.701 6  83126964.87749  20300453.37549
       757.97949         0.000 0
 121013287.842 5  22710064.328 5     -3340.201 5  94126025.764 6         0.000 0
     -2598.750 6  22710077.504 6
 118983502.478 6  22259074.809 6       361.854 6  92547310.203 6         0.000 0
       280.982 6  22259082.973 6
 107400463.169 5  20148056.398 5     -1743.291 5  83533763.037 5         0.000 0
     -1356.527 5  20148068.715 5
 106543803.723 8  19938219.609 8      1754.063 8  82867440.513 9         0.000 0
      1364.043 9  19938228.633 9
 108181404.124 2  20230470.191 2      -297.100 2  84141140.826 7         0.000 0
      -230.270 7  20230478.926 7
 113252952.534 3  21164027.289 3      3727.697 3  88085684.140 7         0.000 0
      2899.152 7  21164033.016 7
 18  5 22 15 20  6.0000000  0 11G 7G 8G 9G16G27R 1R 2R10R11R20R21
 121853965.141 6  23188039.059 6      3143.598 6  94951158.35348  23188042.53948
      2449.65648         0.000 0
 116438541.923 5  22157517.797 5      3164.711 5  90731359.40847  22157524.43847
      2465.96547         0.000 0
 113331834.097 6  21566331.660 6      -451.150 6  88310547.70749  21566338.41449
      -351.51849         0.000 0
 109728586.433 6  20880655.488 6     -1993.729 6  85502808.34449  20880658.46549
     -1553.49049         0.000 0
 106678599.413 6  20300262.063 6       972.836 6  83126206.97749  20300267.85949
       758.13349         0.000 0
 121016627.709 6  22710694.520 6     -3340.596 6  94128623.321 6         0.000 0
     -2598.127 6  22710700.535 6
 118983141.080 7  22259007.316 7       361.381 7  92547029.130 7         0.000 0
       280.336 7  22259019.348 7
 107402206.811 5  20148381.219 5     -1743.430 5  83535119.196 6         0.000 0
     -1356.002 6  20148399.840 6
 106542049.921 8  19937893.301 8      1754.020 8  82866076.424 9         0.000 0
      1364.664 9  19937899.887 9
 108181701.021 2  20230522.297 2      -297.240 2  84141371.772 7         0.000 0
      -231.189 7  20230532.898 7
 113249225.253 3  21163342.754 3      3727.266 3  88082785.163 7         0.000 0
      2899.170 7  21163336.594 7
 18  5 22 15 20  7.0000000  0 11G 7G 8G 9G16G27R 1R 2R10R11R20R21
 121850822.056 6  23187440.668 6      3142.770 6  94948709.17947  23187444.80147
      2448.95347         0.000 0
 116435377.550 5  22156915.109 5      3163.785 5  90728893.67847  22156921.87947
      2465.41847         0.000 0
 113332285.682 6  21566417.820 6      -452.330 6  88310899.61049  21566424.17249
      -352.70949         0.000 0
 109730580.695 6  20881035.273 6     -1994.949 6  85504362.29449  20881037.66449
     -1554.58649         0.000 0
 106677627.522 6  20300077.203 6       971.322 6  83125449.66449  20300082.67249
       756.95949         0.000 0
 121019968.040 5  22711314.875 5     -3340.264 5  94131222.272 6         0.000 0
     -2599.148 6  22711324.898 6
 118982780.650 7  22258940.875 7       360.008 7  92546748.800 7         0.000 0
       279.617 7  22258947.895 7
 107403950.921 5  20148709.379 5     -1744.377 5  83536475.716 6         0.000 0
     -1357.209 6  20148723.703 6
 106540296.563 8  19937565.887 8      1753.189 8  82864712.711 9         0.000 0
      1363.268 9  19937572.906 9
 108181998.995 2  20230577.746 2      -297.967 2  84141603.490 7         0.000 0
      -232.496 7  20230588.918 7
 113245498.619 4  21162640.359 4      3726.723 4  88079886.671 7         0.000 0
      2898.090 7  21162639.930 7
 18  5 22 15 20  8.0000000  0 11G 7G 8G 9G16G27R 1R 2R10R11R20R21
 121847679.110 5  23186842.797 5      3142.537 5  94946260.11147  23186846.53147
      2448.85447         0.000 0
 116432213.566 5  22156313.234 5      3163.475 5  90726428.25147  22156319.63347
      2465.00647         0.000 0
 113332737.970 6  21566503.359 6      -452.447 6  88311252.03849  21566510.71149
      -352.69149         0.000 0
 109732575.292 6  20881414.293 6     -1994.771 6  85505916.54349  20881418.11349
     -1554.39149         0.000 0
 106676656.304 6  20299893.160 6       970.953 6  83124692.87749  20299898.73849
       756.62749         0.000 0
 121023309.359 6  22711939.766 6     -3341.432 6  94133821.066 6         0.000 0
     -2599.402 6  22711948.789 6
 118982421.111 7  22258872.809 7       359.346 7  92546469.110 7         0.000 0
       279.811 7  22258882.551 7
 107405695.435 5  20149033.484 5     -1744.473 5  83537832.568 5         0.000 0
     -1357.619 5  20149051.816 5
 106538543.550 8  19937236.566 8      1753.152 8  82863349.262 9         0.000 0
      1363.229 9  19937244.016 9
 108182297.949 1  20230633.719 1      -300.248 1  84141835.997 7         0.000 0
      -232.811 7  20230645.035 7
 113241772.544 4  21161939.496 4      3725.768 4  88076988.563 7         0.000 0
      2898.539 7  21161943.508 7
 18  5 22 15 20  9.0000000  0 10G 7G 8G 9G16G27R 1R 2R10R11R12
 121844536.120 5  23186245.039 5      3142.023 5  94943811.05147  23186248.43047
      2448.21547         0.000 0
 116429049.747 6  22155711.328 6      3163.000 6  90723962.90047  22155717.87947
      2464.66047         0.000 0
 113333190.719 6  21566590.008 6      -453.723 6  88311604.81149  21566596.07449
      -353.64549         0.000 0
 109734570.018 6  20881794.711 6     -1995.285 6  85507470.88949  20881797.77349
     -1554.69949         0.000 0
 106675685.534 6  20299708.793 6       970.049 6  83123936.44049  20299714.05949
       755.92849         0.000 0
 121026650.898 6  22712566.629 6     -3342.197 6  94136419.998 6         0.000 0
     -2599.025 6  22712574.793 6
 118982062.292 7  22258805.570 7       358.014 7  92546190.067 7         0.000 0
       277.902 7  22258814.164 7
 107407440.155 5  20149363.426 5     -1745.354 5  83539189.553 6         0.000 0
     -1357.340 6  20149381.043 6
 106536790.690 8  19936908.359 8      1752.348 8  82861985.914 9         0.000 0
      1362.727 9  19936916.809 9
 123626066.40515  23199805.141 5      3463.043 5         0.000 0         0.000 0
         0.000 0         0.000 0
 18  5 22 15 20 10.0000000  0 10G 7G 8G 9G16G27R 1R 2R10R11R12
 121841393.560 5  23185645.984 5      3142.445 5  94941362.31347  23185650.35247
      2448.75847         0.000 0
 116425886.652 6  22155109.270 6      3162.953 6  90721498.15547  22155115.98047
      2464.67647         0.000 0
 113333644.470 6  21566676.363 6      -453.943 6  88311958.39849  21566683.26249
      -353.84249         0.000 0
 109736565.401 7  20882173.691 7     -1995.625 7  85509025.73349  20882177.12549
     -1555.09449         0.000 0
 106674715.831 6  20299524.133 6       969.631 6  83123180.78849  20299528.74249
       755.51449         0.000 0
 121029993.199 6  22713189.328 6     -3342.301 6  94139019.603 6         0.000 0
     -2600.043 6  22713198.926 6
 118981704.694 7  22258739.758 7       357.461 7  92545911.938 7         0.000 0
       278.311 7  22258748.492 7
 107409185.604 7  20149690.211 7     -1745.752 7  83540547.095 6         0.000 0
     -1357.227 6  20149709.406 6
 106535038.541 8  19936580.719 8      1752.049 8  82860623.109 9         0.000 0
      1362.842 9  19936589.742 9
 123622602.878 5  23199156.945 5      3464.111 5         0.000 0         0.000 0
         0.000 0         0.000 0
 18  5 22 15 20 11.0000000  0 10G 7G 8G 9G16G27R 1R 2R10R11R12
 121838251.418 6  23185048.297 6      3141.475 6  94938913.86347  23185052.43447
      2448.02747         0.000 0
 116422724.155 6  22154507.430 6      3162.158 6  90719033.87947  22154513.96947
      2464.12147         0.000 0
 113334099.130 6  21566762.227 6      -454.330 6  88312312.66349  21566769.48049
      -353.92849         0.000 0
 109738561.351 7  20882554.180 7     -1995.775 7  85510580.99549  20882557.28149
     -1554.94349         0.000 0
 106673746.989 6  20299339.406 6       968.914 6  83122425.87149  20299345.11749
       754.94149         0.000 0
 121033336.174 6  22713815.832 6     -3342.611 6  94141619.688 6         0.000 0
     -2600.404 6  22713828.148 6
 118981348.231 7  22258672.301 7       356.330 7  92545634.685 7         0.000 0
       277.148 7  22258681.324 7
 107410931.753 7  20150017.215 7     -1745.516 7  83541905.213 7         0.000 0
     -1357.684 7  20150032.398 7
 106533287.003 8  19936253.438 8      1751.289 8  82859260.832 9         0.000 0
      1361.992 9  19936261.602 9
 123619139.671 5  23198506.824 5      3463.508 5         0.000 0         0.000 0
         0.000 0         0.000 0
 18  5 22 15 20 12.0000000  0 10G 7G 8G 9G16G27R 1R 2R10R11R12
 121835109.496 5  23184450.777 5      3141.266 5  94936465.60247  23184455.65647
      2447.75247         0.000 0
 116419562.156 5  22153906.332 5      3161.756 5  90716569.99147  22153912.97347
      2463.67047         0.000 0
 113334554.594 6  21566848.973 6      -455.650 6  88312667.56349  21566856.08649
      -355.02349         0.000 0
 109740557.754 7  20882933.262 7     -1996.707 7  85512136.63749  20882937.42649
     -1555.68949         0.000 0
 106672778.966 7  20299154.996 7       967.691 7  83121671.56749  20299160.39149
       754.07849         0.000 0
 121036679.708 6  22714439.926 6     -3343.447 6  94144220.200 6         0.000 0
     -2600.625 6  22714448.379 6
 118980992.757 7  22258605.586 7       355.262 7  92545358.211 7         0.000 0
       275.445 7  22258612.176 7
 107412678.453 7  20150346.254 7     -1746.682 7  83543263.741 7         0.000 0
     -1358.725 7  20150362.008 7
 106531535.994 8  19935923.750 8      1750.807 8  82857898.905 9         0.000 0
      1361.967 9  19935933.203 9
 123615676.599 5  23197857.586 5      3463.123 5         0.000 0         0.000 0
         0.000 0         0.000 0
 18  5 22 15 20 13.0000000  0 10G 7G 8G 9G16G27R 1R 2R10R11R12
 121831967.159 5  23183852.898 5      3141.756 5  94934017.04847  23183856.56347
      2448.21147         0.000 0
 116416399.989 5  22153303.734 5      3162.186 5  90714105.96647  22153311.37547
      2463.97347         0.000 0
 113335010.176 6  21566935.645 6      -455.297 6  88313022.57549  21566942.91449
      -354.83849         0.000 0
 109742553.931 7  20883313.559 7     -1996.510 7  85513692.11249  20883317.37949
     -1555.87549         0.000 0
 106671811.082 7  20298971.652 7       967.633 7  83120917.37649  20298976.20349
       754.04949         0.000 0
 121040023.146 6  22715066.668 6     -3343.639 6  94146820.633 7         0.000 0
     -2600.418 7  22715074.402 7
 118980637.570 7  22258539.660 7       355.148 7  92545081.952 7         0.000 0
       275.867 7  22258547.969 7
 107414424.973 7  20150674.645 7     -1745.857 7  83544622.178 7         0.000 0
     -1358.596 7  20150690.688 7
 106529784.749 8  19935598.004 8      1751.143 8  82856536.845 9         0.000 0
      1362.037 9  19935606.309 9
 123612213.025 5  23197212.285 5      3463.654 5         0.000 0         0.000 0
         0.000 0         0.000 0
 18  5 22 15 20 14.0000000  0 13G 7G 8G 9G16G23G26G27R 1R 2R10R11R12
                                R20
 121828824.912 5  23183255.184 5      3141.277 5  94931568.56247  23183257.35547
      2447.90647         0.000 0
 116413238.155 6  22152702.438 6      3161.473 6  90711642.20748  22152709.59448
      2463.43448         0.000 0
 113335466.384 6  21567022.766 6      -456.459 6  88313378.08449  21567029.21949
      -355.70949         0.000 0
 109744550.363 6  20883693.730 6     -1996.754 6  85515247.79349  20883696.70749
     -1555.84849         0.000 0
 116147511.301 3  22102137.758 3     -2455.309 3         0.000 0         0.000 0
         0.000 0         0.000 0
 120562923.212 2  22942363.797 2     -2898.727 2         0.000 0         0.000 0
         0.000 0         0.000 0
 106670843.812 7  20298787.043 7       967.096 7  83120163.64349  20298792.40649
       753.58849         0.000 0
 121043366.936 6  22715693.145 6     -3343.744 6  94149421.385 6         0.000 0
     -2601.211 6  22715702.168 6
 118980283.218 7  22258473.035 7       353.791 7  92544806.339 7         0.000 0
       275.387 7  22258481.484 7
 107416171.906 7  20151001.477 7     -1747.117 7  83545980.882 7         0.000 0
     -1358.939 7  20151017.090 7
 106528033.808 8  19935270.266 8      1750.879 8  82855175.020 9         0.000 0
      1362.064 9  19935277.855 9
 123608749.418 5  23196562.848 5      3463.332 5         0.000 0         0.000 0
         0.000 0         0.000 0
 108184095.766 5  20230975.457 5      -305.063 5  84143246.754 8         0.000 0
      -237.156 8  20230985.484 8
 18  5 22 15 20 15.0000000  0 14G 7G 8G 9G16G23G26G27R 1R 2R10R11R12
                                R20R21
 121825682.816 6  23182656.992 6      3141.686 6  94929120.15647  23182661.57447
      2448.16647         0.000 0
 116410076.636 6  22152100.531 6      3161.607 6  90709178.69048  22152107.35548
      2463.73248         0.000 0
 113335923.279 6  21567109.703 6      -456.854 6  88313734.11149  21567116.68449
      -356.27049         0.000 0
 109746547.134 7  20884073.863 7     -1996.893 7  85516803.70549  20884076.65249
     -1556.03549         0.000 0
 116149966.706 2  22102605.176 2     -2454.686 2  90506477.62543  22102605.97743
     -1912.58043         0.000 0
 120565822.168 3  22942916.066 3     -2898.672 3         0.000 0         0.000 0
         0.000 0         0.000 0
 106669877.239 7  20298602.391 7       966.410 7  83119410.47949  20298608.95749
       752.91049         0.000 0
 121046711.179 6  22716316.566 6     -3343.922 6  94152022.472 7         0.000 0
     -2601.045 7  22716327.738 7
 118979929.721 7  22258405.508 7       353.301 7  92544531.406 7         0.000 0
       274.496 7  22258414.820 7
 107417919.288 8  20151329.844 8     -1747.313 8  83547339.938 7         0.000 0
     -1358.307 7  20151346.887 7
 106526283.319 8  19934941.484 8      1750.254 8  82853813.514 9         0.000 0
      1361.057 9  19934952.227 9
 123605285.838 5  23195914.520 5      3464.152 5         0.000 0         0.000 0
         0.000 0         0.000 0
 108184401.253 5  20231032.113 5      -305.883 5  84143484.341 9         0.000 0
      -237.773 9  20231044.430 9
 113215763.96412  21157068.102 2      3721.912 2  88056714.76417         0.000 0
      2895.21717  21157073.39817
 18  5 22 15 20 16.0000000  0 14G 7G 8G 9G16G23G26G27R 1R 2R10R11R12
                                R20R21
 121822540.738 6  23182058.539 6      3141.994 6  94926671.79247  23182062.76247
      2448.07047         0.000 0
 116406915.435 5  22151498.930 5      3161.369 5  90706715.41747  22151506.31347
      2463.42247         0.000 0
 113336380.741 6  21567197.090 6      -456.994 6  88314090.54549  21567203.32849
      -356.07249         0.000 0
 109748544.129 6  20884453.871 6     -1996.584 6  85518359.78349  20884457.03549
     -1555.62549         0.000 0
 116152422.461 2  22103072.043 2     -2455.529 2  90508391.17443  22103074.66043
     -1913.28143         0.000 0
 120568721.151 4  22943467.215 4     -2898.576 4  93949680.49444  22943471.37944
     -2258.71144         0.000 0
 106668911.209 7  20298419.617 7       966.016 7  83118657.71749  20298424.44149
       752.71749         0.000 0
 121050055.787 6  22716942.020 6     -3344.648 6  94154623.797 6         0.000 0
     -2601.396 6  22716953.191 6
 118979577.029 7  22258340.867 7       353.121 7  92544257.101 6         0.000 0
       274.342 6  22258348.316 6
 107419666.956 8  20151657.945 8     -1747.082 8  83548699.251 7         0.000 0
     -1359.262 7  20151671.551 7
 106524533.041 8  19934614.012 8      1750.602 8  82852452.199 9         0.000 0
      1361.645 9  19934621.891 9
 123601822.252 5  23195267.352 5      3463.621 5         0.000 0         0.000 0
         0.000 0         0.000 0
 108184707.562 5  20231088.645 5      -306.238 5  84143722.564 9         0.000 0
      -238.436 9  20231100.676 9
 113212041.790 3  21156371.090 3      3722.006 3  88053819.767 7         0.000 0
      2895.354 7  21156377.105 7
 18  5 22 15 20 17.0000000  0 14G 7G 8G 9G16G23G26G27R 1R 2R10R11R12
                                R20R21
 121819399.284 6  23181461.180 6      3141.119 6  94924223.89747  23181464.52747
      2447.82247         0.000 0
 116403755.067 5  22150897.563 5      3160.260 5  90704252.79548  22150905.34448
      2462.33448         0.000 0
 113336839.369 6  21567284.277 6      -458.316 6  88314447.92949  21567290.27349
      -357.16249         0.000 0
 109750541.974 6  20884833.398 6     -1997.889 6  85519916.54549  20884837.64849
     -1556.81149         0.000 0
 116154879.179 2  22103538.855 2     -2456.951 2  90510305.53844  22103541.83244
     -1914.40844         0.000 0
 120571620.722 4  22944018.449 4     -2899.510 4  93951939.92444  22944023.77344
     -2259.38944         0.000 0
 106667946.375 6  20298235.363 6       964.828 6  83117905.88049  20298241.34449
       752.05949         0.000 0
 121053401.298 6  22717568.422 6     -3345.918 6  94157225.872 6         0.000 0
     -2602.176 6  22717579.594 6
 118979225.725 7  22258275.457 7       351.365 7  92543983.832 6         0.000 0
       273.055 6  22258282.906 6
 107421415.554 7  20151986.566 7     -1748.508 7  83550059.245 7         0.000 0
     -1359.748 7  20152000.316 7
 106522783.603 8  19934286.918 8      1749.564 8  82851091.512 9         0.000 0
      1360.748 9  19934295.082 9
 123598359.108 5  23194618.273 5      3463.172 5         0.000 0         0.000 0
         0.000 0         0.000 0
 108185015.327 5  20231146.559 5      -307.996 5  84143961.951 9         0.000 0
      -239.918 9  20231157.445 9
 113208320.627 3  21155676.176 3      3720.111 3  88050925.574 7         0.000 0
      2894.457 7  21155681.906 7
 18  5 22 15 20 18.0000000  0 14G 7G 8G 9G16G23G26G27R 1R 2R10R11R12
                                R20R21
 121816257.851 6  23180863.105 6      3141.143 6  94921776.01147  23180867.37147
      2447.65447         0.000 0
 116400594.916 5  22150296.770 5      3159.990 5  90701790.33147  22150303.65247
      2462.28347         0.000 0
 113337298.519 6  21567371.758 6      -459.271 6  88314805.70549  21567377.66849
      -357.79749         0.000 0
 109752539.944 6  20885213.504 6     -1998.453 6  85521473.41449  20885217.49649
     -1557.33049         0.000 0
 116157336.222 2  22104006.246 2     -2457.711 2  90512220.10944  22104009.05144
     -1915.12344         0.000 0
 120574520.326 3  22944570.406 3     -2899.879 3  93954199.34744  22944576.28944
     -2259.47944         0.000 0
 106666982.037 7  20298052.398 7       963.484 7  83117154.47249  20298057.63749
       750.69949         0.000 0
 121056747.118 6  22718194.824 6     -3346.973 6  94159828.174 6         0.000 0
     -2602.559 6  22718203.418 6
 118978875.169 7  22258207.762 7       349.979 7  92543711.254 5         0.000 0
       272.008 5  22258216.641 5
 107423164.417 8  20152313.188 8     -1749.424 8  83551419.466 7         0.000 0
     -1360.971 7  20152328.941 7
 106521034.361 8  19933959.254 8      1748.746 8  82849730.979 8         0.000 0
      1360.287 8  19933967.992 8
 123594895.913 5  23193969.484 5      3462.469 5         0.000 0         0.000 0
         0.000 0         0.000 0
 108185323.879 5  20231203.043 5      -309.539 5  84144201.934 8         0.000 0
      -240.518 8  20231215.219 8
 113204599.953 2  21154981.410 2      3720.092 2  88048031.681 7         0.000 0
      2893.391 7  21154985.422 7
 18  5 22 15 20 19.0000000  0 14G 7G 8G 9G16G23G26G27R 1R 2R10R11R12
                                R20R21
 121813116.362 6  23180265.102 6      3141.479 6  94919328.09447  23180270.02747
      2447.77947         0.000 0
 116397435.030 5  22149695.473 5      3159.760 5  90699328.09947  22149701.82847
      2462.07647         0.000 0
 113337758.211 6  21567458.879 6      -460.164 6  88315163.88749  21567465.17649
      -358.33649         0.000 0
 109754538.121 6  20885593.535 6     -1998.389 6  85523030.43949  20885597.64149
     -1557.20549         0.000 0
 116159793.588 2  22104473.992 2     -2457.842 2  90514134.93844  22104476.41044
     -1915.15444         0.000 0
 120577419.918 4  22945122.434 4     -2899.639 4  93956458.76845  22945128.83245
     -2259.60745         0.000 0
 106666018.229 7  20297868.934 7       963.723 7  83116403.45149  20297874.10249
       750.92249         0.000 0
 121060093.197 6  22718820.441 6     -3346.223 6  94162430.663 7         0.000 0
     -2602.061 7  22718830.180 7
 118978525.311 7  22258143.285 7       349.830 7  92543439.149 5         0.000 0
       271.490 5  22258151.020 5
 107424913.552 8  20152642.457 8     -1749.184 8  83552779.914 7         0.000 0
     -1360.277 7  20152655.488 7
 106519285.356 8  19933633.094 8      1748.852 8  82848370.651 9         0.000 0
      1360.336 9  19933641.547 9
 123591432.555 5  23193319.477 5      3463.531 5         0.000 0         0.000 0
         0.000 0         0.000 0
 108185633.237 5  20231262.605 5      -309.648 5  84144442.551 9         0.000 0
      -241.189 9  20231273.207 9
 113200879.555 1  21154284.277 1      3719.846 1  88045138.074 7         0.000 0
      2893.186 7  21154291.012 7
 18  5 22 15 20 20.0000000  0 14G 7G 8G 9G16G23G26G27R 1R 2R10R11R12
                                R20R21
 121809975.037 6  23179666.996 6      3141.254 6  94916880.31947  23179671.96147
      2447.86347         0.000 0
 116394275.517 6  22149093.793 6      3159.223 6  90696866.12147  22149101.11747
      2461.59447         0.000 0
 113338218.561 6  21567546.758 6      -460.350 6  88315522.62649  21567552.91049
      -358.72149         0.000 0
 109756536.647 6  20885974.176 6     -1998.594 6  85524587.72949  20885977.85249
     -1557.37349         0.000 0
 116162251.419 3  22104941.633 3     -2458.965 3  90516050.18544  22104943.99644
     -1915.89144         0.000 0
 120580319.682 4  22945674.500 4     -2900.020 4  93958718.32545  22945681.59845
     -2259.64145         0.000 0
 106665055.122 7  20297685.508 7       962.855 7  83115652.97949  20297690.87549
       750.38149         0.000 0
 121063439.764 5  22719447.527 5     -3346.291 5  94165033.563 6         0.000 0
     -2602.855 6  22719456.695 6
 118978176.352 7  22258078.848 7       348.707 7  92543167.689 5         0.000 0
       271.553 5  22258083.574 5
 107426663.142 8  20152969.758 8     -1749.838 8  83554140.701 7         0.000 0
     -1360.721 7  20152985.086 7
 106517536.786 8  19933305.828 8      1748.646 8  82847010.645 8         0.000 0
      1360.459 8  19933314.137 8
 123587969.281 5  23192673.805 5      3463.971 5         0.000 0         0.000 0
         0.000 0         0.000 0
 108185943.584 5  20231320.348 5      -310.986 5  84144683.922 8         0.000 0
      -241.400 8  20231332.234 8
 113197159.770 2  21153589.051 2      3719.758 2  88042244.826 7         0.000 0
      2893.484 7  21153594.922 7
 18  5 22 15 20 21.0000000  0 14G 7G 8G 9G16G23G26G27R 1R 2R10R11R12
                                R20R21
 121806833.841 5  23179069.504 5      3141.598 5  94914432.65447  23179075.31347
      2447.90647         0.000 0
 116391116.330 6  22148492.719 6      3159.430 6  90694404.42548  22148499.84848
      2461.81348         0.000 0
 113338679.568 6  21567633.816 6      -460.885 6  88315881.82849  21567640.10949
      -359.12749         0.000 0
 109758535.497 6  20886354.859 6     -1998.895 6  85526145.28049  20886358.36349
     -1557.60449         0.000 0
 116164709.646 3  22105409.461 3     -2457.547 3  90517965.65044  22105412.82444
     -1914.88944         0.000 0
 120583219.547 4  22946226.465 4     -2899.539 4  93960978.00245  22946233.24645
     -2259.38145         0.000 0
 106664092.670 7  20297502.840 7       962.320 7  83114903.01749  20297507.70349
       749.72349         0.000 0
 121066786.735 6  22720073.223 6     -3347.023 6  94167636.776 6         0.000 0
     -2603.479 6  22720085.828 6
 118977828.200 7  22258014.023 7       348.188 7  92542896.883 6         0.000 0
       271.225 6  22258020.184 6
 107428413.113 8  20153297.676 8     -1750.023 8  83555501.810 7         0.000 0
     -1361.070 7  20153310.996 7
 106515788.563 8  19932978.602 8      1747.814 8  82845650.896 9         0.000 0
      1359.914 9  19932987.195 9
 123584506.002 6  23192026.453 6      3463.158 6         0.000 0         0.000 0
         0.000 0         0.000 0
 108186254.831 5  20231379.273 5      -311.584 5  84144926.023 9         0.000 0
      -242.178 9  20231389.586 9
 113193440.362 3  21152893.430 3      3719.531 3  88039352.055 7         0.000 0
      2892.432 7  21152899.016 7
 18  5 22 15 20 22.0000000  0 14G 7G 8G 9G16G23G26G27R 1R 2R10R11R12
                                R20R21
 121803692.813 6  23178472.188 6      3141.361 6  94911985.11147  23178476.98447
      2447.80347         0.000 0
 116387957.576 5  22147891.398 5      3159.408 5  90691943.06148  22147898.72748
      2461.78748         0.000 0
 113339141.314 6  21567722.055 6      -461.746 6  88316241.64849  21567728.18049
      -359.87549         0.000 0
 109760534.680 6  20886735.293 6     -1999.150 6  85527703.08849  20886738.65249
     -1557.82449         0.000 0
 116167168.472 2  22105877.895 2     -2459.932 2  90519881.64044  22105880.75844
     -1916.96744         0.000 0
 120586119.591 4  22946777.750 4     -2899.502 4  93963237.76945  22946784.28945
     -2259.35045         0.000 0
 106663130.949 7  20297319.348 7       961.906 7  83114153.60649  20297324.96949
       749.56149         0.000 0
 121070134.161 6  22720700.242 6     -3347.166 6  94170240.328 6         0.000 0
     -2603.291 6  22720708.121 6
 118977480.999 7  22257948.090 7       347.246 7  92542626.835 6         0.000 0
       269.713 6  22257957.684 6
 107430163.538 7  20153627.777 7     -1750.086 7  83556863.251 7         0.000 0
     -1361.176 7  20153640.523 7
 106514040.698 8  19932650.266 8      1747.850 8  82844291.483 8         0.000 0
      1359.496 8  19932657.715 8
 123581042.769 6  23191377.422 6      3464.033 6         0.000 0         0.000 0
         0.000 0         0.000 0
 108186567.055 5  20231437.090 5      -312.154 5  84145168.868 8         0.000 0
      -242.969 8  20231447.691 8
 113189721.675 3  21152196.273 3      3718.588 3  88036459.706 7         0.000 0
      2892.346 7  21152204.723 7
 18  5 22 15 20 23.0000000  0 14G 7G 8G 9G16G23G26G27R 1R 2R10R11R12
                                R20R21
 121800551.904 6  23177874.750 6      3141.131 6  94909537.64448  23177878.88748
      2447.60248         0.000 0
 116384799.194 6  22147290.957 6      3158.396 6  90689481.97948  22147297.22348
      2461.13748         0.000 0
 113339603.703 6  21567810.313 6      -462.934 6  88316601.95549  21567816.59449
      -360.89649         0.000 0
 109762534.184 6  20887116.031 6     -1999.420 6  85529261.13749  20887118.34849
     -1557.85249         0.000 0
 116169627.708 2  22106346.348 2     -2459.264 2  90521797.94145  22106347.62145
     -1916.44545         0.000 0
 120589019.751 3  22947329.340 3     -2900.006 3  93965497.60645  22947337.45345
     -2259.72745         0.000 0
 106662169.872 7  20297136.590 7       960.758 7  83113404.73149  20297141.95349
       748.63549         0.000 0
 121073482.043 5  22721326.855 5     -3348.180 5  94172844.222 6         0.000 0
     -2603.611 6  22721335.449 6
 118977134.696 7  22257883.605 7       345.822 7  92542357.494 6         0.000 0
       268.553 6  22257893.199 6
 107431914.394 7  20153955.031 7     -1751.160 7  83558225.020 7         0.000 0
     -1362.139 7  20153968.781 7
 106512293.217 8  19932324.383 8      1747.010 8  82842932.325 8         0.000 0
      1358.805 8  19932333.551 8
 123577579.567 5  23190729.125 5      3463.645 5         0.000 0         0.000 0
         0.000 0         0.000 0
 108186880.210 4  20231494.355 4      -313.598 4  84145412.430 9         0.000 0
      -244.207 9  20231506.816 9
 113186003.411 2  21151501.281 2      3718.531 2  88033567.769 7         0.000 0
      2891.459 7  21151512.453 7
 18  5 22 15 20 24.0000000  0 14G 7G 8G 9G16G23G26G27R 1R 2R10R11R12
                                R20R21
 121797411.236 6  23177276.461 6      3140.281 6  94907090.38848  23177281.72748
      2446.96348         0.000 0
 116381641.276 6  22146690.234 6      3157.215 6  90687021.26448  22146695.87148
      2460.20548         0.000 0
 113340066.891 6  21567898.434 6      -464.330 6  88316962.87349  21567904.68849
      -361.82849         0.000 0
 109764534.143 6  20887495.914 6     -2000.934 6  85530819.55349  20887499.53549
     -1559.31149         0.000 0
 116172087.528 2  22106814.090 2     -2460.934 2  90523714.66144  22106816.06644
     -1917.67044         0.000 0
 120591920.163 3  22947880.648 3     -2900.875 3  93967757.69145  22947888.61745
     -2260.48245         0.000 0
 106661209.582 7  20296953.551 7       959.518 7  83112656.45649  20296959.14549
       747.74249         0.000 0
 121076830.442 6  22721953.039 6     -3349.344 6  94175448.546 6         0.000 0
     -2605.307 6  22721962.637 6
 118976789.347 7  22257818.266 7       344.814 7  92542088.897 5         0.000 0
       267.619 5  22257826.430 5
 107433665.753 7  20154284.727 7     -1752.596 7  83559587.172 7         0.000 0
     -1363.404 7  20154296.043 7
 106510546.194 8  19931998.219 8      1746.063 8  82841573.534 8         0.000 0
      1357.695 8  19932005.238 8
 123574116.515 5  23190079.543 5      3462.559 5         0.000 0         0.000 0
         0.000 0         0.000 0
 108187194.440 5  20231554.918 5      -315.055 5  84145656.823 9         0.000 0
      -245.139 9  20231564.656 9
 113182285.790 2  21150807.727 2      3716.803 2  88030676.268 7         0.000 0
      2890.701 7  21150817.039 7
 18  5 22 15 20 25.0000000  0 14G 7G 8G 9G16G23G26G27R 1R 2R10R11R12
                                R20R21
 121794270.641 6  23176678.988 6      3140.373 6  94904643.14548  23176683.30948
      2446.89848         0.000 0
 116378483.652 6  22146088.754 6      3157.658 6  90684560.78048  22146094.90648
      2460.45348         0.000 0
 113340530.649 6  21567986.656 6      -464.863 6  88317324.24849  21567992.29749
      -362.30349         0.000 0
 109766534.316 6  20887876.617 6     -2000.178 6  85532378.12049  20887880.08249
     -1558.53549         0.000 0
 116174547.735 2  22107281.797 2     -2460.607 2  90525631.71045  22107284.47345
     -1917.34445         0.000 0
 120594820.638 3  22948432.918 3     -2899.807 3  93970017.80545  22948439.62945
     -2259.55145         0.000 0
 106660249.894 7  20296770.613 7       959.180 7  83111908.64349  20296776.45349
       747.40449         0.000 0
 121080179.210 6  22722578.613 6     -3349.152 6  94178053.153 6         0.000 0
     -2604.861 6  22722590.215 6
 118976444.833 7  22257752.316 7       343.912 7  92541820.921 5         0.000 0
       267.479 5  22257762.055 5
 107435417.416 7  20154612.094 7     -1752.131 7  83560949.608 7         0.000 0
     -1362.707 7  20154627.848 7
 106508799.523 8  19931670.871 8      1745.805 8  82840215.001 8         0.000 0
      1358.414 8  19931678.031 8
 123570653.382 5  23189432.074 5      3463.121 5         0.000 0         0.000 0
         0.000 0         0.000 0
 108187509.536 5  20231614.438 5      -315.156 5  84145901.923 9         0.000 0
      -245.770 9  20231624.180 9
 113178568.597 3  21150113.848 3      3717.834 3  88027785.150 7         0.000 0
      2890.678 7  21150119.148 7
 18  5 22 15 20 26.0000000  0 14G 7G 8G 9G16G23G26G27R 1R 2R10R11R12
                                R20R21
 121791130.073 6  23176081.102 6      3140.656 6  94902195.95848  23176086.08248
      2447.03148         0.000 0
 116375326.299 6  22145488.148 6      3157.629 6  90682100.50948  22145494.63348
      2460.43048         0.000 0
 113340994.979 6  21568075.184 6      -464.990 6  88317686.05349  21568081.16449
      -362.32649         0.000 0
 109768534.745 6  20888258.055 6     -2000.676 6  85533936.91949  20888261.10249
     -1559.08649         0.000 0
 116177008.329 2  22107749.801 2     -2460.910 2  90527549.03545  22107753.46545
     -1917.66045         0.000 0
 120597721.159 3  22948984.922 3     -2899.973 3  93972277.93845  22948991.63345
     -2259.77045         0.000 0
 106659290.780 7  20296587.980 7       958.486 7  83111161.28149  20296593.93449
       746.73649         0.000 0
 121083528.313 6  22723204.348 6     -3349.299 6  94180658.002 6         0.000 0
     -2604.787 6  22723214.945 6
 118976101.037 7  22257689.105 7       343.590 7  92541553.563 6         0.000 0
       266.752 6  22257697.699 6
 107437169.408 7  20154939.473 7     -1752.004 7  83562312.262 7         0.000 0
     -1362.828 7  20154955.656 7
 106507053.066 8  19931343.109 8      1746.166 8  82838856.645 8         0.000 0
      1358.020 8  19931352.563 8
 123567192.694 5  23188784.758 5      3463.521 5         0.000 0         0.000 0
         0.000 0         0.000 0
 108187825.522 5  20231672.688 5      -316.279 5  84146147.675 9         0.000 0
      -246.066 9  20231683.430 9
 113174851.905 3  21149419.699 3      3716.768 3  88024894.343 7         0.000 0
      2891.064 7  21149425.715 7
 18  5 22 15 20 27.0000000  0 14G 7G 8G 9G16G23G26G27R 1R 2R10R11R12
                                R20R21
 121787989.706 6  23175483.668 6      3140.818 6  94899748.89848  23175487.83248
      2447.38548         0.000 0
 116372169.411 6  22144887.137 6      3157.322 6  90679640.58748  22144893.76248
      2460.17848         0.000 0
 113341460.059 6  21568163.734 6      -465.824 6  88318048.47249  21568170.01649
      -362.91049         0.000 0
 109770535.557 6  20888638.797 6     -2000.650 6  85535495.97849  20888641.91849
     -1559.06449         0.000 0
 116179469.448 2  22108217.832 2     -2461.139 2  90529466.81544  22108221.65244
     -1917.75644         0.000 0
 120600621.884 3  22949537.086 3     -2900.143 3  93974538.25845  22949543.27045
     -2259.92445         0.000 0
 106658332.404 7  20296405.371 7       958.492 7  83110414.49249  20296411.77049
       746.91449         0.000 0
 121086877.905 6  22723833.395 6     -3349.100 6  94183263.219 6         0.000 0
     -2604.455 6  22723842.277 6
 118975758.210 7  22257624.910 7       342.969 7  92541286.893 6         0.000 0
       266.988 6  22257634.363 6
 107438921.856 7  20155268.309 7     -1751.844 7  83563675.278 7         0.000 0
     -1362.592 7  20155284.922 7
 106505307.045 8  19931017.230 8      1746.775 8  82837498.627 8         0.000 0
      1358.488 8  19931023.965 8
 123563730.140 5  23188134.891 5      3463.291 5         0.000 0         0.000 0
         0.000 0         0.000 0
 108188142.527 5  20231731.387 5      -316.744 5  84146394.242 8         0.000 0
      -246.709 8  20231743.418 8
 113171135.809 3  21148727.004 3      3716.383 3  88022004.043 7         0.000 0
      2890.908 7  21148732.305 7
 18  5 22 15 20 28.0000000  0 14G 7G 8G 9G16G23G26G27R 1R 2R10R11R12
                                R20R21
 121784849.544 6  23174886.008 6      3140.635 6  94897302.04248  23174890.73048
      2447.16848         0.000 0
 116369012.939 6  22144286.758 6      3156.787 6  90677181.01248  22144292.84048
      2459.88348         0.000 0
 113341925.855 6  21568251.910 6      -466.498 6  88318411.41549  21568257.82049
      -363.38149         0.000 0
 109772536.741 6  20889018.742 6     -2000.619 6  85537055.34349  20889022.21949
     -1558.93049         0.000 0
 116181931.108 2  22108686.918 2     -2462.145 2  90531384.98345  22108689.25045
     -1918.46145         0.000 0
 120603522.816 3  22950088.742 3     -2900.777 3  93976798.68645  22950095.88345
     -2260.33645         0.000 0
 106657374.765 7  20296224.250 7       957.820 7  83109668.27349  20296229.30149
       746.46349         0.000 0
 121090228.040 6  22724459.211 6     -3350.088 6  94185868.900 6         0.000 0
     -2605.436 6  22724468.234 6
 118975416.313 7  22257561.352 7       342.059 7  92541020.987 6         0.000 0
       265.186 6  22257569.371 6
 107440674.813 7  20155598.637 7     -1752.441 7  83565038.694 7         0.000 0
     -1363.475 7  20155612.387 7
 106503561.443 8  19930690.984 8      1745.885 8  82836140.938 9         0.000 0
      1357.977 9  19930699.578 9
 123560267.167 5  23187486.656 5      3463.084 5         0.000 0         0.000 0
         0.000 0         0.000 0
 108188460.559 5  20231790.863 5      -318.318 5  84146641.565 8         0.000 0
      -247.242 8  20231801.461 8
 113167420.284 3  21148032.223 3      3716.115 3  88019114.185 7         0.000 0
      2890.475 7  21148038.668 7
 18  5 22 15 20 29.0000000  0 14G 7G 8G 9G16G23G26G27R 1R 2R10R11R12
                                R20R21
 121781709.434 6  23174288.117 6      3140.229 6  94894855.20848  23174293.32448
      2446.91848         0.000 0
 116365856.754 6  22143686.148 6      3156.205 6  90674721.66348  22143692.01648
      2459.32048         0.000 0
 113342392.253 6  21568341.004 6      -466.455 6  88318774.84649  21568347.24249
      -363.41649         0.000 0
 109774538.184 6  20889399.598 6     -2001.221 6  85538614.90749  20889403.36349
     -1559.37549         0.000 0
 116184393.099 3  22109155.637 3     -2461.613 3  90533303.41645  22109157.62545
     -1918.14545         0.000 0
 120606423.774 3  22950641.309 3     -2900.402 3  93979059.19545  22950647.86345
     -2260.13745         0.000 0
 106656417.725 7  20296042.188 7       956.965 7  83108922.53149  20296046.16449
       745.62749         0.000 0
 121093578.477 6  22725086.801 6     -3350.264 6  94188474.812 6         0.000 0
     -2606.002 6  22725095.969 6
 118975075.235 7  22257496.125 7       340.867 7  92540755.664 6         0.000 0
       265.734 6  22257502.715 6
 107442428.092 7  20155928.301 7     -1753.223 7  83566402.351 6         0.000 0
     -1363.688 6  20155943.484 6
 106501816.147 8  19930363.504 8      1745.453 8  82834783.470 8         0.000 0
      1357.684 8  19930371.238 8
 123556804.158 5  23186837.766 5      3463.531 5         0.000 0         0.000 0
         0.000 0         0.000 0
 108188779.430 5  20231852.398 5      -318.789 5  84146889.608 8         0.000 0
      -248.217 8  20231861.566 8
 113163705.149 4  21147336.633 4      3715.842 4  88016224.646 7         0.000 0
      2889.498 7  21147344.512 7
 18  5 22 15 20 30.0000000  0 14G 7G 8G 9G16G23G26G27R 1R 2R10R11R12
                                R20R21
 121778569.749 6  23173690.879 6      3139.953 6  94892408.71148  23173695.30148
      2446.87348         0.000 0
 116362701.216 6  22143085.621 6      3155.402 6  90672262.77948  22143092.03148
      2458.82648         0.000 0
 113342859.617 6  21568429.895 6      -467.863 6  88319139.02849  21568436.07449
      -364.37949         0.000 0
 109776540.253 6  20889780.680 6     -2001.926 6  85540174.96349  20889784.19949
     -1559.83049         0.000 0
 116186855.909 2  22109624.004 2     -2463.021 2  90535222.48745  22109626.63745
     -1919.12745         0.000 0
 120609325.202 3  22951192.957 3     -2901.850 3  93981320.06345  22951200.14145
     -2261.11945         0.000 0
 106655461.632 7  20295859.344 7       955.791 7  83108177.52149  20295865.36749
       744.76249         0.000 0
 121096929.677 6  22725713.469 6     -3351.717 6  94191081.289 5         0.000 0
     -2606.539 5  22725721.633 5
 118974735.312 6  22257433.277 6       339.492 6  92540491.313 5         0.000 0
       263.615 5  22257441.871 5
 107444182.094 7  20156256.906 7     -1754.381 7  83567766.566 6         0.000 0
     -1364.732 6  20156270.797 6
 106500071.501 8  19930037.820 8      1744.566 8  82833426.542 8         0.000 0
      1356.619 8  19930045.125 8
 123856445.475 5  23186190.672 5      3462.490 5         0.000 0         0.000 0
         0.000 0         0.000 0
 108189100.094 4  20231911.727 4      -321.141 4  84147139.102 8         0.000 0
      -249.613 8  20231920.891 8
 113160071.709 4  21146648.289 4      3539.250 4  88013334.896 7         0.000 0
      2886.559 7  21146650.867 7
 18  5 22 15 20 31.0000000  0 13G 7G 8G 9G16G23G26G27R 1R 2R10R11R12
                                R20
 121775430.086 6  23173093.129 6      3139.594 6  94889962.20748  23173097.89548
      2446.52948         0.000 0
 116359545.956 6  22142484.867 6      3154.945 6  90669804.14748  22142491.86348
      2458.44348         0.000 0
 113343327.531 6  21568519.273 6      -468.594 6  88319503.64549  21568524.75449
      -365.19149         0.000 0
 109778542.509 6  20890161.965 6     -2002.910 6  85541735.15449  20890165.25849
     -1560.91649         0.000 0
 116189319.004 3  22110092.434 3     -2464.648 3  90537141.76345  22110094.93845
     -1920.52545         0.000 0
 120612226.628 4  22951744.809 4     -2901.484 4  93983580.90145  22951752.55145
     -2260.76045         0.000 0
 106654506.095 7  20295678.277 7       955.354 7  83107432.94949  20295683.71549
       744.32049         0.000 0
 121100281.184 6  22726338.906 6     -3352.426 6  94193688.020 6         0.000 0
     -2607.213 6  22726350.082 6
 118974396.111 7  22257369.770 7       338.922 7  92540227.503 6         0.000 0
       263.506 6  22257376.504 6
 107445936.358 7  20156585.855 7     -1754.719 7  83569131.017 7         0.000 0
     -1365.682 7  20156600.320 7
 106498327.121 8  19929710.770 8      1743.996 8  82832069.783 9         0.000 0
      1356.336 9  19929718.934 9
 123852982.695 5  23185542.348 5      3463.324 5         0.000 0         0.000 0
         0.000 0         0.000 0
 108189420.537 5  20231971.113 5      -321.693 5  84147389.257 8         0.000 0
      -250.074 8  20231982.000 8
 18  5 22 15 20 32.0000000  0 13G 7G 8G 9G16G23G26G27R 1R 2R10R11R12
                                R20
 121772290.376 6  23172495.977 6      3139.400 6  94887515.67848  23172501.34448
      2446.28948         0.000 0
 116356390.887 6  22141884.566 6      3154.947 6  90667345.65348  22141890.84848
      2458.41848         0.000 0
 113343795.953 6  21568608.672 6      -468.826 6  88319868.62849  21568614.39549
      -365.45149         0.000 0
 109780544.912 6  20890543.563 6     -2002.693 6  85543295.47449  20890546.48049
     -1560.60949         0.000 0
 116191782.442 3  22110561.313 3     -2463.982 3  90539061.37144  22110563.80544
     -1919.86744         0.000 0
 120615128.011 3  22952297.684 3     -2901.309 3  93985841.74945  22952304.36745
     -2260.84445         0.000 0
 106653551.077 7  20295496.375 7       954.945 7  83106688.77149  20295501.93049
       744.02149         0.000 0
 121103632.936 6  22726966.660 6     -3351.898 6  94196294.914 6         0.000 0
     -2606.750 6  22726977.547 6
 118974057.640 7  22257306.715 7       337.828 7  92539964.248 6         0.000 0
       262.660 6  22257313.020 6
 107447690.897 7  20156915.688 7     -1754.875 7  83570495.641 7         0.000 0
     -1364.809 7  20156928.719 7
 106496582.917 8  19929384.453 8      1744.035 8  82830713.184 8         0.000 0
      1356.799 8  19929392.617 8
 123849519.797 5  23184892.617 5      3462.836 5         0.000 0         0.000 0
         0.000 0         0.000 0
 108189742.286 5  20232031.238 5      -321.887 5  84147639.485 8         0.000 0
      -250.646 8  20232040.262 8
 18  5 22 15 20 33.0000000  0 13G 7G 8G 9G16G23G26G27R 1R 2R10R11R12
                                R20
 121769151.082 6  23171899.000 6      3139.697 6  94885069.47148  23171903.10548
      2446.66648         0.000 0
 116353236.483 6  22141284.152 6      3154.854 6  90664887.67648  22141290.05148
      2458.13148         0.000 0
 113344265.310 6  21568697.105 6      -469.328 6  88320234.36449  21568702.84449
      -365.89549         0.000 0
 109782547.923 6  20890924.477 6     -2002.475 6  85544856.26149  20890927.43849
     -1560.54549         0.000 0
 116194246.616 3  22111031.086 3     -2464.018 3  90540981.49544  22111032.89144
     -1919.92044         0.000 0
 120618029.815 3  22952849.879 3     -2901.010 3  93988102.87845  22952854.95745
     -2260.46745         0.000 0
 106652597.012 7  20295315.367 7       954.383 7  83105945.34349  20295320.11749
       743.75449         0.000 0
 121106985.407 6  22727592.301 6     -3352.344 6  94198902.413 6         0.000 0
     -2607.293 6  22727604.477 6
 118973720.300 7  22257243.840 7       337.303 7  92539701.880 6         0.000 0
       262.588 6  22257250.285 6
 107449446.112 7  20157243.977 7     -1754.910 7  83571860.822 7         0.000 0
     -1365.039 7  20157257.727 7
 106494839.363 8  19929058.031 8      1743.607 8  82829357.076 9         0.000 0
      1356.725 9  19929066.055 9
 123846057.190 5  23184246.500 5      3463.621 5         0.000 0         0.000 0
         0.000 0         0.000 0
 108190065.228 5  20232091.254 5      -322.588 5  84147890.696 8         0.000 0
      -251.443 8  20232101.281 8
 18  5 22 15 20 34.0000000  0 13G 7G 8G 9G16G23G26G27R 1R 2R10R11R12
                                R20
 121766011.753 6  23171301.301 6      3139.363 6  94882623.24548  23171305.68048
      2446.53548         0.000 0
 116350082.301 6  22140684.309 6      3154.285 6  90662429.88148  22140690.69148
      2457.90248         0.000 0
 113344735.186 6  21568786.820 6      -470.152 6  88320600.50649  21568792.64549
      -366.29949         0.000 0
 109784551.103 6  20891305.813 6     -2003.219 6  85546417.18649  20891308.41449
     -1560.89149         0.000 0
 116196711.040 3  22111500.855 3     -2463.768 3  90542901.81844  22111501.94144
     -1919.87544         0.000 0
 120620931.602 3  22953402.211 3     -2901.541 3  93990363.98845  22953407.97745
     -2260.89145         0.000 0
 106651643.443 7  20295133.922 7       953.814 7  83105202.29949  20295138.43049
       743.27149         0.000 0
 121110338.168 6  22728221.660 6     -3352.914 6  94201510.072 6         0.000 0
     -2607.170 6  22728229.680 6
 118973383.720 7  22257179.957 7       336.441 7  92539440.069 6         0.000 0
       261.852 6  22257188.980 6
 107451201.604 7  20157572.977 7     -1755.344 7  83573226.172 7         0.000 0
     -1365.109 7  20157586.152 7
 106493096.013 8  19928730.602 8      1743.332 8  82828001.133 8         0.000 0
      1356.340 8  19928739.766 8
 123842594.480 5  23183596.797 5      3463.051 5         0.000 0         0.000 0
         0.000 0         0.000 0
 108190389.020 5  20232152.125 5      -323.900 5  84148142.498 8         0.000 0
      -251.926 8  20232161.148 8
 18  5 22 15 20 35.0000000  0 13G 7G 8G 9G16G23G26G27R 1R 2R10R11R12
                                R20
 121762872.678 6  23170703.871 6      3138.965 6  94880177.21448  23170708.58248
      2445.87348         0.000 0
 116346928.589 6  22140083.590 6      3153.672 6  90659972.45248  22140091.23048
      2457.57248         0.000 0
 113345205.841 6  21568876.234 6      -471.252 6  88320967.24749  21568882.51649
      -367.31349         0.000 0
 109786554.711 6  20891686.988 6     -2003.441 6  85547978.43849  20891689.50849
     -1561.16249         0.000 0
 116199176.103 3  22111969.031 3     -2464.555 3  90544822.62344  22111970.24644
     -1920.51844         0.000 0
 120623833.634 3  22953954.383 3     -2902.055 3  93992625.30445  22953960.23445
     -2261.35745         0.000 0
 106650690.672 7  20294952.035 7       952.596 7  83104459.89149  20294957.44149
       742.21949         0.000 0
 121113691.452 6  22728849.426 6     -3353.467 6  94204118.212 6         0.000 0
     -2608.145 6  22728858.734 6
 118973048.146 6  22257117.914 6       335.186 6  92539179.089 6         0.000 0
       260.682 6  22257124.363 6
 107452957.625 7  20157903.250 7     -1756.482 7  83574591.994 7         0.000 0
     -1366.475 7  20157916.426 7
 106491353.140 8  19928404.441 8      1742.701 8  82826645.566 8         0.000 0
      1355.678 8  19928414.180 8
 123839131.900 5  23182949.941 5      3462.869 5         0.000 0         0.000 0
         0.000 0         0.000 0
 108190713.842 4  20232211.547 4      -325.193 4  84148395.142 8         0.000 0
      -252.666 8  20232222.719 8
 18  5 22 15 20 36.0000000  0 14G 7G 8G 9G16G23G26G27R 1R 2R10R11R12
                                R20R21
 121759733.582 6  23170106.738 6      3138.498 6  94877731.17648  23170111.02748
      2445.64548         0.000 0
 116343775.111 6  22139483.590 6      3153.049 6  90657515.18948  22139490.87548
      2456.81648         0.000 0
 113345676.993 6  21568965.367 6      -471.797 6  88321334.37649  21568972.03549
      -367.83449         0.000 0
 109788558.501 6  20892068.602 6     -2004.064 6  85549539.83749  20892071.14849
     -1561.56649         0.000 0
 116201641.467 3  22112437.930 3     -2465.295 3  90546743.65645  22112439.82045
     -1920.86345         0.000 0
 120626735.649 3  22954505.844 3     -2902.385 3  93994886.61045  22954513.04345
     -2261.84045         0.000 0
 106649738.427 7  20294771.297 7       951.660 7  83103717.88149  20294776.26249
       741.60049         0.000 0
 121117044.992 6  22729473.902 6     -3353.270 6  94206726.529 6         0.000 0
     -2608.002 6  22729484.215 6
 118972713.300 7  22257052.730 7       333.975 7  92538918.640 6         0.000 0
       260.063 6  22257064.332 6
 107454713.895 7  20158232.238 7     -1756.656 7  83575957.983 7         0.000 0
     -1366.158 7  20158248.855 7
 106489610.451 8  19928078.574 8      1742.701 8  82825290.150 8         0.000 0
      1355.117 8  19928085.879 8
 123835669.195 5  23182301.230 5      3462.266 5         0.000 0         0.000 0
         0.000 0         0.000 0
 108191039.498 4  20232273.980 4      -326.990 4  84148648.416 8         0.000 0
      -254.105 8  20232284.152 8
 113137916.282 4  21142480.691 4      3711.213 4  87996009.317 7         0.000 0
      2886.402 7  21142487.281 7
 18  5 22 15 20 37.0000000  0 14G 7G 8G 9G16G23G26G27R 1R 2R10R11R12
                                R20R21
 121756594.661 6  23169509.500 6      3138.818 6  94875285.25848  23169513.87948
      2445.87548         0.000 0
 116340622.060 6  22138882.922 6      3152.451 6  90655058.28048  22138890.37548
      2456.57848         0.000 0
 113346148.908 6  21569055.973 6      -472.455 6  88321702.10849  21569062.27049
      -368.26849         0.000 0
 109790562.677 6  20892449.398 6     -2004.643 6  85551101.52349  20892453.16049
     -1561.82449         0.000 0
 116204107.327 3  22112907.586 3     -2466.441 3  90548665.10245  22112909.26245
     -1921.82445         0.000 0
 120629637.861 3  22955059.066 3     -2902.574 3  93997148.08745  22955065.27745
     -2261.74645         0.000 0
 106648786.909 7  20294589.742 7       950.965 7  83102976.44349  20294595.60949
       741.04949         0.000 0
 121120399.065 6  22730101.719 6     -3354.340 6  94209335.236 6         0.000 0
     -2608.379 6  22730112.891 6
 118972379.373 7  22256991.027 7       333.414 7  92538658.940 6         0.000 0
       258.631 6  22256999.480 6
 107456470.678 7  20158562.703 7     -1756.984 7  83577324.367 7         0.000 0
     -1366.787 7  20158577.887 7
 106487868.212 8  19927753.609 8      1741.906 8  82823935.092 8         0.000 0
      1354.857 8  19927761.488 8
 123832206.581 6  23181653.707 6      3462.426 6         0.000 0         0.000 0
         0.000 0         0.000 0
 108191366.068 4  20232334.168 4      -327.199 4  84148902.438 8         0.000 0
      -254.637 8  20232344.480 8
 113134205.521 4  21141788.195 4      3710.145 4  87993123.173 7         0.000 0
      2885.676 7  21141795.215 7
 18  5 22 15 20 38.0000000  0 14G 7G 8G 9G16G23G26G27R 1R 2R10R11R12
                                R20R21
 121753455.884 6  23168911.984 6      3138.504 6  94872839.47148  23168916.95348
      2445.48048         0.000 0
 116337469.360 6  22138283.691 6      3152.371 6  90652601.61448  22138289.84448
      2456.47748         0.000 0
 113346621.445 6  21569145.586 6      -472.457 6  88322070.32649  21569151.19549
      -368.13549         0.000 0
 109792567.159 6  20892829.918 6     -2004.820 6  85552663.46449  20892834.19549
     -1562.27549         0.000 0
 116206573.647 3  22113377.109 3     -2466.500 3  90550586.95845  22113378.77045
     -1921.84845         0.000 0
 120632540.208 3  22955611.727 3     -2902.771 3  93999409.65845  22955617.85245
     -2261.78945         0.000 0
 106647836.047 7  20294408.625 7       950.748 7  83102235.50949  20294413.80549
       740.98649         0.000 0
 121123753.520 5  22730729.828 5     -3354.322 5  94211944.270 6         0.000 0
     -2609.223 6  22730739.566 6
 118972046.303 7  22256928.902 7       332.533 7  92538399.857 6         0.000 0
       258.744 6  22256941.078 6
 107458227.854 7  20158892.176 7     -1757.260 7  83578691.037 7         0.000 0
     -1366.342 7  20158909.363 7
 106486126.336 8  19927427.652 8      1741.844 8  82822580.299 8         0.000 0
      1354.619 8  19927435.242 8
 123828743.971 5  23181003.902 5      3462.834 5         0.000 0         0.000 0
         0.000 0         0.000 0
 108191693.703 4  20232395.078 4      -328.766 4  84149157.198 8         0.000 0
      -255.033 8  20232405.680 8
 113130495.305 3  21141098.141 3      3709.379 3  87990237.416 7         0.000 0
      2885.631 7  21141099.574 7
 18  5 22 15 20 39.0000000  0 14G 7G 8G 9G16G23G26G27R 1R 2R10R11R12
                                R20R21
 121750317.166 6  23168314.504 6      3139.086 6  94870393.71147  23168319.25447
      2446.07447         0.000 0
 116334316.952 6  22137684.348 6      3152.348 6  90650145.19148  22137690.31348
      2456.36748         0.000 0
 113347094.617 6  21569235.660 6      -473.047 6  88322439.02149  21569241.21149
      -368.59649         0.000 0
 109794571.887 6  20893212.613 6     -2004.453 6  85554225.56649  20893216.21949
     -1561.91849         0.000 0
 116209040.369 3  22113845.660 3     -2466.213 3  90552509.08545  22113849.12545
     -1921.68445         0.000 0
 120635442.586 3  22956163.559 3     -2902.170 3  94001671.25545  22956168.63745
     -2261.31345         0.000 0
 106646885.766 7  20294227.969 7       950.334 7  83101495.04049  20294233.69149
       740.38949         0.000 0
 121127108.327 6  22731356.535 6     -3354.936 6  94214553.552 6         0.000 0
     -2608.631 6  22731368.422 6
 118971714.033 7  22256866.379 7       332.096 7  92538141.429 5         0.000 0
       258.574 5  22256875.547 5
 107459985.375 7  20159220.961 7     -1757.539 7  83580057.995 7         0.000 0
     -1366.531 7  20159236.859 7
 106484384.741 8  19927101.582 8      1741.740 8  82821225.712 8         0.000 0
      1354.977 8  19927110.605 8
 123825281.338 5  23180355.559 5      3463.256 5         0.000 0         0.000 0
         0.000 0         0.000 0
 108192022.047 5  20232454.016 5      -328.303 5  84149412.612 8         0.000 0
      -255.281 8  20232466.906 8
 113126785.499 2  21140404.250 2      3709.881 2  87987352.011 7         0.000 0
      2885.246 7  21140406.688 7
 18  5 22 15 20 40.0000000  0 14G 7G 8G 9G16G23G26G27R 1R 2R10R11R12
                                R20R21
 121747178.751 6  23167717.977 6      3138.523 6  94867948.22647  23167722.43847
      2445.45347         0.000 0
 116331165.140 6  22137084.527 6      3152.039 6  90647689.23848  22137090.36748
      2456.09848         0.000 0
 113347568.656 6  21569325.543 6      -473.842 6  88322808.40349  21569332.01249
      -369.31649         0.000 0
 109796577.139 7  20893593.691 7     -2005.660 7  85555788.09949  20893597.43849
     -1562.91049         0.000 0
 116211507.769 3  22114315.313 3     -2467.027 3  90554431.70444  22114317.77344
     -1922.14844         0.000 0
 120638345.307 4  22956716.199 4     -2902.691 4  94003933.08845  22956721.73845
     -2261.81645         0.000 0
 106645936.399 7  20294047.551 7       949.068 7  83100755.27149  20294052.41849
       739.70949         0.000 0
 121130463.841 5  22731985.059 5     -3355.795 5  94217163.368 6         0.000 0
     -2609.629 6  22731993.797 6
 118971382.830 7  22256805.242 7       331.080 7  92537883.854 5         0.000 0
       257.520 5  22256812.688 5
 107461743.520 7  20159550.559 7     -1758.027 7  83581425.440 7         0.000 0
     -1367.566 7  20159564.309 7
 106482643.728 8  19926774.461 8      1740.840 8  82819871.609 8         0.000 0
      1354.195 8  19926782.625 8
 123821818.941 5  23179707.457 5      3462.592 5         0.000 0         0.000 0
         0.000 0         0.000 0
 108192351.647 5  20232517.777 5      -330.473 5  84149668.941 8         0.000 0
      -256.570 8  20232530.094 8
 113123076.472 1  21139708.309 1      3707.652 1  87984467.159 7         0.000 0
      2885.266 7  21139712.895 7
 18  5 22 15 20 41.0000000  0 14G 7G 8G 9G16G23G26G27R 1R 2R10R11R12
                                R20R21
 121744040.646 6  23167120.473 6      3138.357 6  94865502.91547  23167125.15247
      2445.41047         0.000 0
 116328013.818 5  22136485.020 5      3151.404 5  90645233.68448  22136491.50448
      2455.60548         0.000 0
 113348043.498 6  21569415.598 6      -474.945 6  88323178.41349  21569421.98049
      -369.92649         0.000 0
 109798582.877 7  20893974.793 7     -2005.885 7  85557351.00649  20893978.35549
     -1562.99249         0.000 0
 116213975.704 3  22114784.273 3     -2467.096 3  90556354.77944  22114787.34844
     -1922.32844         0.000 0
 120641248.360 4  22957268.586 4     -2903.092 4  94006195.19145  22957275.92645
     -2262.07445         0.000 0
 106644987.836 7  20293867.020 7       948.199 7  83100016.13249  20293872.15649
       738.78749         0.000 0
 121133819.865 6  22732613.320 6     -3355.730 6  94219773.640 6         0.000 0
     -2610.357 6  22732622.344 6
 118971052.668 7  22256742.410 7       329.992 7  92537627.074 5         0.000 0
       256.127 5  22256748.141 5
 107463502.269 7  20159881.902 7     -1758.998 7  83582793.327 7         0.000 0
     -1367.631 7  20159897.230 7
 106480903.203 8  19926450.375 8      1740.377 8  82818517.881 8         0.000 0
      1353.621 8  19926458.539 8
 123818356.694 5  23179059.813 5      3462.305 5         0.000 0         0.000 0
         0.000 0         0.000 0
 108192682.311 5  20232579.844 5      -330.545 5  84149926.147 8         0.000 0
      -257.184 8  20232592.020 8
 113119368.017 2  21139012.824 2      3708.283 2  87981582.848 6         0.000 0
      2884.418 6  21139018.410 6
 18  5 22 15 20 42.0000000  0 14G 7G 8G 9G16G23G26G27R 1R 2R10R11R12
                                R20R21
 121740902.565 6  23166523.082 6      3138.197 6  94863057.66348  23166528.39148
      2445.31148         0.000 0
 116324862.787 5  22135884.914 5      3151.303 5  90642778.31648  22135891.84048
      2455.60448         0.000 0
 113348518.905 6  21569506.340 6      -475.807 6  88323548.86649  21569512.60549
      -370.68849         0.000 0
 109800588.821 7  20894356.867 7     -2005.965 7  85558914.07449  20894360.68849
     -1562.75849         0.000 0
 116216444.091 2  22115254.352 2     -2467.918 2  90558278.18144  22115257.32844
     -1922.89544         0.000 0
 120644151.421 4  22957821.227 4     -2903.328 4  94008457.33745  22957828.10945
     -2262.34845         0.000 0
 106644039.821 7  20293686.313 7       947.748 7  83099277.42149  20293691.53549
       738.59049         0.000 0
 121137176.251 5  22733240.125 5     -3356.369 5  94222384.135 6         0.000 0
     -2610.998 6  22733250.867 6
 118970723.270 7  22256681.270 7       328.990 7  92537370.850 5         0.000 0
       257.291 5  22256689.148 5
 107465261.293 7  20160210.500 7     -1759.236 7  83584161.463 7         0.000 0
     -1367.873 7  20160227.828 7
 106479162.961 8  19926124.113 8      1739.984 8  82817164.339 8         0.000 0
      1353.395 8  19926132.996 8
 123814894.383 5  23178411.133 5      3462.902 5         0.000 0         0.000 0
         0.000 0         0.000 0
 108193013.831 5  20232642.172 5      -331.646 5  84150184.002 8         0.000 0
      -257.988 8  20232653.199 8
 113115660.014 2  21138319.172 2      3708.461 2  87978698.873 7         0.000 0
      2884.400 7  21138327.051 7
 18  5 22 15 20 43.0000000  0 14G 7G 8G 9G16G23G26G27R 1R 2R10R11R12
                                R20R21
 121737764.545 6  23165926.426 6      3138.273 6  94860612.45848  23165930.81648
      2445.22348         0.000 0
 116321711.980 5  22135285.250 5      3151.047 5  90640323.15248  22135291.93448
      2455.16448         0.000 0
 113348994.882 6  21569596.949 6      -475.908 6  88323919.73249  21569603.43449
      -370.77549         0.000 0
 109802594.981 6  20894738.816 6     -2006.123 6  85560477.32449  20894742.46549
     -1563.15849         0.000 0
 116218912.806 2  22115723.867 2     -2468.605 2  90560201.83544  22115727.01644
     -1923.54944         0.000 0
 120647054.458 4  22958373.164 4     -2902.570 4  94010719.46645  22958380.21945
     -2261.63545         0.000 0
 106643092.391 7  20293506.195 7       947.412 7  83098539.15949  20293511.28949
       738.25049         0.000 0
 121140532.944 5  22733869.664 5     -3356.961 5  94224994.904 6         0.000 0
     -2610.932 6  22733877.254 6
 118970394.673 7  22256620.719 7       328.166 7  92537115.256 5         0.000 0
       255.465 5  22256626.016 5
 107467020.624 7  20160542.113 7     -1759.301 7  83585529.864 7         0.000 0
     -1368.527 7  20160556.723 7
 106477422.998 8  19925799.297 8      1739.902 8  82815811.030 8         0.000 0
      1353.775 8  19925804.742 8
 123811432.002 5  23177765.480 5      3462.877 5         0.000 0         0.000 0
         0.000 0         0.000 0
 108193346.212 5  20232704.652 5      -332.531 5  84150442.538 8         0.000 0
      -258.857 8  20232716.828 8
 113111952.458 3  21137626.965 3      3707.520 3  87975815.246 7         0.000 0
      2883.297 7  21137634.414 7
 18  5 22 15 20 44.0000000  0 14G 7G 8G 9G16G23G26G27R 1R 2R10R11R12
                                R20R21
 121734626.724 5  23165329.809 5      3137.871 5  94858167.41648  23165333.15648
      2445.08848         0.000 0
 116318561.671 5  22134686.199 5      3150.215 5  90637868.36848  22134691.30948
      2454.67848         0.000 0
 113349471.626 6  21569687.605 6      -476.504 6  88324291.22149  21569694.28549
      -371.27949         0.000 0
 109804601.573 6  20895120.516 6     -2007.072 6  85562040.92549  20895124.35249
     -1564.17249         0.000 0
 116221382.077 2  22116193.859 2     -2470.100 2  90562125.98544  22116197.40644
     -1924.95344         0.000 0
 120649957.787 4  22958925.293 4     -2903.088 4  94012981.79045  22958933.73445
     -2262.12145         0.000 0
 106642145.754 7  20293326.547 7       946.074 7  83097801.52249  20293331.47349
       737.10049         0.000 0
 121143890.146 5  22734497.813 5     -3357.129 5  94227606.077 7         0.000 0
     -2611.594 7  22734507.410 7
 118970067.026 7  22256557.344 7       327.449 7  92536860.433 5         0.000 0
       254.295 5  22256566.797 5
 107468780.479 7  20160871.336 7     -1760.270 7  83586898.643 7         0.000 0
     -1368.896 7  20160886.234 7
 106475683.510 8  19925472.664 8      1739.461 8  82814458.101 9         0.000 0
      1353.152 9  19925481.258 9
 123807969.781 6  23177115.281 6      3462.279 6         0.000 0         0.000 0
         0.000 0         0.000 0
 108193679.685 5  20232766.895 5      -334.594 5  84150701.877 8         0.000 0
      -259.754 8  20232777.207 8
 113108245.544 4  21136936.664 4      3706.197 4  87972932.072 7         0.000 0
      2883.221 7  21136943.254 7
 18  5 22 15 20 45.0000000  0 14G 7G 8G 9G16G23G26G27R 1R 2R10R11R12
                                R20R21
 121731489.001 6  23164731.797 6      3137.900 6  94855722.41548  23164736.53548
      2445.14548         0.000 0
 116315411.696 5  22134086.758 5      3149.893 5  90635413.82548  22134092.61348
      2454.61748         0.000 0
 113349949.007 6  21569778.867 6      -477.338 6  88324663.23149  21569784.70749
      -371.96749         0.000 0
 109806608.433 6  20895502.543 6     -2007.045 6  85563604.70149  20895505.55149
     -1564.09849         0.000 0
 116223851.754 2  22116664.031 2     -2469.467 2  90564050.42744  22116666.80544
     -1924.31344         0.000 0
 120652861.198 4  22959477.598 4     -2903.395 4  94015244.19545  22959485.65245
     -2262.43845         0.000 0
 106641199.722 7  20293146.082 7       945.633 7  83097064.36649  20293150.85949
       736.84249         0.000 0
 121147247.745 5  22735123.426 5     -3357.367 5  94230217.529 6         0.000 0
     -2611.545 6  22735133.453 6
 118969740.234 7  22256497.879 7       326.541 7  92536606.331 5         0.000 0
       253.182 5  22256504.035 5
 107470540.707 7  20161200.746 7     -1760.164 7  83588267.693 7         0.000 0
     -1368.367 7  20161215.355 7
 106473944.367 8  19925147.504 8      1738.938 8  82813105.439 8         0.000 0
      1352.709 8  19925155.238 8
 123804507.542 5  23176466.563 5      3462.701 5         0.000 0         0.000 0
         0.000 0         0.000 0
 108194014.041 5  20232828.316 5      -335.070 5  84150961.922 8         0.000 0
      -260.244 8  20232839.633 8
 113104539.120 2  21136242.824 2      3706.121 2  87970049.270 7         0.000 0
      2882.977 7  21136249.129 7
 18  5 22 15 20 46.0000000  0 14G 7G 8G 9G16G23G26G27R 1R 2R10R11R12
                                R20R21
 121728351.438 6  23164134.211 6      3137.963 6  94853277.54748  23164139.06348
      2445.14548         0.000 0
 116312262.085 5  22133487.027 5      3149.740 5  90632959.58147  22133493.75047
      2454.38347         0.000 0
 113350427.073 6  21569869.410 6      -478.252 6  88325035.74449  21569875.94949
      -372.72949         0.000 0
 109808615.652 7  20895884.566 7     -2007.061 7  85565168.75649  20895888.25849
     -1564.09849         0.000 0
 116226321.935 3  22117134.051 3     -2470.168 3  90565975.24144  22117136.59844
     -1924.93844         0.000 0
 120655764.788 3  22960030.039 3     -2903.527 3  94017506.71545  22960038.55545
     -2262.49645         0.000 0
 106640254.404 7  20292966.035 7       945.031 7  83096327.75349  20292971.70349
       736.35449         0.000 0
 121150605.822 5  22735753.754 5     -3357.951 5  94232829.348 6         0.000 0
     -2611.564 6  22735763.637 6
 118969414.334 7  22256437.543 7       325.861 7  92536352.787 5         0.000 0
       253.885 5  22256443.559 5
 107472301.368 7  20161530.574 7     -1760.631 7  83589637.089 7         0.000 0
     -1368.584 7  20161546.043 7
 106472205.566 8  19924821.613 8      1739.115 8  82811753.037 8         0.000 0
      1352.648 8  19924829.207 8
 123801045.373 5  23175820.121 5      3461.902 5         0.000 0         0.000 0
         0.000 0         0.000 0
 108194349.383 5  20232890.871 5      -336.553 5  84151222.747 8         0.000 0
      -261.105 8  20232903.336 8
 113100833.218 2  21135551.840 2      3706.240 2  87967166.921 7         0.000 0
      2882.313 7  21135555.992 7
 18  5 22 15 20 47.0000000  0 14G 7G 8G 9G16G23G26G27R 1R 2R10R11R12
                                R20R21
 121725213.896 6  23163537.922 6      3137.625 6  94850832.72748  23163542.01648
      2444.88548         0.000 0
 116309112.730 5  22132886.730 5      3149.266 5  90630505.54447  22132893.75847
      2453.81147         0.000 0
 113350905.667 6  21569961.105 6      -478.199 6  88325408.67649  21569966.62949
      -372.71749         0.000 0
 109810623.052 6  20896266.309 6     -2007.066 6  85566732.96849  20896270.02749
     -1563.79149         0.000 0
 116228792.428 3  22117604.941 3     -2470.389 3  90567900.26044  22117607.06344
     -1924.90444         0.000 0
 120658668.353 3  22960583.066 3     -2903.182 3  94019769.22045  22960591.72345
     -2262.09245         0.000 0
 106639309.605 7  20292786.289 7       944.830 7  83095591.53249  20292791.73849
       736.30949         0.000 0
 121153964.187 5  22736380.941 5     -3358.055 5  94235441.419 7         0.000 0
     -2611.729 7  22736390.824 7
 118969089.142 7  22256376.930 7       325.287 7  92536099.865 5         0.000 0
       252.275 5  22256384.090 5
 107474062.307 7  20161860.844 7     -1760.715 7  83591006.714 7         0.000 0
     -1369.471 7  20161876.313 7
 106470466.983 8  19924495.734 8      1738.543 8  82810400.801 9         0.000 0
      1352.719 9  19924505.047 9
 123797583.058 5  23175170.539 5      3462.422 5         0.000 0         0.000 0
         0.000 0         0.000 0
 108194685.485 5  20232954.871 5      -337.029 5  84151484.180 8         0.000 0
      -261.719 8  20232964.324 8
 113097127.677 3  21134860.148 3      3705.588 3  87964284.850 7         0.000 0
      2881.777 7  21134865.305 7
 18  5 22 15 20 48.0000000  0 14G 7G 8G 9G16G23G26G27R 1R 2R10R11R12
                                R20R21
 121722076.582 6  23162940.699 6      3137.043 6  94848388.05948  23162946.02048
      2444.43248         0.000 0
 116305963.845 5  22132288.363 5      3148.820 5  90628051.87147  22132294.61747
      2453.59247         0.000 0
 113351385.039 6  21570052.012 6      -479.482 6  88325782.20049  21570058.02349
      -373.59849         0.000 0
 109812630.887 6  20896648.551 6     -2008.156 6  85568297.53149  20896652.29749
     -1564.77149         0.000 0
 116231263.516 3  22118075.328 3     -2471.867 3  90569825.76244  22118076.81644
     -1926.19744         0.000 0
 120661572.129 3  22961135.441 3     -2903.527 3  94022031.93645  22961143.82845
     -2262.77945         0.000 0
 106638365.611 7  20292606.605 7       943.408 7  83094855.96149  20292612.18849
       735.11349         0.000 0
 121157323.102 5  22737008.770 5     -3358.621 5  94238053.914 7         0.000 0
     -2612.184 7  22737019.652 7
 118968764.970 7  22256313.520 7       324.078 7  92535847.730 5         0.000 0
       251.645 5  22256320.250 5
 107475823.746 7  20162192.754 7     -1761.416 7  83592376.738 7         0.000 0
     -1369.963 7  20162207.793 7
 106468728.886 8  19924171.930 8      1737.762 8  82809048.961 9         0.000 0
      1351.658 9  19924179.523 9
 123794120.865 5  23174522.883 5      3462.463 5         0.000 0         0.000 0
         0.000 0         0.000 0
 108195022.630 5  20233016.074 5      -337.691 5  84151746.417 8         0.000 0
      -262.506 8  20233028.820 8
 113093422.814 4  21134166.230 4      3704.514 4  87961403.258 7         0.000 0
      2881.615 7  21134172.816 7
 18  5 22 15 20 49.0000000  0 14G 7G 8G 9G16G23G26G27R 1R 2R10R11R12
                                R20R21
 121718939.433 6  23162343.008 6      3137.291 6  94845943.52948  23162348.43048
      2444.65248         0.000 0
 116302815.408 5  22131688.953 5      3148.092 5  90625598.54547  22131695.60947
      2453.07047         0.000 0
 113351865.152 6  21570143.453 6      -480.543 6  88326156.31349  21570149.33249
      -374.41249         0.000 0
 109814639.068 6  20897030.609 6     -2008.475 6  85569862.33949  20897033.88749
     -1565.19349         0.000 0
 116233735.062 3  22118545.531 3     -2471.463 3  90571751.64844  22118547.76644
     -1925.87744         0.000 0
 120664476.138 4  22961688.352 4     -2904.217 4  94024294.80345  22961696.68045
     -2263.12345         0.000 0
 106637422.290 7  20292427.316 7       943.207 7  83094120.89849  20292432.15249
       734.88749         0.000 0
 121160682.501 5  22737637.273 5     -3359.836 5  94240666.796 7         0.000 0
     -2612.996 7  22737646.297 7
 118968441.740 7  22256253.938 7       322.295 7  92535596.287 5         0.000 0
       251.535 5  22256261.387 5
 107477585.669 7  20162522.047 7     -1762.203 7  83593747.117 7         0.000 0
     -1370.602 7  20162537.945 7
 106466991.226 8  19923847.227 8      1737.465 8  82807697.441 9         0.000 0
      1351.256 9  19923853.242 9
 123790658.779 5  23173874.906 5      3462.320 5         0.000 0         0.000 0
         0.000 0         0.000 0
 108195360.771 5  20233080.387 5      -338.244 5  84152009.427 8         0.000 0
      -263.377 8  20233092.707 8
 113089718.506 4  21133473.992 4      3703.943 4  87958522.168 7         0.000 0
      2880.451 7  21133478.004 7
 18  5 22 15 20 50.0000000  0 14G 7G 8G 9G16G23G26G27R 1R 2R10R11R12
                                R20R21
 121715802.373 6  23161746.570 6      3137.246 6  94843499.07648  23161751.17648
      2444.66248         0.000 0
 116299667.276 5  22131090.371 5      3147.949 5  90623145.46448  22131096.70748
      2453.06148         0.000 0
 113352345.865 6  21570235.570 6      -481.018 6  88326530.89649  21570240.33649
      -374.83249         0.000 0
 109816647.542 6  20897413.207 6     -2008.539 6  85571427.38749  20897416.73849
     -1564.91249         0.000 0
 116236207.077 3  22119016.703 3     -2472.016 3  90573677.92344  22119019.03544
     -1926.33844         0.000 0
 120667380.230 4  22962240.227 4     -2904.262 4  94026557.71345  22962249.58645
     -2263.05745         0.000 0
 106636479.636 7  20292248.563 7       942.244 7  83093386.36549  20292253.19949
       734.05549         0.000 0
 121164042.247 6  22738266.891 6     -3359.469 6  94243279.925 7         0.000 0
     -2612.967 7  22738279.492 7
 118968119.291 7  22256193.461 7       322.252 7  92535345.528 5         0.000 0
       250.451 5  22256201.914 5
 107479347.915 7  20162853.023 7     -1762.207 7  83595117.759 7         0.000 0
     -1370.826 7  20162867.203 7
 106465253.861 8  19923520.195 8      1737.422 8  82806346.155 9         0.000 0
      1351.598 9  19923529.223 9
 123787196.677 5  23173228.469 5      3462.121 5         0.000 0         0.000 0
         0.000 0         0.000 0
 108195699.822 5  20233144.238 5      -339.557 5  84152273.128 8         0.000 0
      -263.855 8  20233157.273 8
 113086014.684 5  21132783.297 5      3703.920 5  87955641.411 7         0.000 0
      2881.086 7  21132788.738 7
 18  5 22 15 20 51.0000000  0 14G 7G 8G 9G16G23G26G27R 1R 2R10R11R12
                                R20R21
 121712665.405 6  23161149.020 6      3137.510 6  94841054.67848  23161154.24248
      2444.62748         0.000 0
 116296519.473 5  22130491.246 5      3147.783 5  90620692.62347  22130498.45747
      2452.92847         0.000 0
 113352827.192 6  21570327.012 6      -481.322 6  88326905.96149  21570332.44949
      -374.94549         0.000 0
 109818656.283 6  20897794.977 6     -2008.295 6  85572992.62449  20897799.02749
     -1564.86749         0.000 0
 116238679.468 3  22119487.191 3     -2471.967 3  90575604.45544  22119489.26644
     -1926.19744         0.000 0
 120670284.368 3  22962793.711 3     -2903.922 3  94028820.69645  22962801.53545
     -2262.83845         0.000 0
 106635537.608 7  20292068.270 7       941.961 7  83092652.29749  20292073.70749
       734.00249         0.000 0
 121167402.392 5  22738895.395 5     -3360.066 5  94245893.361 7         0.000 0
     -2612.943 7  22738907.855 7
 118967797.697 7  22256133.594 7       321.674 7  92535095.391 5         0.000 0
       250.416 5  22256142.188 5
 107481110.536 7  20163184.609 7     -1762.180 7  83596488.668 7         0.000 0
     -1370.217 7  20163201.652 7
 106463516.816 8  19923195.063 8      1737.195 8  82804995.121 9         0.000 0
      1351.133 9  19923203.512 9
 123783734.555 5  23172578.629 5      3462.188 5         0.000 0         0.000 0
         0.000 0         0.000 0
 108196039.735 5  20233206.691 5      -338.572 5  84152537.520 8         0.000 0
      -264.203 8  20233218.863 8
 113082311.361 4  21132090.059 4      3704.104 4  87952761.035 7         0.000 0
      2880.230 7  21132094.785 7
 18  5 22 15 20 52.0000000  0 14G 7G 8G 9G16G23G26G27R 1R 2R10R11R12
                                R20R21
 121709528.795 6  23160552.906 6      3137.076 6  94838610.57748  23160557.65648
      2444.51248         0.000 0
 116293372.264 5  22129892.703 5      3147.213 5  90618240.26147  22129898.88347
      2452.28547         0.000 0
 113353309.416 6  21570418.313 6      -482.479 6  88327281.71249  21570424.50849
      -375.92049         0.000 0
 109820665.563 6  20898177.328 6     -2008.650 6  85574558.31849  20898181.19149
     -1565.27749         0.000 0
 116241152.574 2  22119957.258 2     -2473.123 2  90577531.56944  22119958.93044
     -1927.23044         0.000 0
 120673188.897 4  22963346.625 4     -2904.432 4  94031083.94945  22963353.53545
     -2263.12945         0.000 0
 106634596.460 7  20291889.844 7       941.254 7  83091918.94349  20291895.05149
       733.39649         0.000 0
 121170763.157 6  22739522.758 6     -3360.480 6  94248507.294 7         0.000 0
     -2613.939 7  22739533.645 7
 118967477.177 7  22256074.875 7       320.518 7  92534846.072 5         0.000 0
       249.830 5  22256081.320 5
 107482873.816 7  20163515.910 7     -1763.180 7  83597860.109 7         0.000 0
     -1371.387 7  20163531.953 7
 106461780.352 8  19922871.367 8      1736.313 8  82803644.533 9         0.000 0
      1350.822 9  19922879.387 9
 123780272.646 5  23171930.082 5      3462.750 5         0.000 0         0.000 0
         0.000 0         0.000 0
 108196380.891 5  20233270.008 5      -340.490 5  84152802.862 8         0.000 0
      -265.607 8  20233282.039 8
 113078608.764 5  21131398.254 5      3703.492 5  87949881.252 7         0.000 0
      2880.191 7  21131405.559 7
 18  5 22 15 20 53.0000000  0 14G 7G 8G 9G16G23G26G27R 1R 2R10R11R12
                                R20R21
 121706392.280 6  23159956.238 6      3136.346 6  94836166.54648  23159959.65648
      2443.79748         0.000 0
 116290225.390 5  22129294.457 5      3146.287 5  90615788.15847  22129300.41047
      2451.80547         0.000 0
 113353792.287 6  21570510.059 6      -483.441 6  88327657.97049  21570516.58249
      -376.67449         0.000 0
 109822675.151 6  20898560.410 6     -2009.830 6  85576124.22249  20898563.12949
     -1566.09049         0.000 0
 116243626.105 2  22120426.621 2     -2474.439 2  90579458.97944  22120430.71544
     -1927.98444         0.000 0
 120676093.530 4  22963900.129 4     -2904.928 4  94033347.30745  22963906.31345
     -2263.59045         0.000 0
 106633655.961 7  20291711.004 7       939.879 7  83091186.10049  20291715.80949
       732.29149         0.000 0
 121174124.336 6  22740154.148 6     -3362.268 6  94251121.537 6         0.000 0
     -2614.205 6  22740162.742 6
 118967157.509 7  22256015.172 7       318.693 7  92534597.469 5         0.000 0
       248.061 5  22256020.902 5
 107484637.439 7  20163847.086 7     -1763.969 7  83599231.815 6         0.000 0
     -1371.830 6  20163860.980 6
 106460044.246 8  19922546.254 8      1735.541 8  82802294.229 8         0.000 0
      1350.262 8  19922553.988 8
 123776810.768 5  23171282.410 5      3462.020 5         0.000 0         0.000 0
         0.000 0         0.000 0
 108196722.942 5  20233335.199 5      -342.570 5  84153068.887 7         0.000 0
      -266.285 7  20233346.371 7
 113074906.704 5  21130705.465 5      3701.434 5  87947001.852 6         0.000 0
      2879.164 6  21130712.199 6
 18  5 22 15 20 54.0000000  0 14G 7G 8G 9G16G23G26G27R 1R 2R10R11R12
                                R20R21
 121703255.708 6  23159359.953 6      3136.516 6  94833722.46348  23159363.64548
      2444.16048         0.000 0
 116287078.659 5  22128694.883 5      3146.574 5  90613336.16248  22128702.09448
      2451.95348         0.000 0
 113354275.611 6  21570602.043 6      -483.955 6  88328034.59549  21570608.01249
      -377.18949         0.000 0
 109824684.830 6  20898942.441 6     -2009.563 6  85577690.20849  20898945.89149
     -1565.93949         0.000 0
 116246099.866 2  22120898.230 2     -2474.289 2  90581386.57344  22120901.03544
     -1927.89344         0.000 0
 120678998.076 4  22964453.016 4     -2904.719 4  94035610.60145  22964459.29745
     -2263.38345         0.000 0
 106632715.907 7  20291532.117 7       939.932 7  83090453.58649  20291536.75049
       732.38349         0.000 0
 121177485.731 5  22740784.633 5     -3361.725 5  94253735.954 7         0.000 0
     -2614.367 7  22740790.219 7
 118966838.470 7  22255953.848 7       318.844 7  92534349.353 5         0.000 0
       247.996 5  22255964.016 5
 107486401.264 7  20164176.930 7     -1763.916 7  83600603.689 7         0.000 0
     -1372.012 7  20164191.395 7
 106458308.316 8  19922220.809 8      1735.713 8  82800944.077 9         0.000 0
      1349.904 9  19922229.262 9
 123773348.718 5  23170634.695 5      3462.055 5         0.000 0         0.000 0
         0.000 0         0.000 0
 108197065.699 5  20233399.059 5      -343.004 5  84153335.497 8         0.000 0
      -266.857 8  20233410.660 8
 113071204.929 5  21130012.199 5      3701.684 5  87944122.719 7         0.000 0
      2878.885 7  21130020.078 7
 18  5 22 15 20 55.0000000  0 14G 7G 8G 9G16G23G26G27R 1R 2R10R11R12
                                R20R21
 121700119.432 6  23158762.730 6      3136.486 6  94831278.60548  23158766.58248
      2444.06448         0.000 0
 116283932.507 5  22128096.230 5      3146.486 5  90610884.61148  22128102.77048
      2451.72148         0.000 0
 113354759.780 6  21570694.383 6      -483.928 6  88328411.86549  21570700.18049
      -376.97349         0.000 0
 109826695.035 6  20899325.547 6     -2010.121 6  85579256.60249  20899327.99249
     -1566.07449         0.000 0
 116248574.311 2  22121369.621 2     -2475.375 2  90583314.67844  22121371.29744
     -1928.94544         0.000 0
 120681902.931 4  22965005.395 4     -2904.262 4  94037874.11445  22965011.23445
     -2263.06845         0.000 0
 106631776.722 7  20291353.152 7       939.492 7  83089721.74449  20291358.37549
       732.09249         0.000 0
 121180847.745 5  22741410.172 5     -3361.895 5  94256350.839 6         0.000 0
     -2614.758 6  22741421.488 6
 118966520.566 7  22255893.020 7       317.893 7  92534102.068 5         0.000 0
       247.762 5  22255904.047 5
 107488165.724 7  20164508.984 7     -1764.104 7  83601976.060 7         0.000 0
     -1372.400 7  20164522.020 7
 106456572.938 8  19921896.578 8      1735.504 8  82799594.316 8         0.000 0
      1350.080 8  19921904.313 8
 123769886.884 5  23169986.758 5      3462.021 5         0.000 0         0.000 0
         0.000 0         0.000 0
 108197409.621 5  20233464.277 5      -343.975 5  84153602.986 8         0.000 0
      -267.873 8  20233475.160 8
 113067503.884 4  21129323.586 4      3701.455 4  87941244.105 7         0.000 0
      2879.119 7  21129328.887 7
 18  5 22 15 20 56.0000000  0 14G 7G 8G 9G16G23G26G27R 1R 2R10R11R12
                                R20R21
 121696983.204 6  23158165.695 6      3135.822 6  94828834.78648  23158170.00448
      2443.44548         0.000 0
 116280786.646 5  22127496.332 5      3145.334 5  90608433.29948  22127504.28948
      2450.80948         0.000 0
 113355244.512 6  21570786.766 6      -485.000 6  88328789.58949  21570792.67249
      -377.98249         0.000 0
 109828705.444 6  20899707.973 6     -2010.781 6  85580823.16849  20899711.47749
     -1566.86949         0.000 0
 116251049.074 2  22121841.055 2     -2475.840 2  90585243.05144  22121842.03944
     -1929.36944         0.000 0
 120684807.853 4  22965557.531 4     -2905.488 4  94040137.68545  22965563.22345
     -2263.93945         0.000 0
 106630838.120 7  20291174.375 7       938.223 7  83088990.36149  20291179.82449
       731.06349         0.000 0
 121184210.063 6  22742038.473 6     -3362.670 6  94258965.987 6         0.000 0
     -2615.258 6  22742050.074 6
 118966203.427 7  22255832.805 7       316.678 7  92533855.410 5         0.000 0
       245.963 5  22255842.113 5
 107489930.505 7  20164838.934 7     -1765.006 7  83603348.662 6         0.000 0
     -1372.932 6  20164853.688 6
 106454837.796 8  19921570.953 8      1734.838 8  82798244.766 8         0.000 0
      1349.195 8  19921581.266 8
 123766424.967 5  23169338.434 5      3461.387 5         0.000 0         0.000 0
         0.000 0         0.000 0
 108197754.378 5  20233528.672 5      -344.861 5  84153871.123 8         0.000 0
      -268.615 8  20233539.129 8
 113063803.262 4  21128630.574 4      3700.148 4  87938365.847 6         0.000 0
      2877.992 6  21128637.160 6
 18  5 22 15 20 57.0000000  0 14G 7G 8G 9G16G23G26G27R 1R 2R10R11R12
                                R20R21
 121693847.090 6  23157569.109 6      3135.746 6  94826391.06348  23157572.71548
      2443.39848         0.000 0
 116277641.132 5  22126898.602 5      3145.102 5  90605982.24648  22126905.21148
      2451.03548         0.000 0
 113355729.907 6  21570879.309 6      -485.564 6  88329167.81749  21570884.61749
      -378.30149         0.000 0
 109830716.156 6  20900090.133 6     -2010.857 6  85582389.96049  20900093.42649
     -1566.81849         0.000 0
 116253524.311 2  22122313.074 2     -2476.502 2  90587171.79844  22122312.47744
     -1929.78744         0.000 0
 120687712.868 4  22966110.543 4     -2905.018 4  94042401.34345  22966116.18045
     -2263.73245         0.000 0
 106629900.159 7  20290995.902 7       937.602 7  83088259.49549  20291001.18049
       730.54749         0.000 0
 121187572.820 5  22742670.660 5     -3363.021 5  94261581.468 6         0.000 0
     -2615.971 6  22742680.398 6
 118965887.180 7  22255776.188 7       315.740 7  92533609.436 6         0.000 0
       245.857 6  22255783.063 6
 107491695.671 7  20165169.906 7     -1765.240 7  83604721.561 7         0.000 0
     -1372.979 7  20165184.945 7
 106453102.982 8  19921247.211 8      1734.994 8  82796895.469 8         0.000 0
      1349.010 8  19921254.230 8
 123762963.091 5  23168689.266 5      3462.072 5         0.000 0         0.000 0
         0.000 0         0.000 0
 108198100.077 5  20233589.652 5      -346.053 5  84154140.002 8         0.000 0
      -269.287 8  20233604.691 8
 113060103.098 4  21127939.441 4      3699.953 4  87935487.941 7         0.000 0
      2878.004 7  21127946.316 7
 18  5 22 15 20 58.0000000  0 14G 7G 8G 9G16G23G26G27R 1R 2R10R11R12
                                R20R21
 121690711.199 6  23156971.684 6      3136.012 6  94823947.51448  23156976.40648
      2443.50248         0.000 0
 116274496.064 5  22126300.176 5      3144.918 5  90603531.54748  22126307.34448
      2450.67048         0.000 0
 113356216.075 6  21570972.301 6      -487.059 6  88329546.62249  21570977.72749
      -379.56649         0.000 0
 109832727.282 6  20900472.746 6     -2010.965 6  85583957.06349  20900475.87949
     -1567.12549         0.000 0
 116256000.061 2  22122784.691 2     -2475.244 2  90589100.99644  22122782.76244
     -1928.65044         0.000 0
 120690618.112 4  22966663.293 4     -2905.146 4  94044665.16145  22966669.93045
     -2263.76845         0.000 0
 106628962.955 7  20290817.879 7       937.201 7  83087529.21149  20290823.33249
       730.43449         0.000 0
 121190936.086 5  22743298.148 5     -3363.195 5  94264197.323 6         0.000 0
     -2615.756 6  22743308.750 6
 118965571.866 7  22255715.879 7       315.029 7  92533364.225 5         0.000 0
       244.813 5  22255722.898 5
 107493461.347 7  20165500.332 7     -1765.307 7  83606094.830 6         0.000 0
     -1372.930 6  20165516.660 6
 106451368.664 8  19920923.066 8      1734.418 8  82795546.551 8         0.000 0
      1348.967 8  19920930.660 8
 123759501.321 5  23168043.711 5      3462.008 5         0.000 0         0.000 0
         0.000 0         0.000 0
 108198446.800 5  20233658.824 5      -346.291 5  84154409.696 8         0.000 0
      -270.471 8  20233667.703 8
 113056403.572 4  21127247.477 4      3699.723 4  87932610.540 7         0.000 0
      2877.516 7  21127255.211 7
 18  5 22 15 20 59.0000000  0 15G 7G 8G 9G16G23G26G27R 1R 2R10R11R12
                                R19R20R21
 121687575.435 6  23156375.238 6      3135.623 6  94821504.06548  23156380.63348
      2443.30948         0.000 0
 116271351.345 5  22125702.152 5      3144.568 5  90601081.11248  22125708.82048
      2450.51648         0.000 0
 113356702.864 6  21571064.555 6      -487.191 6  88329925.95749  21571070.89549
      -379.52549         0.000 0
 109834738.720 6  20900855.332 6     -2011.080 6  85585524.40449  20900859.41049
     -1566.96749         0.000 0
 116258476.280 2  22123254.707 2     -2475.475 2  90591030.51544  22123253.87944
     -1928.90044         0.000 0
 120693523.465 4  22967215.441 4     -2905.338 4  94046929.06945  22967222.84045
     -2263.88345         0.000 0
 106628026.413 7  20290639.547 7       936.383 7  83086799.44149  20290644.32449
       729.69549         0.000 0
 121194299.742 5  22743926.754 5     -3364.072 5  94266813.516 7         0.000 0
     -2616.025 7  22743937.496 7
 118965257.387 7  22255658.402 7       313.920 7  92533119.608 5         0.000 0
       244.248 5  22255664.848 5
 107495227.436 7  20165833.160 7     -1766.340 7  83607468.494 7         0.000 0
     -1373.805 7  20165849.633 7
 106449634.674 8  19920598.320 8      1733.873 8  82794197.887 9         0.000 0
      1348.910 9  19920605.910 9
 123756039.555 5  23167393.398 5      3462.363 5         0.000 0         0.000 0
         0.000 0         0.000 0
 125032798.18612  23373560.727 2     -3884.936 2  97247745.50415         0.000 0
     -3021.51815  23373567.45715
 108198794.483 5  20233724.953 5      -347.305 5  84154680.089 8         0.000 0
      -270.723 8  20233735.410 8
 113052704.561 4  21126556.629 4      3699.336 4  87929733.560 7         0.000 0
      2876.502 7  21126564.078 7
 18  5 22 15 21  0.0000000  0 15G 7G 8G 9G16G23G26G27R 1R 2R10R11R12
                                R19R20R21
 121684439.646 6  23155778.570 6      3134.918 6  94819060.60148  23155783.23448
      2442.57848         0.000 0
 116268206.884 5  22125103.770 5      3144.293 5  90598630.90548  22125110.18048
      2450.07848         0.000 0
 113357190.194 6  21571157.305 6      -487.662 6  88330305.70549  21571163.40249
      -380.11949         0.000 0
 109836750.355 6  20901238.418 6     -2011.824 6  85587091.90749  20901241.37949
     -1567.64149         0.000 0
 116260952.810 2  22123725.223 2     -2476.297 2  90592960.24744  22123725.76644
     -1929.49644         0.000 0
 120696428.839 4  22967769.379 4     -2905.691 4  94049192.95945  22967775.67645
     -2264.12545         0.000 0
 106627090.395 7  20290460.277 7       936.049 7  83086070.09749  20290466.43049
       729.37349         0.000 0
 121197663.717 5  22744554.852 5     -3364.352 5  94269429.916 6         0.000 0
     -2616.467 6  22744568.457 6
 118964943.589 7  22255598.270 7       313.543 7  92532875.532 5         0.000 0
       244.256 5  22255607.723 5
 107496993.780 7  20166164.340 7     -1766.637 7  83608842.306 7         0.000 0
     -1374.461 7  20166177.230 7
 106447900.895 8  19920272.922 8      1733.730 8  82792849.418 8         0.000 0
      1348.117 8  19920280.656 8
 123752577.729 5  23166744.008 5      3461.830 5         0.000 0         0.000 0
         0.000 0         0.000 0
 125036683.208 2  23374287.941 2     -3884.609 2  97250767.207 5         0.000 0
     -3021.061 5  23374292.809 5
 108199142.966 5  20233790.578 5      -348.814 5  84154951.118 8         0.000 0
      -271.281 8  20233799.031 8
 113049005.996 1  21125862.840 1      3698.549 1  87926856.836 7         0.000 0
      2876.588 7  21125872.293 7
 18  5 22 15 21  1.0000000  0 15G 7G 8G 9G16G23G26G27R 1R 2R10R11R12
                                R19R20R21
 121681304.352 6  23155181.910 6      3135.408 6  94816617.52448  23155186.39148
      2443.35748         0.000 0
 116265063.116 5  22124505.391 5      3144.080 5  90596181.21047  22124512.20347
      2449.82247         0.000 0
 113357678.526 6  21571249.922 6      -488.404 6  88330686.21149  21571255.94549
      -380.59049         0.000 0
 109838762.598 6  20901620.938 6     -2011.783 6  85588659.87749  20901625.04349
     -1567.71949         0.000 0
 116263430.192 2  22124197.887 2     -2477.625 2  90594890.67944  22124198.30144
     -1930.62944         0.000 0
 120699334.648 4  22968322.320 4     -2905.867 4  94051457.28445  22968329.76245
     -2264.38145         0.000 0
 106626155.400 7  20290283.594 7       935.113 7  83085341.50449  20290288.54749
       728.43649         0.000 0
 121201028.413 5  22745184.246 5     -3364.469 5  94272046.947 6         0.000 0
     -2617.113 6  22745196.992 6
 118964631.028 6  22255538.574 6       312.332 6  92532632.451 4         0.000 0
       242.770 4  22255548.602 4
 107498760.836 8  20166496.957 8     -1766.502 8  83610216.681 7         0.000 0
     -1373.896 7  20166511.137 7
 106446167.802 8  19919948.965 8      1733.633 8  82791501.444 8         0.000 0
      1348.291 8  19919958.133 8
 123749116.204 6  23166098.926 6      3461.869 6         0.000 0         0.000 0
         0.000 0         0.000 0
 125040568.966 2  23375015.449 2     -3885.275 2  97253789.448 6         0.000 0
     -3022.059 6  23375021.035 6
 108199492.739 5  20233852.918 5      -349.459 5  84155223.164 8         0.000 0
      -271.889 8  20233864.234 8
 113045308.217 4  21125173.211 4      3698.391 4  87923980.832 7         0.000 0
      2876.723 7  21125181.375 7
 18  5 22 15 21  2.0000000  0 15G 7G 8G 9G16G23G26G27R 1R 2R10R11R12
                                R19R20R21
 121678169.003 6  23154584.680 6      3134.855 6  94814174.37148  23154590.16048
      2442.84048         0.000 0
 116261919.562 5  22123907.730 5      3143.137 5  90593731.68647  22123913.94147
      2448.99247         0.000 0
 113358167.348 6  21571342.535 6      -489.561 6  88331067.10149  21571349.53149
      -381.61549         0.000 0
 109840774.988 6  20902003.457 6     -2012.531 6  85590228.00149  20902007.23449
     -1568.23849         0.000 0
 116265907.736 3  22124667.980 3     -2477.336 3  90596821.24444  22124669.72744
     -1930.54344         0.000 0
 120702240.414 4  22968874.547 4     -2906.223 4  94053721.52145  22968882.44545
     -2264.64545         0.000 0
 106625220.895 7  20290105.480 7       934.092 7  83084613.31049  20290110.41849
       728.01449         0.000 0
 121204393.349 5  22745814.930 5     -3364.807 5  94274664.114 6         0.000 0
     -2617.008 6  22745826.387 6
 118964319.120 7  22255482.176 7       311.564 7  92532389.855 5         0.000 0
       242.289 5  22255490.914 5
 107500528.149 8  20166828.145 8     -1767.680 8  83611591.264 6         0.000 0
     -1374.748 6  20166842.035 6
 106444434.934 8  19919624.578 8      1732.650 8  82790153.652 8         0.000 0
      1347.713 8  19919634.891 8
 123745654.573 5  23165450.121 5      3461.453 5         0.000 0         0.000 0
         0.000 0         0.000 0
 125044454.928 2  23375741.383 2     -3886.668 2  97256811.863 5         0.000 0
     -3022.285 5  23375747.113 5
 108199843.245 5  20233918.270 5      -351.203 5  84155495.785 8         0.000 0
      -273.131 8  20233929.871 8
 113041610.822 4  21124482.582 4      3697.330 4  87921105.075 7         0.000 0
      2875.598 7  21124493.465 7
 18  5 22 15 21  3.0000000  0 15G 7G 8G 9G16G23G26G27R 1R 2R10R11R12
                                R19R20R21
 121675033.692 6  23153988.633 6      3135.504 6  94811731.29648  23153993.09848
      2443.17048         0.000 0
 116258776.257 5  22123308.965 5      3143.863 5  90591282.35547  22123316.03547
      2449.77147         0.000 0
 113358656.720 6  21571435.762 6      -488.992 6  88331448.43049  21571441.65649
      -381.03149         0.000 0
 109842787.609 6  20902386.871 6     -2012.137 6  85591796.26949  20902390.55149
     -1567.81149         0.000 0
 116268385.692 2  22125138.969 2     -2477.725 2  90598752.13944  22125140.67244
     -1930.83844         0.000 0
 120705146.188 3  22969427.383 3     -2904.951 3  94055985.78445  22969435.27045
     -2263.57245         0.000 0
 106624286.959 7  20289926.832 7       934.369 7  83083885.56149  20289933.15649
       727.99249         0.000 0
 121207758.621 5  22746445.223 5     -3364.689 5  94277281.550 6         0.000 0
     -2617.305 6  22746455.680 6
 118964008.072 7  22255422.379 7       311.447 7  92532147.931 5         0.000 0
       241.914 5  22255433.406 5
 107502295.732 7  20167159.082 7     -1767.268 7  83612966.056 7         0.000 0
     -1374.225 7  20167177.129 7
 106442702.360 8  19919300.230 8      1733.100 8  82788806.088 9         0.000 0
      1348.217 9  19919309.684 9
 123742192.827 5  23164801.066 5      3462.430 5         0.000 0         0.000 0
         0.000 0         0.000 0
 125048341.184 2  23376465.781 2     -3885.730 2  97259834.491 6         0.000 0
     -3022.270 6  23376472.656 6
 108200194.596 5  20233987.234 5      -351.281 5  84155769.050 8         0.000 0
      -272.881 8  20233995.973 8
 113037913.822 3  21123792.277 3      3697.838 3  87918229.652 7         0.000 0
      2875.809 7  21123799.723 7
 18  5 22 15 21  4.0000000  0 15G 7G 8G 9G16G23G26G27R 1R 2R10R11R12
                                R19R20R21
 121671898.673 6  23153392.504 6      3135.539 6  94809288.39647  23153396.99647
      2443.29747         0.000 0
 116255633.512 5  22122710.117 5      3142.980 5  90588833.47747  22122717.82847
      2449.11747         0.000 0
 113359146.963 6  21571528.621 6      -490.029 6  88331830.44849  21571535.83249
      -381.93949         0.000 0
 109844800.721 6  20902769.777 6     -2012.668 6  85593364.92749  20902773.64149
     -1568.17049         0.000 0
 116270864.324 2  22125612.738 2     -2478.840 2  90600683.51044  22125612.22344
     -1931.60944         0.000 0
 120708052.341 3  22969980.711 3     -2906.047 3  94058250.28145  22969988.08245
     -2264.48045         0.000 0
 106623353.877 7  20289749.816 7       933.057 7  83083158.49549  20289755.54349
       727.22149         0.000 0
 121211124.514 5  22747074.000 5     -3365.420 5  94279899.451 7         0.000 0
     -2617.922 7  22747083.598 7
 118963698.109 7  22255364.789 7       310.055 7  92531906.845 5         0.000 0
       241.023 5  22255375.102 5
 107504063.940 7  20167490.656 7     -1767.957 7  83614341.328 7         0.000 0
     -1374.664 7  20167506.840 7
 106440970.326 8  19918975.801 8      1732.391 8  82787458.950 9         0.000 0
      1347.229 9  19918983.250 9
 123738731.317 5  23164154.078 5      3461.623 5         0.000 0         0.000 0
         0.000 0         0.000 0
 125052228.057 2  23377192.527 2     -3887.162 2  97262857.629 6         0.000 0
     -3023.004 6  23377201.980 6
 108200547.106 5  20234050.246 5      -352.930 5  84156043.244 8         0.000 0
      -274.494 8  20234061.133 8
 113034217.617 3  21123100.742 3      3696.055 3  87915354.794 7         0.000 0
      2874.879 7  21123108.906 7
 18  5 22 15 21  5.0000000  0 15G 7G 8G 9G16G23G26G27R 1R 2R10R11R12
                                R19R20R21
 121668763.913 6  23152796.457 6      3135.320 6  94806845.73748  23152799.21948
      2443.09248         0.000 0
 116252491.213 5  22122112.211 5      3142.918 5  90586384.91548  22122119.63748
      2449.04948         0.000 0
 113359637.981 6  21571621.848 6      -490.971 6  88332213.05749  21571629.33249
      -382.59249         0.000 0
 109846814.283 6  20903153.340 6     -2013.607 6  85594933.93949  20903156.40249
     -1569.02049         0.000 0
 116273343.476 2  22126083.871 2     -2479.408 2  90602615.32144  22126084.84444
     -1931.94944         0.000 0
 120710958.692 3  22970533.836 3     -2905.875 3  94060514.97945  22970542.06645
     -2264.27345         0.000 0
 106622421.552 7  20289572.316 7       932.291 7  83082432.00349  20289578.19949
       726.49049         0.000 0
 121214490.932 5  22747704.297 5     -3366.643 5  94282517.780 7         0.000 0
     -2618.629 7  22747713.895 7
 118963389.104 7  22255308.859 7       309.189 7  92531666.517 5         0.000 0
       240.250 5  22255315.449 5
 107505832.676 7  20167822.742 7     -1768.607 7  83615717.019 7         0.000 0
     -1375.947 7  20167838.211 7
 106439238.724 8  19918652.891 8      1731.588 8  82786112.156 9         0.000 0
      1346.645 9  19918661.055 9
 123735269.961 5  23163506.027 5      3461.652 5         0.000 0         0.000 0
         0.000 0         0.000 0
 125056115.475 3  23377918.074 3     -3887.887 3  97265881.182 6         0.000 0
     -3023.586 6  23377927.098 6
 108200900.677 5  20234119.648 5      -354.090 5  84156318.232 8         0.000 0
      -275.092 8  20234126.523 8
 113030521.971 4  21122410.297 4      3695.998 4  87912480.398 7         0.000 0
      2874.641 7  21122418.605 7
 18  5 22 15 21  6.0000000  0 15G 7G 8G 9G16G23G26G27R 1R 2R10R11R12
                                R19R20R21
 121665628.982 6  23152199.664 6      3134.961 6  94804402.96247  23152203.32847
      2442.83247         0.000 0
 116249349.001 5  22121514.703 5      3142.324 5  90583936.44947  22121521.46147
      2448.43847         0.000 0
 113360129.354 6  21571715.906 6      -491.328 6  88332595.93249  21571722.17249
      -382.89349         0.000 0
 109848827.858 6  20903536.441 6     -2013.811 6  85596502.97249  20903539.73449
     -1569.26049         0.000 0
 116275822.788 2  22126555.832 2     -2479.748 2  90604547.22944  22126556.30544
     -1932.40444         0.000 0
 120713864.877 4  22971086.219 4     -2905.588 4  94062779.52145  22971094.23045
     -2264.06445         0.000 0
 106621489.617 7  20289394.926 7       931.582 7  83081705.81149  20289400.86749
       725.91649         0.000 0
 121217857.476 5  22748333.848 5     -3366.297 5  94285136.213 7         0.000 0
     -2618.908 7  22748344.875 7
 118963080.637 7  22255250.609 7       308.422 7  92531426.602 5         0.000 0
       239.717 5  22255257.344 5
 107507601.530 7  20168154.367 7     -1769.041 7  83617092.811 7         0.000 0
     -1376.150 7  20168167.973 7
 106437507.178 8  19918329.516 8      1731.230 8  82784765.389 9         0.000 0
      1346.521 9  19918336.965 9
 123731808.287 5  23162855.941 5      3461.453 5         0.000 0         0.000 0
         0.000 0         0.000 0
 125060002.891 3  23378645.449 3     -3887.891 3  97268904.763 6         0.000 0
     -3023.455 6  23378656.336 6
 108201254.862 5  20234185.293 5      -354.699 5  84156593.712 8         0.000 0
      -275.371 8  20234194.316 8
 113026826.535 4  21121718.961 4      3695.330 4  87909606.184 7         0.000 0
      2874.107 7  21121726.266 7
 18  5 22 15 21  7.0000000  0 15G 7G 8G 9G16G23G26G27R 1R 2R10R11R12
                                R19R20R21
 121662494.364 5  23151603.063 5      3134.676 5  94801960.37347  23151606.38347
      2442.53347         0.000 0
 116246207.358 5  22120917.102 5      3141.668 5  90581488.42347  22120923.92647
      2447.98247         0.000 0
 113360621.578 6  21571810.293 6      -492.338 6  88332979.49349  21571815.70349
      -383.56349         0.000 0
 109850841.933 6  20903920.020 6     -2014.078 6  85598072.37749  20903923.12549
     -1569.46349         0.000 0
 116278302.749 2  22127027.414 2     -2480.133 2  90606479.67744  22127027.89844
     -1932.78344         0.000 0
 120716771.389 4  22971639.645 4     -2906.207 4  94065044.32045  22971647.65645
     -2264.46345         0.000 0
 106620558.521 7  20289218.016 7       930.631 7  83080980.28649  20289223.20749
       725.28549         0.000 0
 121221224.631 6  22748965.453 6     -3366.787 6  94287755.110 7         0.000 0
     -2619.408 7  22748973.758 7
 118962773.232 7  22255191.121 7       307.240 7  92531187.495 5         0.000 0
       238.699 5  22255201.434 5
 107509370.978 7  20168486.047 7     -1769.443 7  83618469.027 7         0.000 0
     -1376.229 7  20168501.656 7
 106435776.181 8  19918004.477 8      1730.553 8  82783419.050 9         0.000 0
      1346.584 9  19918013.500 9
 123728346.841 5  23162209.203 5      3461.250 5         0.000 0         0.000 0
         0.000 0         0.000 0
 125063891.021 3  23379372.879 3     -3889.078 3  97271928.809 6         0.000 0
     -3024.217 6  23379380.469 6
 108201610.163 5  20234251.133 5      -355.195 5  84156870.075 8         0.000 0
      -276.664 8  20234259.438 8
 113023131.850 3  21121030.539 3      3694.295 3  87906732.539 7         0.000 0
      2873.238 7  21121037.703 7
 18  5 22 15 21  8.0000000  0 15G 7G 8G 9G16G23G26G27R 1R 2R10R11R12
                                R19R20R21
 121659359.790 6  23151006.453 6      3134.590 6  94799517.86847  23151010.87547
      2442.55547         0.000 0
 116243065.987 5  22120319.203 5      3141.135 5  90579040.56447  22120326.60247
      2447.73047         0.000 0
 113361114.365 6  21571903.813 6      -493.127 6  88333363.50749  21571910.08249
      -384.38149         0.000 0
 109852856.273 6  20904303.156 6     -2014.828 6  85599641.96249  20904306.52049
     -1569.92849         0.000 0
 116280783.122 2  22127499.555 2     -2480.902 2  90608412.47244  22127499.75444
     -1933.05344         0.000 0
 120719677.939 4  22972192.203 4     -2906.781 4  94067309.19245  22972200.78945
     -2265.08645         0.000 0
 106619628.002 7  20289041.090 7       930.059 7  83080255.23449  20289046.41449
       724.68449         0.000 0
 121224592.173 6  22749593.461 6     -3368.240 6  94290374.281 7         0.000 0
     -2619.424 7  22749603.633 7
 118962466.624 7  22255135.629 7       306.002 7  92530949.000 5         0.000 0
       238.506 5  22255140.930 5
 107511140.782 7  20168817.852 7     -1770.193 7  83619845.547 7         0.000 0
     -1376.754 7  20168832.176 7
 106434045.464 8  19917680.566 8      1730.564 8  82782072.962 9         0.000 0
      1345.414 9  19917688.871 9
 123724885.356 4  23161559.727 4      3460.852 4         0.000 0         0.000 0
         0.000 0         0.000 0
 125067779.362 2  23380101.008 2     -3888.578 2  97274953.092 6         0.000 0
     -3025.053 6  23380109.887 6
 108201966.371 5  20234317.098 5      -356.629 5  84157147.091 8         0.000 0
      -276.992 8  20234328.414 8
 113019437.552 4  21120339.098 4      3693.604 4  87903859.221 7         0.000 0
      2872.869 7  21120348.551 7
 18  5 22 15 21  9.0000000  0 15G 7G 8G 9G16G23G26G27R 1R 2R10R11R12
                                R19R20R21
 121656225.451 5  23150409.285 5      3133.934 5  94797075.50547  23150413.85247
      2442.07047         0.000 0
 116239925.058 5  22119721.895 5      3141.199 5  90576593.13547  22119728.54747
      2447.69547         0.000 0
 113361607.943 6  21571996.637 6      -493.805 6  88333748.07349  21572003.55149
      -384.78749         0.000 0
 109854870.969 6  20904685.887 6     -2014.879 6  85601211.83749  20904690.32049
     -1570.06349         0.000 0
 116283263.989 2  22127971.141 2     -2481.168 2  90610345.63544  22127971.67244
     -1933.48044         0.000 0
 120722584.676 3  22972745.066 3     -2906.834 3  94069574.14945  22972754.11345
     -2265.18045         0.000 0
 106618698.266 7  20288864.188 7       929.283 7  83079530.76149  20288869.10949
       724.10049         0.000 0
 121227960.156 6  22750224.070 6     -3368.215 6  94292993.828 6         0.000 0
     -2619.480 6  22750231.945 6
 118962160.904 7  22255078.008 7       305.129 7  92530711.246 5         0.000 0
       236.672 5  22255083.164 5
 107512911.070 8  20169149.105 8     -1770.617 8  83621222.423 7         0.000 0
     -1377.240 7  20169164.574 7
 106432315.233 8  19917357.105 8      1729.926 8  82780727.204 8         0.000 0
      1346.002 8  19917365.555 8
 123721423.990 5  23160913.707 5      3461.248 5         0.000 0         0.000 0
         0.000 0         0.000 0
 125071668.301 2  23380827.293 2     -3889.549 2  97277977.846 4         0.000 0
     -3024.211 4  23380832.734 4
 108202323.565 5  20234383.945 5      -357.580 5  84157424.901 8         0.000 0
      -278.279 8  20234395.691 8
 113015743.908 3  21119649.965 3      3692.809 3  87900986.395 7         0.000 0
      2872.168 7  21119656.125 7
 18  5 22 15 21 10.0000000  0 15G 7G 8G 9G16G23G26G27R 1R 2R10R11R12
                                R19R20R21
 121653091.241 5  23149812.879 5      3134.305 5  94794633.29247  23149816.14147
      2442.27947         0.000 0
 116236784.500 5  22119124.055 5      3140.672 5  90574145.92047  22119130.99647
      2447.29947         0.000 0
 113362102.194 6  21572090.219 6      -494.605 6  88334133.24449  21572097.76249
      -385.49649         0.000 0
 109856885.994 6  20905069.945 6     -2014.859 6  85602782.03249  20905073.55149
     -1570.08649         0.000 0
 116285745.315 3  22128442.059 3     -2481.697 3  90612279.10044  22128443.50444
     -1933.95544         0.000 0
 120725491.607 4  22973298.406 4     -2906.365 4  94071839.34145  22973306.71945
     -2264.89345         0.000 0
 106617769.190 6  20288687.469 6       928.893 6  83078806.80949  20288693.06349
       723.92049         0.000 0
 121231328.617 6  22750853.859 6     -3368.180 6  94295613.761 7         0.000 0
     -2620.191 7  22750863.453 7
 118961856.120 7  22255019.711 7       304.307 7  92530474.246 6         0.000 0
       236.822 6  22255027.156 6
 107514681.765 7  20169482.262 7     -1770.973 7  83622599.623 7         0.000 0
     -1376.523 7  20169498.590 7
 106430585.373 8  19917033.113 8      1729.785 8  82779381.744 8         0.000 0
      1345.742 8  19917041.563 8
 123717962.650 5  23160265.152 5      3461.830 5         0.000 0         0.000 0
         0.000 0         0.000 0
 125075557.479 4  23381553.332 4     -3889.494 4  97281002.760 6         0.000 0
     -3024.668 6  23381560.926 6
 108202681.744 5  20234450.117 5      -359.205 5  84157703.502 8         0.000 0
      -278.717 8  20234461.145 8
 113012050.825 4  21118959.012 4      3693.195 4  87898113.976 7         0.000 0
      2872.434 7  21118967.035 7
 18  5 22 15 21 11.0000000  0 15G 7G 8G 9G16G23G26G27R 1R 2R10R11R12
                                R19R20R21
 121649957.224 5  23149216.633 5      3133.834 5  94792191.16347  23149220.74247
      2442.10947         0.000 0
 116233644.368 5  22118526.523 5      3140.709 5  90571699.07647  22118533.53547
      2447.30547         0.000 0
 113362597.131 6  21572184.824 6      -494.959 6  88334518.89749  21572191.57849
      -385.76449         0.000 0
 109858901.418 6  20905453.734 6     -2015.352 6  85604352.48749  20905456.82849
     -1570.27749         0.000 0
 116288227.185 2  22128915.566 2     -2481.895 2  90614213.03144  22128915.69544
     -1934.02744         0.000 0
 120728398.713 3  22973852.047 3     -2906.816 3  94074104.62045  22973859.40245
     -2265.16045         0.000 0
 106616840.865 6  20288510.770 6       928.090 6  83078083.43049  20288516.60549
       723.24049         0.000 0
 121234697.516 6  22751483.238 6     -3368.535 6  94298233.995 7         0.000 0
     -2620.148 7  22751495.984 7
 118961552.323 7  22254962.148 7       303.365 7  92530237.906 5         0.000 0
       235.986 5  22254971.602 5
 107516452.967 8  20169813.574 8     -1771.074 8  83623977.232 7         0.000 0
     -1377.477 7  20169830.047 7
 106428855.897 8  19916708.566 8      1729.938 8  82778036.645 9         0.000 0
      1344.748 9  19916716.875 9
 123714501.383 5  23159617.332 5      3461.807 5         0.000 0         0.000 0
         0.000 0         0.000 0
 125079447.178 3  23382279.395 3     -3889.283 3  97284028.055 6         0.000 0
     -3025.270 6  23382288.992 6
 108203040.910 5  20234517.453 5      -359.717 5  84157982.856 8         0.000 0
      -279.475 8  20234526.621 8
 113008358.342 5  21118269.801 5      3692.000 5  87895242.003 7         0.000 0
      2871.480 7  21118276.531 7
 18  5 22 15 21 12.0000000  0 15G 7G 8G 9G16G23G26G27R 1R 2R10R11R12
                                R19R20R21
 121646823.227 5  23148620.680 5      3134.877 5  94789749.10247  23148624.82847
      2442.77747         0.000 0
 116230504.573 5  22117928.707 5      3140.014 5  90569252.49347  22117935.94947
      2446.84047         0.000 0
 113363092.710 6  21572280.145 6      -495.674 6  88334905.03449  21572286.01249
      -386.27049         0.000 0
 109860917.079 6  20905836.672 6     -2015.617 6  85605923.13349  20905840.05149
     -1570.56649         0.000 0
 116290709.408 2  22129387.652 2     -2482.180 2  90616147.23544  22129387.76644
     -1934.14144         0.000 0
 120731305.892 4  22974406.121 4     -2907.180 4  94076369.91045  22974412.68845
     -2265.11745         0.000 0
 106615913.111 6  20288334.359 6       927.746 6  83077360.50149  20288339.36749
       723.02949         0.000 0
 121238066.762 6  22752115.344 6     -3368.959 6  94300854.529 7         0.000 0
     -2621.045 7  22752124.223 7
 118961249.308 7  22254907.027 7       302.785 7  92530002.246 5         0.000 0
       235.363 5  22254915.047 5
 107518224.499 8  20170148.188 8     -1771.418 8  83625355.114 7         0.000 0
     -1378.156 7  20170162.223 7
 106427126.711 8  19916386.031 8      1728.930 8  82776691.698 9         0.000 0
      1345.064 9  19916394.340 9
 123711040.118 5  23158968.086 5      3461.520 5         0.000 0         0.000 0
         0.000 0         0.000 0
 125083337.220 3  23383007.180 3     -3890.389 3  97287053.652 6         0.000 0
     -3025.307 6  23383015.773 6
 108203400.937 5  20234586.227 5      -360.063 5  84158262.886 8         0.000 0
      -280.488 8  20234596.828 8
 113004666.280 5  21117579.875 5      3692.260 5  87892370.410 7         0.000 0
      2871.680 7  21117585.172 7
 18  5 22 15 21 13.0000000  0 15G 7G 8G 9G16G23G26G27R 1R 2R10R11R12
                                R19R20R21
 121643689.500 5  23148024.332 5      3133.596 5  94787307.24447  23148028.60947
      2441.79947         0.000 0
 116227365.217 5  22117331.500 5      3139.436 5  90566806.25547  22117337.98447
      2446.35047         0.000 0
 113363589.002 6  21572374.645 6      -496.973 6  88335291.78949  21572380.32449
      -387.40249         0.000 0
 109862933.133 6  20906220.789 6     -2016.172 6  85607494.08049  20906224.55549
     -1571.01649         0.000 0
 116293192.239 2  22129860.199 2     -2483.438 2  90618081.92244  22129860.62944
     -1934.90244         0.000 0
 120734213.256 4  22974958.945 4     -2907.305 4  94078635.35445  22974965.78545
     -2265.37145         0.000 0
 106614986.127 6  20288157.984 6       926.738 6  83076638.18549  20288163.29349
       721.91449         0.000 0
 121241436.522 6  22752745.336 6     -3369.666 6  94303475.432 7         0.000 0
     -2620.613 7  22752755.219 7
 118960947.237 7  22254849.219 7       301.480 7  92529767.305 5         0.000 0
       234.867 5  22254858.531 5
 107519996.534 8  20170478.824 8     -1772.174 8  83626733.343 7         0.000 0
     -1378.068 7  20170494.008 7
 106425397.964 8  19916062.098 8      1729.033 8  82775347.132 9         0.000 0
      1344.563 9  19916071.695 9
 123707578.962 5  23158320.020 5      3461.092 5         0.000 0         0.000 0
         0.000 0         0.000 0
 125087227.714 3  23383735.141 3     -3890.400 3  97290079.646 6         0.000 0
     -3026.410 6  23383744.453 6
 108203761.976 5  20234656.039 5      -361.508 5  84158543.681 8         0.000 0
      -281.021 8  20234663.633 8
 113000974.814 5  21116889.699 5      3691.432 5  87889499.290 7         0.000 0
      2870.605 7  21116898.004 7
 18  5 22 15 21 14.0000000  0 15G 7G 8G 9G16G23G26G27R 1R 2R10R11R12
                                R19R20R21
 121640555.846 5  23147428.160 5      3134.445 5  94784865.45747  23147432.29747
      2442.41247         0.000 0
 116224226.207 6  22116734.613 6      3139.758 6  90564360.24647  22116740.26647
      2446.55347         0.000 0
 113364085.919 6  21572468.605 6      -496.863 6  88335678.98649  21572475.16049
      -387.27749         0.000 0
 109864949.492 6  20906604.656 6     -2015.693 6  85609065.26149  20906607.57449
     -1570.52049         0.000 0
 116295675.435 2  22130332.496 2     -2482.607 2  90620016.84344  22130333.52744
     -1934.60244         0.000 0
 120737120.733 4  22975512.805 4     -2907.256 4  94080900.96645  22975519.19945
     -2265.75445         0.000 0
 106614059.786 6  20287981.504 6       926.652 6  83075916.36349  20287986.62549
       722.11949         0.000 0
 121244806.685 6  22753373.930 6     -3369.717 6  94306096.646 6         0.000 0
     -2620.256 6  22753386.246 6
 118960646.007 7  22254792.305 7       301.273 7  92529533.003 5         0.000 0
       233.996 5  22254800.039 5
 107521768.951 7  20170811.789 7     -1771.854 7  83628111.873 7         0.000 0
     -1377.611 7  20170828.117 7
 106423669.607 8  19915738.488 8      1728.846 8  82774002.830 9         0.000 0
      1345.076 9  19915746.938 9
 123704117.780 5  23157671.699 5      3461.959 5         0.000 0         0.000 0
         0.000 0         0.000 0
 125091118.584 2  23384460.988 2     -3891.018 2  97293105.863 6         0.000 0
     -3025.975 6  23384471.875 6
 108204123.943 5  20234721.305 5      -362.045 5  84158825.182 8         0.000 0
      -280.779 8  20234728.609 8
 112997283.809 4  21116199.699 4      3691.635 4  87886628.552 7         0.000 0
      2871.080 7  21116207.719 7
